"Time_Hours","Vel_Indicated_kts","Vel_True_kts","Vel_Ground_kts","Vel_Groupn_mph","Vel_Mach","Vel_Vertical_fpm","GLoad_normal","GLoad_axial","GLoad_side","Flaps_Handle","Flaps_Position","Gear","Pitch_deg","Roll_deg","Heading_True","Heading_Mag","AngleOfAttack","Latitude","Longitude","Altitude_FtMsl","Altitude_FtAgl","RunwayThreshold","Altitude_Indicated","X","Y","Z","vX","vY","vZ","Eng1_Throttle","Eng2_Throttle","Eng1_Power_hp","Eng2_Power_hp","Eng1_Thrust_lb","Eng2_Thrust_lb","Eng1_Torque_lb","Eng2_Torque_lb","Eng1_EngineRPM","Eng2_EngineRPM","Eng1_PropRPM","Eng2_PropRPM","Eng1_PropPitch_deg","Eng2_PropPitch_deg","Eng1_N1","Eng2_N1","Eng1_N2","Eng2_N2","Eng1_FuelFlow","Eng2_FuelFlow","Eng1_ITT","Eng2_ITT","Eng1_EGT","Eng2_EGT","Eng1_CHT","Eng2_CHT","Eng1_OilPress_psi","Eng2_OilPress_psi","MasterCaution","MasterWarn","MasterAccept","FuelQuantity","HydPress","AutoThrottle"
19.70408,-0.00006,154.97797,154.97705,178.34442,0.23672,905.48944,1.17814,0.01671,-0.02874,0.00000,0.00000,0.00000,4.54218,-0.48916,67.56549,68.16267,1.34809,30.29180,-87.49928,2170.82593,2138.18140,0.00000,2166.81714,69.13535,578.94208,-32486.45703,74.22624,4.44770,-28.75920,0.00972,0.00972,448.55774,448.55774,397.92764,398.38071,1183.53296,1183.53296,2000.11304,2000.10266,2000.11304,2000.10266,15.34550,15.34550,84.30489,84.30489,99.61227,99.61227,341.36615,341.36420,498.46985,498.46985,508.53287,508.53287,178.41080,178.41080,15.05829,15.05829,0.00000,0.00000,0.00000,0.00000,0.00000,0.00000
19.70411,150.43619,154.94193,154.94110,178.30304,0.23667,905.85278,0.98153,0.05433,-0.05703,0.00000,0.00000,0.00000,4.13584,-0.66381,67.64639,68.24362,0.91499,30.29182,-87.49921,2172.16406,2139.40845,0.00000,2168.15039,75.66591,579.33704,-32488.99219,74.18683,4.48807,-28.80332,0.03906,0.03906,279.33688,279.38092,570.95062,573.89282,734.99915,735.14539,1994.33777,1994.19800,1994.33777,1994.19800,15.79161,15.78522,79.96375,79.96375,99.88868,99.88454,317.81830,317.81818,492.46664,492.46664,496.17978,496.17978,178.38043,178.38043,15.03822,15.03822,0.00000,0.00000,0.00000,0.00000,0.00000,0.00000
19.70414,150.39999,154.86684,154.86609,178.21672,0.23655,906.03601,0.87459,0.01363,-0.04546,0.00000,0.00000,0.00000,3.83773,-0.80627,67.79900,68.39628,0.67781,30.29185,-87.49915,2173.49805,2140.86035,0.00000,2169.49097,82.24181,579.73047,-32491.54688,74.13783,4.40250,-28.83589,0.06862,0.06862,161.06209,161.21005,372.61069,375.90265,426.08554,426.53226,1983.64551,1983.33350,1983.64551,1983.33350,14.97781,14.95742,76.01962,76.01962,99.35079,99.33791,281.64749,281.65823,487.05856,487.05856,485.28299,485.28299,178.34381,178.34383,14.99345,14.99345,0.00000,0.00000,0.00000,0.00000,0.00000,0.00000
19.70416,150.29993,154.73790,154.73724,178.06844,0.23636,904.44763,0.85887,-0.02017,-0.03221,0.00000,0.00000,0.00000,3.73142,-0.93431,67.99573,68.59306,0.65747,30.29187,-87.49908,2174.79126,2142.86597,0.00000,2170.79004,88.77861,580.11157,-32494.09180,74.06860,4.27826,-28.84943,0.09803,0.09803,75.07409,75.31894,198.42969,201.15907,199.55872,200.25075,1974.70068,1974.25549,1974.70068,1974.25549,14.21509,14.18194,72.46387,72.46387,98.87675,98.85642,245.37271,245.40404,482.29321,482.29321,475.90118,475.90118,178.30060,178.30064,14.92842,14.92842,0.00000,0.00000,0.00000,0.00000,0.00000,0.00000
19.70419,150.14801,154.56436,154.56378,177.86884,0.23609,900.98419,0.88540,-0.04690,-0.01887,0.00000,0.00000,0.00000,3.75692,-1.05400,68.21062,68.80800,0.75692,30.29189,-87.49901,2176.03589,2144.69702,0.00000,2172.05566,95.23267,580.47809,-32496.60742,73.98079,4.16776,-28.84484,0.12709,0.12709,14.63908,14.95119,53.63176,55.41291,39.06723,39.91036,1967.61633,1967.09448,1967.61633,1967.09448,13.54196,13.49952,69.41459,69.41459,98.48630,98.46116,212.95509,213.01053,478.16302,478.16302,467.97702,467.97702,178.24910,178.24922,14.84743,14.84743,0.00000,0.00000,0.00000,0.00000,0.00000,0.00000
19.70422,149.87744,154.27942,154.27890,177.54100,0.23566,894.26483,0.93176,-0.06733,-0.00178,0.00000,0.00000,0.00000,3.86721,-1.21730,68.49612,69.09357,0.93266,30.29192,-87.49892,2177.66260,2147.50708,0.00000,2173.69556,103.86036,580.95660,-32499.97461,73.84061,4.06324,-28.81532,0.16601,0.16601,-19.41233,-19.07491,-63.20926,-62.87709,-51.98313,-51.09357,1961.96313,1961.43298,1961.96313,1961.43298,12.87940,12.83125,67.33482,67.33482,98.14993,98.12305,180.05457,180.10649,473.47183,473.47183,459.28207,459.28207,178.15402,178.15440,14.72439,14.72439,0.00000,0.00000,0.00000,0.00000,0.00000,0.00000
19.70425,149.65059,154.04474,154.04428,177.27100,0.23530,888.40778,0.95587,-0.07344,0.00871,0.00000,0.00000,0.00000,3.93975,-1.36265,68.68781,69.28531,1.03276,30.29194,-87.49886,2178.86206,2149.44165,0.00000,2174.88647,110.31757,581.30927,-32502.49414,73.72711,4.01349,-28.78067,0.19519,0.19519,-26.84567,-26.53291,-101.72041,-102.32494,-71.98354,-71.16301,1959.83179,1959.35779,1959.83179,1959.35779,12.54878,12.50132,66.80121,66.80121,98.02026,97.99534,165.50711,165.53947,470.49338,470.49338,453.98184,453.98184,178.06995,178.07043,14.63211,14.63211,0.00000,0.00000,0.00000,0.00000,0.00000,0.00000
19.70428,149.39734,153.78793,153.78752,176.97552,0.23491,881.92560,0.96621,-0.07525,0.01724,0.00000,0.00000,0.00000,3.97856,-1.54395,68.85562,69.45318,1.09090,30.29197,-87.49878,2180.12183,2151.87158,0.00000,2176.14111,117.15646,581.67950,-32505.16406,73.60418,3.97398,-28.73737,0.22615,0.22615,-25.15149,-24.89593,-116.02701,-117.37542,-67.48707,-66.81529,1958.84729,1958.47571,1958.84729,1958.47571,12.29557,12.25274,66.85206,66.85206,97.95303,97.93259,155.97849,155.99803,467.76590,467.76590,449.32520,449.32520,177.97948,177.98006,14.54037,14.54037,0.00000,0.00000,0.00000,0.00000,0.00000,0.00000
19.70430,149.14279,153.53355,153.53317,176.68283,0.23452,875.41553,0.96362,-0.07403,0.02300,0.00000,0.00000,0.00000,3.97588,-1.75519,68.97780,69.57541,1.10648,30.29199,-87.49871,2181.35693,2153.78564,0.00000,2177.38525,123.91399,582.04248,-32507.80273,73.48334,3.93632,-28.69187,0.25678,0.25678,-16.62191,-16.44407,-112.23483,-114.09696,-44.60762,-44.13681,1958.81006,1958.56738,1958.81006,1958.56738,12.11771,12.08254,67.34232,67.34232,97.93700,97.92266,150.27176,150.28363,465.46646,465.46646,445.59714,445.59714,177.89131,177.89197,14.45923,14.45923,0.00000,0.00000,0.00000,0.00000,0.00000,0.00000
19.70433,148.89218,153.26823,153.26790,176.37756,0.23412,868.34430,0.95271,-0.07077,0.02609,0.00000,0.00000,0.00000,3.93598,-2.02222,69.05520,69.65286,1.09248,30.29202,-87.49863,2182.66016,2155.89771,0.00000,2178.62622,131.10757,582.42517,-32510.61133,73.35774,3.88827,-28.64441,0.28945,0.28945,-1.35127,-1.26128,-96.43365,-98.57892,-3.62538,-3.38420,1959.72815,1959.63562,1959.72815,1959.63562,11.99442,11.96881,68.22380,68.22380,97.96331,97.95597,146.61227,146.61922,463.41058,463.41058,442.47800,442.47800,177.80211,177.80286,14.38529,14.38529,0.00000,0.00000,0.00000,0.00000,0.00000,0.00000
19.70435,148.70830,153.07950,153.07919,176.16039,0.23383,862.92737,0.94201,-0.06613,0.02660,0.00000,0.00000,0.00000,3.88851,-2.25081,69.07727,69.67497,1.07095,30.29204,-87.49858,2183.61328,2157.73633,0.00000,2179.55884,136.42657,582.70502,-32512.68945,73.26822,3.84451,-28.61236,0.31364,0.31364,13.60373,13.62695,-72.89571,-75.10776,36.47934,36.54232,1960.95093,1960.96790,1960.95093,1960.96790,11.95271,11.93499,69.06045,69.06045,98.01350,98.01158,145.26593,145.27425,462.13327,462.13327,440.68811,440.68811,177.74731,177.74814,14.33959,14.33959,0.00000,0.00000,0.00000,0.00000,0.00000,0.00000
19.70438,148.42986,152.80174,152.80147,175.84081,0.23341,853.83514,0.92389,-0.05599,0.02524,0.00000,0.00000,0.00000,3.79390,-2.66444,69.05703,69.65480,1.03081,30.29207,-87.49850,2185.09106,2159.95776,0.00000,2181.04150,144.79993,583.13861,-32515.95898,73.13516,3.75964,-28.57114,0.35178,0.35178,42.91974,42.84585,-20.56940,-22.68016,114.95231,114.74718,1963.58044,1963.75146,1963.58044,1963.75146,11.95740,11.95226,70.60242,70.60242,98.13279,98.13898,147.44836,147.45041,460.52069,460.52069,438.69922,438.69922,177.67920,177.68004,14.28389,14.28389,0.00000,0.00000,0.00000,0.00000,0.00000,0.00000
19.70440,148.25851,152.62503,152.62479,175.63748,0.23314,846.92737,0.91237,-0.04786,0.02307,0.00000,0.00000,0.00000,3.71928,-2.99559,69.00880,69.60661,1.00406,30.29209,-87.49844,2186.10181,2161.93872,0.00000,2182.01978,150.63998,583.43494,-32518.24219,73.04890,3.68932,-28.55106,0.37843,0.37843,67.49076,67.36414,21.28760,19.34706,180.57341,180.21483,1965.97900,1966.23657,1965.97900,1966.23657,11.99813,12.00066,71.79774,71.79774,98.23479,98.24559,151.51459,151.50465,459.67047,459.67047,437.87115,437.87115,177.63895,177.63977,14.25675,14.25675,0.00000,0.00000,0.00000,0.00000,0.00000,0.00000
19.70444,148.02567,152.40611,152.40588,175.38557,0.23281,836.16479,0.89884,-0.03279,0.01865,0.00000,0.00000,0.00000,3.60950,-3.51960,68.90563,69.50352,0.97401,30.29212,-87.49834,2187.49487,2164.02441,0.00000,2183.47070,158.87408,583.84290,-32521.46289,72.93848,3.57718,-28.53817,0.41604,0.41604,106.86162,106.67850,98.61015,97.01882,285.37741,284.84213,1969.68921,1970.03186,1969.68921,1970.03186,12.13227,12.14424,73.56787,73.56787,98.41855,98.43454,160.14859,160.11871,458.84695,458.84695,437.44806,437.44806,177.59128,177.59207,14.23458,14.23458,0.00000,0.00000,0.00000,0.00000,0.00000,0.00000
19.70447,147.83456,152.22244,152.22226,175.17426,0.23253,823.82263,0.88984,-0.01536,0.01381,0.00000,0.00000,0.00000,3.49421,-4.12272,68.77275,69.37070,0.95144,30.29214,-87.49826,2188.87183,2166.70654,0.00000,2184.85522,167.27182,584.24554,-32524.75195,72.84001,3.45170,-28.54573,0.45445,0.45445,153.15805,152.94987,188.01202,186.74959,408.10959,407.47751,1974.27661,1974.66003,1974.27661,1974.66003,12.33796,12.35609,75.44821,75.44821,98.63654,98.65527,171.81158,171.76361,458.43732,458.43732,437.84793,437.84793,177.55287,177.55363,14.22973,14.22973,0.00000,0.00000,0.00000,0.00000,0.00000,0.00000
19.70450,147.69151,152.09410,152.09393,175.02658,0.23233,811.14404,0.88413,0.00269,0.00939,0.00000,0.00000,0.00000,3.38432,-4.73416,68.64005,69.23805,0.93451,30.29217,-87.49818,2190.09985,2168.77051,0.00000,2186.12622,175.01704,584.60419,-32527.79102,72.76386,3.32923,-28.57343,0.48992,0.48992,200.40875,200.19933,280.89285,279.92288,532.80231,532.14099,1978.79993,1979.18799,1978.79993,1979.18799,12.58698,12.60822,77.18700,77.18700,98.86108,98.88052,184.79164,184.73232,458.43884,458.43884,438.92850,438.92850,177.52647,177.52722,14.23991,14.23991,0.00000,0.00000,0.00000,0.00000,0.00000,0.00000
19.70453,147.59138,152.00693,152.00679,174.92630,0.23220,797.17523,0.88004,0.02226,0.00582,0.00000,0.00000,0.00000,3.26936,-5.39879,68.50799,69.10606,0.91791,30.29220,-87.49810,2191.29150,2170.97803,0.00000,2187.34131,182.80392,584.95160,-32530.85352,72.70232,3.20153,-28.62191,0.52561,0.52561,252.56288,252.36952,382.06366,381.37158,669.77673,669.13861,1983.79309,1984.15308,1983.79309,1984.15308,12.89612,12.91810,78.93449,78.93449,99.10926,99.12784,199.72653,199.66168,458.79633,458.79633,440.66458,440.66458,177.50842,177.50916,14.26251,14.26251,0.00000,0.00000,0.00000,0.00000,0.00000,0.00000
19.70456,147.53690,151.96497,151.96484,174.87804,0.23214,782.58563,0.87706,0.04122,0.00342,0.00000,0.00000,0.00000,3.15434,-6.08064,68.38964,68.98777,0.90072,30.29223,-87.49802,2192.39795,2172.92310,0.00000,2188.44995,190.30913,585.27356,-32533.81445,72.65832,3.07499,-28.68851,0.56004,0.56004,306.83701,306.67017,480.64795,480.05783,811.72278,811.14545,1988.86853,1989.18579,1988.86853,1989.18579,13.22440,13.24529,80.59178,80.59178,99.35159,99.36823,215.74936,215.68477,459.47360,459.47360,442.92902,442.92902,177.49910,177.49982,14.29467,14.29467,0.00000,0.00000,0.00000,0.00000,0.00000,0.00000
19.70458,147.52107,151.96664,151.96654,174.87997,0.23214,767.21350,0.87455,0.06191,0.00236,0.00000,0.00000,0.00000,3.03761,-6.78679,68.28604,68.88423,0.88169,30.29225,-87.49794,2193.44458,2175.21973,0.00000,2189.53271,197.69009,585.57739,-32536.73438,72.63113,2.94778,-28.77298,0.59391,0.59391,363.65308,363.51562,588.63843,588.09094,959.51538,959.01526,1993.94214,1994.21155,1993.94214,1994.21155,13.60587,13.62474,82.18781,82.18781,99.61165,99.62593,232.98228,232.92197,460.45447,460.45447,445.70175,445.70175,177.49765,177.49837,14.33491,14.33491,0.00000,0.00000,0.00000,0.00000,0.00000,0.00000
19.70461,147.55008,152.01254,152.01245,174.93282,0.23221,750.75269,0.87266,0.08289,0.00238,0.00000,0.00000,0.00000,2.91726,-7.52974,68.19569,68.79394,0.86011,30.29228,-87.49786,2194.45630,2177.10718,0.00000,2190.54858,205.12906,585.87042,-32539.68945,72.62056,2.81725,-28.87671,0.62353,0.62353,423.38345,423.27402,698.60150,698.06189,1114.22034,1113.79980,1999.16089,1999.38342,1999.16089,1999.38342,14.01191,14.02849,83.73267,83.73267,99.87059,99.88248,251.70352,251.65009,461.75177,461.75177,449.01828,449.01828,177.50388,177.50459,14.38281,14.38281,0.00000,0.00000,0.00000,0.00000,0.00000,0.00000
19.70464,147.62126,152.09683,152.09676,175.02982,0.23234,734.18799,0.87103,0.10106,0.00336,0.00000,0.00000,0.00000,2.80100,-8.26328,68.12170,68.72001,0.83754,30.29230,-87.49780,2195.38062,2178.80811,0.00000,2191.51929,212.22650,586.13757,-32542.51953,72.62592,2.69074,-28.99253,0.62353,0.62353,464.51044,464.42252,794.40558,793.78223,1219.74268,1219.39197,2002.84497,2003.03125,2002.84497,2003.03125,14.38540,14.39992,84.73933,84.73933,100.09263,100.10246,275.03867,274.97818,463.09854,463.09854,452.30182,452.30182,177.51581,177.51653,14.43343,14.43343,0.00000,0.00000,0.00000,0.00000,0.00000,0.00000
19.70466,147.71960,152.20688,152.20682,175.15649,0.23251,717.17407,0.86982,0.11196,0.00505,0.00000,0.00000,0.00000,2.68719,-8.99996,68.05842,68.65678,0.81466,30.29233,-87.49772,2196.24780,2180.51416,0.00000,2192.40015,219.18834,586.38739,-32545.30469,72.64068,2.56468,-29.11959,0.62353,0.62353,489.57486,489.50177,852.88312,852.24054,1283.87817,1283.57996,2005.04895,2005.20679,2005.04895,2005.20679,14.63667,14.64976,85.32781,85.32781,100.22363,100.23195,298.36133,298.30203,464.33841,464.33841,455.27087,455.27087,177.53055,177.53130,14.48401,14.48401,0.00000,0.00000,0.00000,0.00000,0.00000,0.00000
19.70469,147.83281,152.32742,152.32736,175.29521,0.23270,700.41992,0.86884,0.11795,0.00713,0.00000,0.00000,0.00000,2.58106,-9.70669,68.00374,68.60215,0.79362,30.29235,-87.49765,2197.03125,2182.25293,0.00000,2193.20337,225.77080,586.61249,-32547.95117,72.65932,2.44357,-29.25002,0.62353,0.62353,504.04996,503.98727,886.05127,885.34644,1320.91077,1320.65161,2006.18896,2006.32751,2006.18896,2006.32751,14.80216,14.81427,85.65897,85.65897,100.29398,100.30119,317.17047,317.11548,465.45667,465.45667,457.89511,457.89511,177.54614,177.54691,14.53050,14.53050,0.00000,0.00000,0.00000,0.00000,0.00000,0.00000
19.70471,147.96257,152.46788,152.46782,175.45685,0.23291,681.81781,0.86820,0.12154,0.00955,0.00000,0.00000,0.00000,2.46958,-10.47183,67.94678,68.54525,0.77227,30.29238,-87.49758,2197.82861,2183.84399,0.00000,2194.00024,232.81485,586.84082,-32550.79688,72.68137,2.31210,-29.39922,0.62353,0.62353,513.45612,513.40027,907.04828,906.23444,1345.04382,1344.81079,2006.79382,2006.92065,2006.79382,2006.92065,14.92871,14.94037,85.86999,85.86999,100.33252,100.33900,332.93488,332.88525,466.60950,466.60950,460.54263,460.54263,177.56384,177.56462,14.57767,14.57767,0.00000,0.00000,0.00000,0.00000,0.00000,0.00000
19.70474,148.10098,152.61539,152.61534,175.62660,0.23314,662.65515,0.86778,0.12329,0.01205,0.00000,0.00000,0.00000,2.36095,-11.23850,67.88763,68.48615,0.75273,30.29240,-87.49751,2198.58008,2185.42114,0.00000,2194.76147,239.81813,587.05505,-32553.63867,72.70354,2.17946,-29.55670,0.62353,0.62353,518.94727,518.89404,918.52722,917.57227,1359.22229,1358.99866,2006.98804,2007.11206,2006.98804,2007.11206,15.02204,15.03389,85.99088,85.99088,100.34773,100.35394,344.40390,344.35898,467.71783,467.71783,463.02902,463.02902,177.58205,177.58286,14.62132,14.62132,0.00000,0.00000,0.00000,0.00000,0.00000,0.00000
19.70476,148.20164,152.72615,152.72612,175.75409,0.23331,648.33337,0.86770,0.12393,0.01371,0.00000,0.00000,0.00000,2.28294,-11.79953,67.84077,68.43933,0.73943,30.29242,-87.49745,2199.09937,2186.76880,0.00000,2195.26660,244.90811,587.20251,-32555.71289,72.71910,2.08197,-29.67663,0.62353,0.62353,521.48041,521.42712,923.60034,922.53027,1365.83252,1365.60803,2006.96362,2007.09021,2006.96362,2007.09021,15.07633,15.08867,86.04549,86.04549,100.34953,100.35577,350.59726,350.55478,468.50311,468.50311,464.75531,464.75531,177.59550,177.59631,14.65094,14.65094,0.00000,0.00000,0.00000,0.00000,0.00000,0.00000
19.70479,148.37741,152.91237,152.91235,175.96840,0.23359,624.18835,0.86752,0.12410,0.01636,0.00000,0.00000,0.00000,2.15564,-12.72543,67.75343,68.35206,0.71883,30.29245,-87.49737,2199.89990,2188.22314,0.00000,2196.07397,253.24489,587.42877,-32559.13086,72.74265,1.92022,-29.88289,0.62353,0.62353,524.03717,523.98022,927.27039,925.98212,1372.63477,1372.39441,2006.75916,2006.89746,2006.75916,2006.89746,15.14872,15.16246,86.09879,86.09879,100.34180,100.34847,357.75446,357.71408,469.75604,469.75604,467.44794,467.44794,177.61775,177.61858,14.69565,14.69565,0.00000,0.00000,0.00000,0.00000,0.00000,0.00000
19.70482,148.54948,153.08548,153.08545,176.16759,0.23386,601.53497,0.86738,0.12380,0.01842,0.00000,0.00000,0.00000,2.04011,-13.56884,67.66000,68.25869,0.70185,30.29248,-87.49728,2200.57446,2190.10303,0.00000,2196.79248,260.81195,587.61816,-32562.25195,72.76108,1.77078,-30.08116,0.62353,0.62353,525.31512,525.25189,928.30914,926.80566,1376.14880,1375.88110,2006.50085,2006.65540,2006.50085,2006.65540,15.20558,15.22122,86.12393,86.12393,100.32966,100.33710,361.86432,361.82352,470.85895,470.85895,469.75259,469.75259,177.63806,177.63892,14.73216,14.73216,0.00000,0.00000,0.00000,0.00000,0.00000,0.00000
19.70485,148.71091,153.25304,153.25302,176.36043,0.23411,579.40857,0.86747,0.12340,0.01986,0.00000,0.00000,0.00000,1.92931,-14.37216,67.55678,68.15553,0.68681,30.29251,-87.49722,2201.16797,2191.65063,0.00000,2197.40649,267.99451,587.78351,-32565.23438,72.77555,1.62661,-30.27944,0.62353,0.62353,526.05389,525.98334,928.53192,926.82928,1378.28699,1377.98779,2006.18909,2006.36206,2006.18909,2006.36206,15.25329,15.27105,86.13708,86.13708,100.31489,100.32321,364.39297,364.34995,471.87775,471.87775,471.82712,471.82712,177.65736,177.65825,14.76353,14.76353,0.00000,0.00000,0.00000,0.00000,0.00000,0.00000
19.70487,148.87213,153.41687,153.41684,176.54897,0.23436,557.58521,0.86834,0.12291,0.02117,0.00000,0.00000,0.00000,1.82064,-15.14507,67.44342,68.04222,0.67259,30.29253,-87.49714,2201.69409,2193.14746,0.00000,2197.96021,274.89789,587.92889,-32568.11914,72.78638,1.48599,-30.47954,0.62353,0.62353,526.52576,526.44727,927.82373,925.93658,1379.74805,1379.41479,2005.86829,2006.05981,2005.86829,2006.05981,15.29440,15.31442,86.14426,86.14426,100.29855,100.30782,365.99667,365.95029,472.83246,472.83246,473.72382,473.72382,177.67590,177.67682,14.79090,14.79090,0.00000,0.00000,0.00000,0.00000,0.00000,0.00000
19.70490,149.02625,153.57581,153.57581,176.73190,0.23461,536.26678,0.86937,0.12248,0.02174,0.00000,0.00000,0.00000,1.71415,-15.85710,67.32221,67.92107,0.65840,30.29256,-87.49707,2202.15576,2194.21338,0.00000,2198.43872,281.48618,588.05524,-32570.89062,72.79372,1.35060,-30.67954,0.62353,0.62353,526.84656,526.76062,927.38068,925.34082,1380.80957,1380.44434,2005.53931,2005.74805,2005.53931,2005.74805,15.33149,15.35374,86.14826,86.14826,100.28250,100.29267,367.02759,366.97714,473.72202,473.72202,475.44980,475.44980,177.69359,177.69450,14.81469,14.81469,0.00000,0.00000,0.00000,0.00000,0.00000,0.00000
19.70492,149.18452,153.74103,153.74103,176.92201,0.23486,513.98767,0.86978,0.12194,0.02166,0.00000,0.00000,0.00000,1.60196,-16.54770,67.18522,67.78413,0.64371,30.29259,-87.49700,2202.58667,2195.50342,0.00000,2198.88086,288.22546,588.17157,-32573.74414,72.79809,1.21008,-30.89327,0.62353,0.62353,527.10760,527.01495,926.46857,924.28625,1381.73779,1381.34375,2005.18298,2005.40784,2005.18298,2005.40784,15.36589,15.39036,86.15068,86.15068,100.26479,100.27576,367.75244,367.69751,474.61108,474.61108,477.13547,477.13547,177.71165,177.71257,14.83689,14.83689,0.00000,0.00000,0.00000,0.00000,0.00000,0.00000
19.70495,149.34177,153.90462,153.90462,177.11028,0.23511,491.80164,0.87004,0.12146,0.02123,0.00000,0.00000,0.00000,1.48957,-17.18502,67.03982,67.63878,0.62970,30.29261,-87.49693,2202.96558,2196.78735,0.00000,2199.27393,294.79739,588.27246,-32576.54492,72.79926,1.07066,-31.11046,0.62353,0.62353,527.31305,527.21442,925.67139,923.38281,1382.50830,1382.08826,2004.84363,2005.08191,2004.84363,2005.08191,15.39856,15.42516,86.15207,86.15207,100.24797,100.25967,368.24689,368.18753,475.45819,475.45819,478.70465,478.70465,177.72923,177.73015,14.85662,14.85662,0.00000,0.00000,0.00000,0.00000,0.00000,0.00000
19.70498,149.50667,154.07690,154.07689,177.30852,0.23537,468.33435,0.87028,0.12092,0.02053,0.00000,0.00000,0.00000,1.37017,-17.80950,66.87791,67.47692,0.61564,30.29264,-87.49686,2203.31421,2197.90698,0.00000,2199.63403,301.60779,588.36346,-32579.47070,72.79739,0.92367,-31.34435,0.62353,0.62353,527.50226,527.39893,924.54773,922.16510,1383.25085,1382.81042,2004.48743,2004.73621,2004.48743,2004.73621,15.43012,15.45871,86.15292,86.15292,100.23009,100.24239,368.61432,368.55060,476.31604,476.31604,480.25748,480.25748,177.74739,177.74832,14.87527,14.87527,0.00000,0.00000,0.00000,0.00000,0.00000,0.00000
19.70500,149.67484,154.25308,154.25308,177.51129,0.23564,444.22714,0.87056,0.12042,0.01964,0.00000,0.00000,0.00000,1.24743,-18.40311,66.70503,67.30410,0.60211,30.29266,-87.49679,2203.61914,2199.09961,0.00000,2199.95239,308.46060,588.44098,-32582.43555,72.79236,0.77311,-31.58851,0.62353,0.62353,527.67096,527.56445,923.49591,921.04797,1383.93286,1383.47815,2004.14001,2004.39600,2004.14001,2004.39600,15.46118,15.49158,86.15341,86.15341,100.21275,100.22545,368.88730,368.81973,477.15912,477.15912,481.74780,481.74780,177.76562,177.76656,14.89233,14.89233,0.00000,0.00000,0.00000,0.00000,0.00000,0.00000
19.70503,149.84802,154.43105,154.43103,177.71606,0.23591,419.77435,0.87088,0.11993,0.01865,0.00000,0.00000,0.00000,1.12332,-18.96042,66.52499,67.12411,0.58931,30.29269,-87.49672,2203.87622,2199.50269,0.00000,2200.22583,315.27109,588.50385,-32585.40820,72.78427,0.62087,-31.83962,0.62353,0.62353,527.82526,527.71686,922.41144,919.92303,1384.56836,1384.10522,2003.80945,2004.06897,2003.80945,2004.06897,15.49126,15.52322,86.15370,86.15370,100.19605,100.20898,369.09595,369.02536,477.97751,477.97751,483.16046,483.16046,177.78369,177.78462,14.90775,14.90775,0.00000,0.00000,0.00000,0.00000,0.00000,0.00000
19.70506,150.02100,154.60974,154.60974,177.92172,0.23619,395.13116,0.87125,0.11945,0.01764,0.00000,0.00000,0.00000,0.99906,-19.48069,66.34070,66.93987,0.57725,30.29272,-87.49665,2204.08447,2199.25781,0.00000,2200.45117,321.99918,588.55182,-32588.36719,72.77338,0.46796,-32.09563,0.62353,0.62353,527.96887,527.85999,921.28320,918.77393,1385.16663,1384.70129,2003.49512,2003.75464,2003.49512,2003.75464,15.52017,15.55343,86.15387,86.15387,100.18001,100.19301,369.26172,369.18896,478.76736,478.76736,484.49213,484.49213,177.80150,177.80243,14.92161,14.92161,0.00000,0.00000,0.00000,0.00000,0.00000,0.00000
19.70508,150.19550,154.78685,154.78685,178.12553,0.23646,370.63214,0.87164,0.11897,0.01671,0.00000,0.00000,0.00000,0.87668,-19.96042,66.15626,66.75549,0.56595,30.29274,-87.49658,2204.24292,2198.71948,0.00000,2200.62646,328.56046,588.58496,-32591.27539,72.76007,0.31654,-32.35255,0.62353,0.62353,528.10248,527.99463,920.09589,917.57672,1385.72791,1385.26672,2003.20007,2003.45667,2003.20007,2003.45667,15.54759,15.58185,86.15396,86.15396,100.16477,100.17767,369.39752,369.32355,479.52023,479.52023,485.73230,485.73230,177.81882,177.81975,14.93393,14.93393,0.00000,0.00000,0.00000,0.00000,0.00000,0.00000
19.70511,150.36549,154.96210,154.96210,178.32719,0.23673,346.32330,0.87208,0.11853,0.01589,0.00000,0.00000,0.00000,0.75664,-20.40265,65.97323,66.57251,0.55527,30.29277,-87.49651,2204.35449,2198.44165,0.00000,2200.75293,334.95233,588.60400,-32594.13281,72.74465,0.16692,-32.60935,0.62353,0.62353,528.22589,528.12006,919.08514,916.57251,1386.24731,1385.79443,2002.92126,2003.17249,2002.92126,2003.17249,15.57412,15.60916,86.15402,86.15402,100.15064,100.16331,369.51331,369.43896,480.23752,480.23752,486.88745,486.88745,177.83565,177.83658,14.94489,14.94489,0.00000,0.00000,0.00000,0.00000,0.00000,0.00000
19.70513,150.54047,155.14606,155.14606,178.53889,0.23701,320.76242,0.87255,0.11812,0.01520,0.00000,0.00000,0.00000,0.63192,-20.83423,65.78172,66.38105,0.54431,30.29280,-87.49644,2204.42407,2197.99048,0.00000,2200.83643,341.55475,588.60968,-32597.10938,72.72636,0.01033,-32.88092,0.62353,0.62353,528.34821,528.24567,918.19916,915.69940,1386.76331,1386.32336,2002.63306,2002.87683,2002.63306,2002.87683,15.60103,15.63668,86.15405,86.15405,100.13658,100.14890,369.62082,369.54691,480.96228,480.96228,488.02869,488.02869,177.85298,177.85390,14.95524,14.95524,0.00000,0.00000,0.00000,0.00000,0.00000,0.00000
19.70516,150.72813,155.34059,155.34059,178.76277,0.23730,293.67487,0.87284,0.11760,0.01461,0.00000,0.00000,0.00000,0.50144,-21.25731,65.58054,66.17993,0.53288,30.29282,-87.49638,2204.44678,2197.84692,0.00000,2200.87573,348.42709,588.60028,-32600.23633,72.70486,-0.15487,-33.16992,0.62353,0.62353,528.47583,528.37683,916.86719,914.37842,1387.30151,1386.87720,2002.34863,2002.58337,2002.34863,2002.58337,15.62763,15.66377,86.15408,86.15408,100.12189,100.13377,369.72388,369.65118,481.69965,481.69965,489.16306,489.16306,177.87096,177.87187,14.96505,14.96505,0.00000,0.00000,0.00000,0.00000,0.00000,0.00000
19.70518,150.91643,155.53450,155.53452,178.98593,0.23760,266.63409,0.87317,0.11715,0.01420,0.00000,0.00000,0.00000,0.37329,-21.64753,65.38191,65.98135,0.52192,30.29285,-87.49631,2204.41968,2197.60718,0.00000,2200.86523,355.16614,588.57581,-32603.32812,72.68150,-0.31903,-33.45918,0.62353,0.62353,528.59161,528.49683,915.86340,913.38953,1387.78857,1387.38147,2002.08447,2002.30945,2002.08447,2002.30945,15.65423,15.69074,86.15409,86.15409,100.10868,100.12009,369.81870,369.74774,482.40607,482.40607,490.22433,490.22433,177.88853,177.88945,14.97380,14.97380,0.00000,0.00000,0.00000,0.00000,0.00000,0.00000
19.70521,151.11221,155.73947,155.73947,179.22179,0.23791,238.02960,0.87349,0.11666,0.01394,0.00000,0.00000,0.00000,0.23987,-22.02818,65.17427,65.77377,0.51063,30.29288,-87.49623,2204.33789,2197.77930,0.00000,2200.80225,362.17221,588.53394,-32606.57422,72.65500,-0.49177,-33.76555,0.62353,0.62353,528.70996,528.61945,914.71594,912.24817,1388.28662,1387.89771,2001.81567,2002.03040,2001.81567,2002.03040,15.68097,15.71779,86.15409,86.15409,100.09518,100.10609,369.91125,369.84259,483.12363,483.12363,491.27704,491.27704,177.90674,177.90765,14.98207,14.98207,0.00000,0.00000,0.00000,0.00000,0.00000,0.00000
19.70524,151.31717,155.95354,155.95354,179.46812,0.23824,208.13503,0.87378,0.11616,0.01381,0.00000,0.00000,0.00000,0.10267,-22.39377,64.95984,65.55939,0.49919,30.29291,-87.49615,2204.19727,2197.45874,0.00000,2200.68188,369.36798,588.47339,-32609.94141,72.62555,-0.67132,-34.08578,0.62353,0.62353,528.82666,528.74048,913.56061,911.09473,1388.77612,1388.40564,2001.55237,2001.75696,2001.55237,2001.75696,15.70814,15.74523,86.15409,86.15409,100.08198,100.09238,370.00177,369.93579,483.84314,483.84314,492.30692,492.30692,177.92538,177.92630,14.98977,14.98977,0.00000,0.00000,0.00000,0.00000,0.00000,0.00000
19.70526,151.53043,156.17511,156.17513,179.72313,0.23858,177.18401,0.87408,0.11566,0.01380,0.00000,0.00000,0.00000,-0.03711,-22.74069,64.74017,65.33978,0.48778,30.29294,-87.49608,2203.99365,2197.57935,0.00000,2200.50049,376.69113,588.39325,-32613.40039,72.59341,-0.85614,-34.41700,0.62353,0.62353,528.94049,528.85834,912.41339,909.94318,1389.25183,1388.89844,2001.29797,2001.49316,2001.29797,2001.49316,15.73555,15.77294,86.15409,86.15409,100.06925,100.07917,370.08978,370.02667,484.55759,484.55759,493.30408,493.30408,177.94429,177.94521,14.99685,14.99685,0.00000,0.00000,0.00000,0.00000,0.00000,0.00000
19.70529,151.75276,156.40504,156.40504,179.98772,0.23893,145.08177,0.87427,0.11508,0.01387,0.00000,0.00000,0.00000,-0.17979,-23.06969,64.51426,65.11393,0.47659,30.29297,-87.49600,2203.72290,2197.13135,0.00000,2200.24976,384.15982,588.29205,-32616.96680,72.55853,-1.04669,-34.75992,0.62353,0.62353,529.05603,528.97766,910.95929,908.47064,1389.73218,1389.39502,2001.05457,2001.24146,2001.05457,2001.24146,15.76260,15.80030,86.15410,86.15410,100.05650,100.06597,370.17563,370.11533,485.26822,485.26822,494.27081,494.27081,177.96350,177.96442,15.00337,15.00337,0.00000,0.00000,0.00000,0.00000,0.00000,0.00000
19.70531,151.97820,156.63560,156.63560,180.25305,0.23928,112.91299,0.87464,0.11455,0.01398,0.00000,0.00000,0.00000,-0.31988,-23.37098,64.28893,64.88866,0.46689,30.29300,-87.49593,2203.39331,2196.61963,0.00000,2199.93872,391.52295,588.17297,-32620.51758,72.52213,-1.23646,-35.10272,0.62353,0.62353,529.16156,529.08643,909.72003,907.21570,1390.16919,1389.84546,2000.83020,2001.01001,2000.83020,2001.01001,15.78967,15.82776,86.15410,86.15410,100.04501,100.05411,370.25708,370.19949,485.95139,485.95139,495.17639,495.17639,177.98236,177.98328,15.00916,15.00916,0.00000,0.00000,0.00000,0.00000,0.00000,0.00000
19.70534,152.20329,156.86847,156.86845,180.52100,0.23964,80.46708,0.87506,0.11409,0.01410,0.00000,0.00000,0.00000,-0.45764,-23.64881,64.06170,64.66148,0.45956,30.29304,-87.49585,2203.00342,2196.41870,0.00000,2199.57227,398.83609,588.03552,-32624.08203,72.48407,-1.42655,-35.44759,0.62353,0.62353,529.26068,529.18823,908.68219,906.15668,1390.57727,1390.26465,2000.61487,2000.78882,2000.61487,2000.78882,15.81667,15.85520,86.15410,86.15410,100.03439,100.04317,370.33444,370.27927,486.61328,486.61328,496.03156,496.03156,178.00102,178.00194,15.01436,15.01436,0.00000,0.00000,0.00000,0.00000,0.00000,0.00000
19.70537,152.43146,157.10349,157.10350,180.79147,0.24000,47.77068,0.87598,0.11360,0.01419,0.00000,0.00000,0.00000,-0.59241,-23.90487,63.83192,64.43177,0.45534,30.29307,-87.49577,2202.55444,2196.07812,0.00000,2199.14209,406.09933,587.87982,-32627.65820,72.44442,-1.61667,-35.79427,0.62353,0.62353,529.35834,529.28802,907.40826,904.85516,1390.97742,1390.67383,2000.41431,2000.58350,2000.41431,2000.58350,15.84280,15.88181,86.15410,86.15410,100.02407,100.03260,370.40811,370.35504,487.25461,487.25461,496.83932,496.83932,178.01949,178.02040,15.01902,15.01902,0.00000,0.00000,0.00000,0.00000,0.00000,0.00000
19.70539,152.65842,157.33307,157.33307,181.05566,0.24035,15.89584,0.87770,0.11314,0.01423,0.00000,0.00000,0.00000,-0.71964,-24.13375,63.60652,64.20643,0.45426,30.29310,-87.49570,2202.06372,2195.69092,0.00000,2198.66309,413.08618,587.71204,-32631.13477,72.40440,-1.80003,-36.13177,0.62353,0.62353,529.44824,529.37946,906.14264,903.56421,1391.34302,1391.04639,2000.23645,2000.40198,2000.23645,2000.40198,15.86796,15.90749,86.15410,86.15410,100.01476,100.02310,370.47641,370.42505,487.85678,487.85678,497.57901,497.57901,178.03717,178.03809,15.02307,15.02307,0.00000,0.00000,0.00000,0.00000,0.00000,0.00000
19.70542,152.88167,157.56212,157.56212,181.31926,0.24070,-15.80903,0.87827,0.11278,0.01461,0.00000,0.00000,0.00000,-0.84201,-24.32001,63.38023,63.98019,0.45722,30.29313,-87.49563,2201.52515,2194.86401,0.00000,2198.14087,419.95377,587.52979,-32634.58398,72.36362,-1.98103,-36.46661,0.62353,0.62353,529.53394,529.46655,905.07574,902.46631,1391.68982,1391.39917,2000.06262,2000.22510,2000.06262,2000.22510,15.89249,15.93254,86.15410,86.15410,100.00602,100.01420,370.54074,370.49081,488.43497,488.43497,498.27222,498.27222,178.05449,178.05540,15.02669,15.02669,0.00000,0.00000,0.00000,0.00000,0.00000,0.00000
19.70545,153.10883,157.79836,157.79836,181.59111,0.24106,-48.39299,0.88094,0.11240,0.01420,0.00000,0.00000,0.00000,-0.96355,-24.44681,63.14497,63.74499,0.46383,30.29316,-87.49556,2200.91992,2194.46899,0.00000,2197.56030,426.93536,587.32678,-32638.12500,72.32043,-2.16460,-36.81055,0.62353,0.62353,529.62189,529.55585,904.00262,901.36377,1392.04468,1391.75916,1999.88391,2000.04382,1999.88391,2000.04382,15.91660,15.95722,86.15411,86.15411,99.99714,100.00517,370.60449,370.55582,489.00919,489.00919,498.94427,498.94427,178.07202,178.07294,15.03002,15.03002,0.00000,0.00000,0.00000,0.00000,0.00000,0.00000
19.70547,153.34410,158.04234,158.04236,181.87190,0.24143,-81.90858,0.88463,0.11204,0.01357,0.00000,0.00000,0.00000,-1.08436,-24.51097,62.89990,63.49997,0.47354,30.29320,-87.49548,2200.24414,2193.61743,0.00000,2196.91162,434.04895,587.10156,-32641.77148,72.27459,-2.34988,-37.16457,0.62353,0.62353,529.70868,529.64362,902.87311,900.21527,1392.39258,1392.11157,1999.71094,1999.86816,1999.71094,1999.86816,15.94098,15.98220,86.15411,86.15411,99.98853,99.99644,370.66855,370.62097,489.58060,489.58060,499.59686,499.59686,178.08981,178.09073,15.03311,15.03311,0.00000,0.00000,0.00000,0.00000,0.00000,0.00000
19.70550,153.58662,158.28819,158.28819,182.15480,0.24180,-115.48098,0.88922,0.11164,0.01276,0.00000,0.00000,0.00000,-1.20118,-24.51351,62.65118,63.25130,0.48570,30.29323,-87.49541,2199.51343,2193.03540,0.00000,2196.18994,441.12189,586.85968,-32645.43359,72.22728,-2.53129,-37.51980,0.62353,0.62353,529.79370,529.73010,901.44928,898.78088,1392.73132,1392.45618,1999.55652,1999.71033,1999.55652,1999.71033,15.96488,16.00662,86.15411,86.15411,99.98026,99.98801,370.73077,370.68420,490.13531,490.13531,500.21490,500.21490,178.10744,178.10835,15.03589,15.03589,0.00000,0.00000,0.00000,0.00000,0.00000,0.00000
19.70552,153.82874,158.53830,158.53830,182.44263,0.24218,-149.38280,0.89442,0.11131,0.01186,0.00000,0.00000,0.00000,-1.31474,-24.45807,62.39670,62.99689,0.50016,30.29326,-87.49534,2198.72144,2192.02417,0.00000,2195.42017,448.22900,586.59869,-32649.15039,72.17815,-2.70982,-37.87962,0.62353,0.62353,529.87408,529.81219,900.22638,897.55994,1393.04749,1392.77979,1999.40759,1999.55701,1999.40759,1999.55701,15.98930,16.03148,86.15411,86.15411,99.97272,99.98026,370.79135,370.74582,490.67960,490.67960,500.80649,500.80649,178.12505,178.12596,15.03841,15.03841,0.00000,0.00000,0.00000,0.00000,0.00000,0.00000
19.70555,154.07555,158.79120,158.79120,182.73366,0.24257,-183.33459,0.90026,0.11100,0.01086,0.00000,0.00000,0.00000,-1.42383,-24.34798,62.13852,62.73876,0.51660,30.29330,-87.49526,2197.87329,2191.44678,0.00000,2194.59180,455.33069,586.32056,-32652.90234,72.12762,-2.88356,-38.24167,0.62353,0.62353,529.95044,529.89081,898.97424,896.32562,1393.34595,1393.08765,1999.27026,1999.41370,1999.27026,1999.41370,16.01382,16.05633,86.15411,86.15411,99.96572,99.97300,370.84976,370.80539,491.21060,491.21060,501.36954,501.36954,178.14258,178.14349,15.04070,15.04070,0.00000,0.00000,0.00000,0.00000,0.00000,0.00000
19.70557,154.24463,158.97934,158.97934,182.95016,0.24286,-208.33197,0.90452,0.11085,0.01016,0.00000,0.00000,0.00000,-1.50101,-24.23211,61.94637,62.54665,0.52994,30.29332,-87.49521,2197.21289,2190.60034,0.00000,2193.99243,460.56094,586.10455,-32655.69141,72.08963,-3.00816,-38.50965,0.62353,0.62353,530.00317,529.94537,898.42963,895.80621,1393.55103,1393.30078,1999.15967,1999.29773,1999.15967,1999.29773,16.03206,16.07474,86.15412,86.15412,99.96096,99.96801,370.89111,370.84772,491.59384,491.59384,501.76736,501.76736,178.15544,178.15634,15.04224,15.04224,0.00000,0.00000,0.00000,0.00000,0.00000,0.00000
19.70559,154.43619,159.18079,159.18080,183.18199,0.24316,-234.83356,0.90965,0.11060,0.00924,0.00000,0.00000,0.00000,-1.57973,-24.07809,61.74086,62.34119,0.54511,30.29335,-87.49515,2196.47876,2189.94458,0.00000,2193.29297,466.11768,585.86511,-32658.67773,72.04855,-3.13699,-38.79541,0.62353,0.62353,530.06238,530.00708,897.34607,894.75269,1393.78113,1393.54138,1999.05652,1999.18799,1999.05652,1999.18799,16.05062,16.09340,86.15412,86.15412,99.95563,99.96239,370.93433,370.89209,491.99380,491.99380,502.17490,502.17490,178.16907,178.16997,15.04377,15.04377,0.00000,0.00000,0.00000,0.00000,0.00000,0.00000
19.70562,154.75076,159.50235,159.50235,183.55203,0.24365,-276.49121,0.91878,0.11017,0.00777,0.00000,0.00000,0.00000,-1.69625,-23.77416,61.41422,62.01462,0.57115,30.29339,-87.49506,2195.25293,2188.76538,0.00000,2192.09009,474.90250,585.46637,-32663.44727,71.98235,-3.33224,-39.24890,0.62353,0.62353,530.15314,530.10260,895.36670,892.82434,1394.12891,1393.91003,1998.91736,1999.03662,1998.91736,1999.03662,16.08012,16.12278,86.15413,86.15413,99.94779,99.95396,371.00064,370.96075,492.61124,492.61124,502.78864,502.78864,178.19051,178.19141,15.04595,15.04595,0.00000,0.00000,0.00000,0.00000,0.00000,0.00000
19.70565,155.04376,159.79088,159.79089,183.88408,0.24409,-313.09232,0.92795,0.10985,0.00649,0.00000,0.00000,0.00000,-1.79075,-23.45161,61.12327,61.72374,0.59595,30.29343,-87.49498,2194.10156,2187.52710,0.00000,2190.91016,482.70862,585.09296,-32667.73438,71.92245,-3.49557,-39.65304,0.62353,0.62353,530.22070,530.17523,893.84052,891.36664,1394.37842,1394.18127,1998.82202,1998.92908,1998.82202,1998.92908,16.10842,16.15079,86.15413,86.15413,99.94264,99.94820,371.05685,371.01956,493.14447,493.14447,503.30325,503.30325,178.20946,178.21034,15.04768,15.04768,0.00000,0.00000,0.00000,0.00000,0.00000,0.00000
19.70567,155.22682,159.98375,159.98375,184.10602,0.24439,-337.08505,0.93379,0.10971,0.00576,0.00000,0.00000,0.00000,-1.84856,-23.21068,60.93057,61.53108,0.61303,30.29346,-87.49493,2193.30664,2186.96240,0.00000,2190.14966,487.88867,584.83551,-32670.60742,71.88233,-3.59834,-39.92149,0.62353,0.62353,530.26288,530.22083,893.19513,890.77460,1394.53369,1394.35144,1998.74902,1998.84680,1998.74902,1998.84680,16.12728,16.16940,86.15413,86.15413,99.93947,99.94460,371.09155,371.05624,493.49069,493.49069,503.62985,503.62985,178.22198,178.22284,15.04872,15.04872,0.00000,0.00000,0.00000,0.00000,0.00000,0.00000
19.70569,155.42720,160.19656,160.19658,184.35094,0.24471,-363.08911,0.94043,0.10949,0.00492,0.00000,0.00000,0.00000,-1.90751,-22.92019,60.72004,61.32059,0.63210,30.29348,-87.49487,2192.40625,2185.85181,0.00000,2189.29224,493.57330,584.54437,-32673.78320,71.83810,-3.70578,-40.21606,0.62353,0.62353,530.31616,530.27832,892.08374,889.71564,1394.73267,1394.56860,1998.66711,1998.75439,1998.66711,1998.75439,16.14660,16.18833,86.15414,86.15414,99.93524,99.93987,371.12802,371.09509,493.86392,493.86392,503.97546,503.97546,178.23566,178.23651,15.04978,15.04978,0.00000,0.00000,0.00000,0.00000,0.00000,0.00000
19.70572,155.64146,160.42833,160.42833,184.61763,0.24507,-390.80740,0.94748,0.10930,0.00411,0.00000,0.00000,0.00000,-1.96603,-22.57611,60.49360,61.09420,0.65288,30.29351,-87.49480,2191.40015,2184.81982,0.00000,2188.35425,499.73135,584.21948,-32677.25195,71.79007,-3.81558,-40.53479,0.62353,0.62353,530.36823,530.33496,891.16956,888.86676,1394.92505,1394.78064,1998.57922,1998.65442,1998.57922,1998.65442,16.16810,16.20936,86.15414,86.15414,99.93128,99.93536,371.16760,371.13748,494.26044,494.26044,504.33527,504.33527,178.25043,178.25128,15.05084,15.05084,0.00000,0.00000,0.00000,0.00000,0.00000,0.00000
19.70575,155.98187,160.76195,160.76193,185.00154,0.24557,-429.51624,0.95903,0.10888,0.00282,0.00000,0.00000,0.00000,-2.04023,-22.03800,60.17299,60.77366,0.68205,30.29356,-87.49471,2189.90869,2183.60400,0.00000,2186.82275,508.55225,583.73834,-32682.27344,71.72134,-3.95982,-40.98987,0.62353,0.62353,530.44226,530.41632,889.06451,886.85675,1395.19104,1395.07861,1998.49829,1998.55591,1998.49829,1998.55591,16.19919,16.23952,86.15414,86.15414,99.92617,99.92934,371.22321,371.19745,494.81418,494.81418,504.82468,504.82468,178.27147,178.27231,15.05221,15.05221,0.00000,0.00000,0.00000,0.00000,0.00000,0.00000
19.70577,156.19122,160.97516,160.97516,185.24690,0.24590,-453.44235,0.96596,0.10868,0.00215,0.00000,0.00000,0.00000,-2.08162,-21.67014,59.97181,60.57253,0.70007,30.29359,-87.49465,2188.93066,2182.42554,0.00000,2185.84937,514.16486,583.42340,-32685.50000,71.67799,-4.04347,-41.27798,0.62353,0.62353,530.48413,530.46295,888.08112,885.93445,1395.33838,1395.24634,1998.44409,1998.49048,1998.44409,1998.49048,16.21961,16.25931,86.15414,86.15414,99.92350,99.92610,371.25644,371.23370,495.15799,495.15799,505.12088,505.12088,178.28477,178.28561,15.05299,15.05299,0.00000,0.00000,0.00000,0.00000,0.00000,0.00000
19.70581,156.51717,161.31068,161.31067,185.63301,0.24641,-489.73438,0.97656,0.10834,0.00115,0.00000,0.00000,0.00000,-2.13740,-21.05219,59.66156,60.26235,0.72754,30.29363,-87.49456,2187.35693,2180.97803,0.00000,2184.30127,522.96631,582.91675,-32690.60742,71.61103,-4.16200,-41.72664,0.62353,0.62353,530.55273,530.53857,886.40088,884.34998,1395.58179,1395.52051,1998.35718,1998.38623,1998.35718,1998.38623,16.25073,16.28937,86.15414,86.15414,99.91900,99.92072,371.30646,371.28851,495.68436,495.68436,505.56320,505.56320,178.30556,178.30640,15.05410,15.05410,0.00000,0.00000,0.00000,0.00000,0.00000,0.00000
19.70584,156.82425,161.61705,161.61705,185.98560,0.24688,-521.30627,0.98634,0.10804,0.00032,0.00000,0.00000,0.00000,-2.17856,-20.45262,59.38485,59.98570,0.75142,30.29368,-87.49448,2185.88525,2179.64966,0.00000,2182.80884,530.98279,582.44342,-32695.31250,71.55158,-4.25584,-42.13095,0.62353,0.62353,530.60864,530.60101,884.95355,882.99457,1395.77209,1395.73865,1998.29529,1998.30896,1998.29529,1998.30896,16.28022,16.31781,86.15415,86.15415,99.91591,99.91685,371.35065,371.33725,496.15018,496.15018,505.94318,505.94318,178.32437,178.32521,15.05500,15.05500,0.00000,0.00000,0.00000,0.00000,0.00000,0.00000
19.70587,157.12660,161.93132,161.93132,186.34724,0.24736,-552.05212,0.99575,0.10774,-0.00045,0.00000,0.00000,0.00000,-2.21108,-19.80186,59.10785,59.70877,0.77519,30.29372,-87.49439,2184.34570,2178.11719,0.00000,2181.30298,539.19110,581.94849,-32700.17969,71.49279,-4.33827,-42.53973,0.62353,0.62353,530.66766,530.66626,883.56226,881.68713,1395.97583,1395.96960,1998.22229,1998.22083,1998.22229,1998.22083,16.30958,16.34608,86.15415,86.15415,99.91243,99.91261,371.39374,371.38492,496.61432,496.61432,506.31125,506.31125,178.34351,178.34435,15.05582,15.05582,0.00000,0.00000,0.00000,0.00000,0.00000,0.00000
19.70589,157.33856,162.15581,162.15581,186.60558,0.24770,-572.96423,1.00226,0.10753,-0.00099,0.00000,0.00000,0.00000,-2.22823,-19.31448,58.91422,59.51519,0.79191,30.29375,-87.49433,2183.22900,2176.88867,0.00000,2180.23462,545.05115,581.58966,-32703.68555,71.45234,-4.38866,-42.82787,0.62353,0.62353,530.71088,530.71356,882.59601,880.77740,1396.12585,1396.13757,1998.16650,1998.15466,1998.16650,1998.15466,16.33013,16.36585,86.15416,86.15416,99.90982,99.90950,371.42401,371.41840,496.93802,496.93802,506.56180,506.56180,178.35710,178.35794,15.05635,15.05635,0.00000,0.00000,0.00000,0.00000,0.00000,0.00000
19.70593,157.67201,162.48756,162.48758,186.98738,0.24820,-602.17828,1.01279,0.10713,-0.00191,0.00000,0.00000,0.00000,-2.24442,-18.56327,58.63431,59.23535,0.81595,30.29380,-87.49424,2181.55518,2175.15137,0.00000,2178.52856,553.71832,581.05194,-32708.91797,71.39519,-4.44966,-43.24761,0.62353,0.62353,530.77417,530.78290,880.66418,878.94104,1396.34192,1396.37988,1998.10925,1998.08313,1998.10925,1998.08313,16.36062,16.39512,86.15416,86.15416,99.90628,99.90521,371.46906,371.46793,497.40515,497.40515,506.91434,506.91434,178.37711,178.37793,15.05706,15.05706,0.00000,0.00000,0.00000,0.00000,0.00000,0.00000
19.70595,157.87914,162.70256,162.70256,187.23477,0.24853,-619.97748,1.01902,0.10696,-0.00240,0.00000,0.00000,0.00000,-2.24921,-18.05849,58.45706,59.05815,0.83105,30.29383,-87.49418,2180.45801,2174.19238,0.00000,2177.45337,559.34198,580.69940,-32712.34180,71.36011,-4.48063,-43.51538,0.62353,0.62353,530.80988,530.82233,879.89783,878.23120,1396.45898,1396.51318,1998.06714,1998.03198,1998.06714,1998.03198,16.38120,16.41491,86.15417,86.15417,99.90462,99.90309,371.49750,371.49921,497.70096,497.70096,507.13205,507.13205,178.39001,178.39084,15.05747,15.05747,0.00000,0.00000,0.00000,0.00000,0.00000,0.00000
19.70597,158.09746,162.92224,162.92223,187.48756,0.24887,-637.22711,1.02581,0.10669,-0.00302,0.00000,0.00000,0.00000,-2.24942,-17.52723,58.27937,58.88050,0.84618,30.29386,-87.49412,2179.32764,2173.18970,0.00000,2176.31104,565.09918,580.33624,-32715.86914,71.32596,-4.50537,-43.78550,0.62353,0.62353,530.85272,530.86884,878.57288,876.97186,1396.60583,1396.67590,1998.02893,1997.98486,1998.02893,1997.98486,16.40099,16.43386,86.15417,86.15417,99.90218,99.90021,371.52567,371.53021,497.99805,497.99805,507.34647,507.34647,178.40317,178.40399,15.05786,15.05786,0.00000,0.00000,0.00000,0.00000,0.00000,0.00000
19.70600,158.42358,163.25145,163.25145,187.86642,0.24937,-661.22711,1.03571,0.10634,-0.00392,0.00000,0.00000,0.00000,-2.24093,-16.70347,58.01974,58.62095,0.86823,30.29391,-87.49403,2177.61865,2171.15234,0.00000,2174.58911,573.75446,579.78723,-32721.21680,71.27836,-4.52921,-44.18326,0.62353,0.62353,530.91083,530.93237,876.93646,875.43085,1396.79883,1396.89258,1997.97437,1997.91748,1997.97437,1997.91748,16.43165,16.46324,86.15417,86.15417,99.89931,99.89667,371.56824,371.57678,498.43390,498.43390,507.65326,507.65326,178.42284,178.42365,15.05839,15.05839,0.00000,0.00000,0.00000,0.00000,0.00000,0.00000
19.70604,158.73351,163.56557,163.56555,188.22789,0.24984,-681.95978,1.04479,0.10603,-0.00476,0.00000,0.00000,0.00000,-2.22312,-15.88900,57.77976,58.38104,0.88836,30.29396,-87.49394,2175.97510,2169.89233,0.00000,2172.94385,582.05444,579.25885,-32726.39258,71.23737,-4.53699,-44.55445,0.62353,0.62353,530.96289,530.98944,875.58234,874.16852,1396.96863,1397.08398,1997.92322,1997.85425,1997.92322,1997.85425,16.46140,16.49171,86.15417,86.15417,99.89697,99.89371,371.60776,371.62006,498.83987,498.83987,507.93069,507.93069,178.44157,178.44235,15.05884,15.05884,0.00000,0.00000,0.00000,0.00000,0.00000,0.00000
19.70607,159.02898,163.86145,163.86145,188.56841,0.25030,-699.47131,1.05337,0.10572,-0.00561,0.00000,0.00000,0.00000,-2.19760,-15.09689,57.56104,58.16238,0.90654,30.29400,-87.49387,2174.41748,2168.39307,0.00000,2171.36328,589.92084,578.75806,-32731.33984,71.20315,-4.53086,-44.89622,0.62353,0.62353,531.01312,531.04437,874.16449,872.84210,1397.13232,1397.26807,1997.87927,1997.79895,1997.87927,1997.79895,16.48930,16.51835,86.15418,86.15418,99.89471,99.89088,371.64417,371.65988,499.21408,499.21408,508.17932,508.17932,178.45921,178.45998,15.05922,15.05922,0.00000,0.00000,0.00000,0.00000,0.00000,0.00000
19.70610,159.31248,164.15065,164.15065,188.90121,0.25074,-714.63147,1.06146,0.10543,-0.00643,0.00000,0.00000,0.00000,-2.16426,-14.29891,57.35469,57.95609,0.92380,30.29404,-87.49378,2172.89014,2166.68579,0.00000,2169.83594,597.66162,578.26660,-32736.24609,71.17423,-4.51231,-45.22235,0.62353,0.62353,531.06189,531.09760,872.87665,871.65179,1397.29199,1397.44727,1997.83215,1997.74084,1997.83215,1997.74084,16.51649,16.54426,86.15418,86.15418,99.89247,99.88809,371.67929,371.69833,499.57260,499.57260,508.41116,508.41116,178.47646,178.47722,15.05956,15.05956,0.00000,0.00000,0.00000,0.00000,0.00000,0.00000
19.70613,159.59549,164.43520,164.43521,189.22867,0.25117,-727.59772,1.06961,0.10511,-0.00728,0.00000,0.00000,0.00000,-2.12316,-13.49032,57.15927,57.76074,0.94035,30.29409,-87.49371,2171.38501,2165.09399,0.00000,2168.30786,605.33795,577.78192,-32741.14648,71.15051,-4.48174,-45.53522,0.62353,0.62353,531.11188,531.15192,871.45319,870.32355,1397.45605,1397.63037,1997.78894,1997.68677,1997.78894,1997.68677,16.54306,16.56949,86.15419,86.15419,99.89015,99.88522,371.71417,371.73639,499.91882,499.91882,508.62921,508.62921,178.49344,178.49420,15.05986,15.05986,0.00000,0.00000,0.00000,0.00000,0.00000,0.00000
19.70616,159.86665,164.71060,164.71060,189.54559,0.25159,-738.23248,1.07716,0.10483,-0.00807,0.00000,0.00000,0.00000,-2.07554,-12.68606,56.97783,57.57936,0.95587,30.29413,-87.49362,2169.92847,2164.15210,0.00000,2166.84961,612.83331,577.31256,-32745.96484,71.13247,-4.44036,-45.82994,0.62353,0.62353,531.15802,531.20233,870.25781,869.21649,1397.60669,1397.79968,1997.74414,1997.63184,1997.74414,1997.63184,16.56905,16.59414,86.15419,86.15419,99.88805,99.88261,371.74777,371.77310,500.24817,500.24817,508.83124,508.83124,178.50992,178.51068,15.06012,15.06012,0.00000,0.00000,0.00000,0.00000,0.00000,0.00000
19.70619,160.14627,164.99597,164.99597,189.87398,0.25202,-747.21777,1.08511,0.10451,-0.00891,0.00000,0.00000,0.00000,-2.01775,-11.82829,56.79842,57.40001,0.97175,30.29418,-87.49355,2168.42285,2163.06323,0.00000,2165.34082,620.67603,576.82684,-32751.04102,71.11927,-4.38524,-46.12643,0.62353,0.62353,531.21033,531.25891,868.79877,867.86176,1397.78186,1397.99316,1997.69507,1997.57227,1997.69507,1997.57227,16.59524,16.61892,86.15420,86.15420,99.88538,99.87941,371.78268,371.81110,500.58386,500.58386,509.03186,509.03186,178.52705,178.52782,15.06036,15.06036,0.00000,0.00000,0.00000,0.00000,0.00000,0.00000
19.70623,160.41811,165.27649,165.27647,190.19678,0.25245,-753.93982,1.09248,0.10425,-0.00966,0.00000,0.00000,0.00000,-1.95265,-10.96160,56.63106,57.23272,0.98683,30.29422,-87.49346,2166.94922,2161.94897,0.00000,2163.88574,628.47284,576.35083,-32756.11914,71.11228,-4.31851,-46.40842,0.62353,0.62353,531.25696,531.30969,867.73419,866.88715,1397.93433,1398.16370,1997.64478,1997.51196,1997.64478,1997.51196,16.62186,16.64408,86.15421,86.15421,99.88326,99.87678,371.81750,371.84897,500.90866,500.90866,509.22086,509.22086,178.54399,178.54474,15.06058,15.06058,0.00000,0.00000,0.00000,0.00000,0.00000,0.00000
19.70626,160.69675,165.55475,165.55475,190.51701,0.25287,-758.46545,1.10035,0.10391,-0.01049,0.00000,0.00000,0.00000,-1.87981,-10.07768,56.47439,57.07611,1.00130,30.29427,-87.49338,2165.49658,2160.90356,0.00000,2162.39746,636.30463,575.88092,-32761.25000,71.11171,-4.23976,-46.67826,0.62353,0.62353,531.30731,531.36414,866.24170,865.50140,1398.10168,1398.34900,1997.60168,1997.45874,1997.60168,1997.45874,16.64775,16.66846,86.15421,86.15421,99.88075,99.87377,371.85226,371.88672,501.22620,501.22620,509.40073,509.40073,178.56088,178.56161,15.06077,15.06077,0.00000,0.00000,0.00000,0.00000,0.00000,0.00000
19.70628,160.87500,165.74072,165.74072,190.73103,0.25316,-760.25940,1.10499,0.10375,-0.01095,0.00000,0.00000,0.00000,-1.82655,-9.47350,56.37521,56.97698,1.01072,30.29430,-87.49332,2164.53271,2160.29883,0.00000,2161.45508,641.59723,575.56873,-32764.73438,71.11517,-4.18015,-46.85272,0.62353,0.62353,531.33820,531.39752,865.59735,864.91608,1398.20374,1398.46204,1997.56482,1997.41577,1997.56482,1997.41577,16.66544,16.68514,86.15421,86.15421,99.87928,99.87198,371.87546,371.91187,501.43597,501.43597,509.51694,509.51694,178.57222,178.57295,15.06089,15.06089,0.00000,0.00000,0.00000,0.00000,0.00000,0.00000
19.70631,161.14641,166.00191,166.00191,191.03159,0.25355,-761.03735,1.11237,0.08610,-0.01181,0.00000,0.00000,0.00000,-1.73831,-8.53641,56.23449,56.83632,1.02559,30.29435,-87.49324,2163.09326,2158.93335,0.00000,2159.99097,649.67023,575.10168,-32770.07031,71.11845,-4.07933,-47.10065,0.52750,0.52750,446.80066,446.86853,774.51093,773.95734,1178.07886,1178.34851,1992.11279,1991.95850,1992.11279,1991.95850,16.38753,16.40581,84.23000,84.23000,99.68143,99.67375,359.50845,359.54865,500.90326,500.90326,508.00357,508.00357,178.58228,178.58301,15.05520,15.05520,0.00000,0.00000,0.00000,0.00000,0.00000,0.00000
19.70634,161.29442,166.14616,166.14616,191.19760,0.25377,-760.25201,1.11669,0.07435,-0.01245,0.00000,0.00000,0.00000,-1.67467,-7.90560,56.14888,56.75076,1.03696,30.29438,-87.49319,2162.16821,2157.93555,0.00000,2159.07910,654.98157,574.80109,-32773.59766,71.11407,-4.00653,-47.24792,0.52750,0.52750,418.35489,418.42542,713.50702,713.07562,1104.54736,1104.82019,1989.89111,1989.73364,1989.89111,1989.73364,16.18563,16.20314,83.52500,83.52500,99.54863,99.54083,341.60941,341.65222,500.31750,500.31750,506.57498,506.57498,178.58382,178.58455,15.04471,15.04471,0.00000,0.00000,0.00000,0.00000,0.00000,0.00000
19.70637,161.49527,166.33887,166.33887,191.41936,0.25407,-757.11664,1.12394,0.06330,-0.01345,0.00000,0.00000,0.00000,-1.57043,-6.93230,56.03016,56.63210,1.05589,30.29443,-87.49310,2160.80273,2156.55542,0.00000,2157.68311,663.03107,574.35651,-32778.96094,71.10464,-3.88679,-47.45111,0.52750,0.52750,393.84622,393.91989,655.53461,655.23297,1041.11182,1041.39038,1988.07239,1987.91052,1988.07239,1987.91052,15.98580,16.00209,82.89484,82.89484,99.42695,99.41895,315.71634,315.75781,499.50159,499.50159,504.61121,504.61121,178.58316,178.58388,15.02442,15.02442,0.00000,0.00000,0.00000,0.00000,0.00000,0.00000
19.70640,161.66542,166.50261,166.50261,191.60779,0.25432,-752.01025,1.13040,0.05804,-0.01427,0.00000,0.00000,0.00000,-1.46651,-6.00388,55.93095,56.53296,1.07295,30.29447,-87.49303,2159.55957,2155.42847,0.00000,2156.38672,670.61200,573.95074,-32784.03125,71.09789,-3.76416,-47.62280,0.52750,0.52750,381.64188,381.71918,627.38037,627.21552,1009.39166,1009.68042,1987.28223,1987.11377,1987.28223,1987.11377,15.88192,15.89690,82.57485,82.57485,99.37363,99.36532,298.81476,298.84952,498.78833,498.78833,502.92987,502.92987,178.58063,178.58133,15.00361,15.00361,0.00000,0.00000,0.00000,0.00000,0.00000,0.00000
19.70643,161.81776,166.65683,166.65685,191.78528,0.25455,-744.79041,1.13533,0.05521,-0.01498,0.00000,0.00000,0.00000,-1.35823,-5.05739,55.84376,56.44584,1.08806,30.29452,-87.49294,2158.35010,2154.34448,0.00000,2155.18433,678.26752,573.55481,-32789.17188,71.09616,-3.63216,-47.77814,0.52750,0.52750,374.76334,374.84457,611.97119,611.92200,991.42688,991.72839,1986.93811,1986.76135,1986.93811,1986.76135,15.82016,15.83365,82.39375,82.39375,99.35078,99.34209,287.78741,287.81894,498.10510,498.10510,501.35675,501.35675,178.57703,178.57773,14.98277,14.98277,0.00000,0.00000,0.00000,0.00000,0.00000,0.00000
19.70645,161.91789,166.76123,166.76123,191.90541,0.25471,-738.45483,1.13824,0.05399,-0.01544,0.00000,0.00000,0.00000,-1.27994,-4.38038,55.79002,56.39214,1.09737,30.29455,-87.49289,2157.52148,2153.37646,0.00000,2154.37451,683.69965,573.28290,-32792.82812,71.09888,-3.53426,-47.87773,0.52750,0.52750,371.77740,371.86172,605.17474,605.18066,983.58942,983.90155,1986.86841,1986.68542,1986.86841,1986.68542,15.79042,15.80276,82.31541,82.31541,99.34452,99.33553,282.49640,282.52695,497.63751,497.63751,500.30304,500.30304,178.57408,178.57478,14.96858,14.96858,0.00000,0.00000,0.00000,0.00000,0.00000,0.00000
19.70648,162.06999,166.91118,166.91118,192.07796,0.25494,-727.14020,1.14251,0.05290,-0.01621,0.00000,0.00000,0.00000,-1.16160,-3.36215,55.72229,56.32448,1.10856,30.29460,-87.49281,2156.33008,2151.95264,0.00000,2153.15015,691.82343,572.89069,-32798.30859,71.11012,-3.38195,-48.01016,0.52750,0.52750,369.04141,369.13046,598.90314,599.00543,976.35193,976.68048,1986.92236,1986.72998,1986.92236,1986.72998,15.75961,15.77018,82.24458,82.24458,99.34443,99.33497,277.26187,277.29224,496.96069,496.96069,498.81293,498.81293,178.56932,178.57002,14.94866,14.94866,0.00000,0.00000,0.00000,0.00000,0.00000,0.00000
19.70651,162.21315,167.05383,167.05383,192.24213,0.25515,-713.81891,1.14562,0.05229,-0.01690,0.00000,0.00000,0.00000,-1.04340,-2.34637,55.67022,56.27248,1.11663,30.29465,-87.49272,2155.20557,2151.07031,0.00000,2152.00244,699.88739,572.51904,-32803.76172,71.13046,-3.22516,-48.12199,0.52750,0.52750,367.51138,367.60498,595.41211,595.59967,972.23871,972.58350,1987.08398,1986.88232,1987.08398,1986.88232,15.73972,15.74848,82.20635,82.20635,99.35110,99.34118,274.14194,274.17291,496.31223,496.31223,497.42520,497.42520,178.56433,178.56503,14.93059,14.93059,0.00000,0.00000,0.00000,0.00000,0.00000,0.00000
19.70654,162.30347,167.14653,167.14651,192.34879,0.25530,-703.76648,1.14711,0.05201,-0.01733,0.00000,0.00000,0.00000,-0.96373,-1.66166,55.64379,56.24609,1.12069,30.29469,-87.49266,2154.48389,2150.26758,0.00000,2151.28149,705.30365,572.27966,-32807.42969,71.14949,-3.11742,-48.18609,0.52750,0.52750,366.86487,366.96136,593.83813,594.07568,970.46552,970.82074,1987.22986,1987.02222,1987.22986,1987.02222,15.72984,15.73739,82.19098,82.19098,99.35754,99.34731,272.78500,272.81668,495.88843,495.88843,496.53970,496.53970,178.56090,178.56158,14.91944,14.91944,0.00000,0.00000,0.00000,0.00000,0.00000,0.00000
19.70656,162.39772,167.24586,167.24585,192.46310,0.25545,-691.75531,1.14846,0.05179,-0.01777,0.00000,0.00000,0.00000,-0.87557,-0.90444,55.62278,56.22512,1.12449,30.29472,-87.49260,2153.72266,2149.60205,0.00000,2150.54370,711.26404,572.02612,-32811.46875,71.17545,-2.99717,-48.24657,0.52750,0.52750,366.36407,366.46359,592.61932,592.90887,969.06030,969.42627,1987.41541,1987.20178,1987.41541,1987.20178,15.72141,15.72763,82.17981,82.17981,99.36579,99.35526,271.73859,271.77115,495.43201,495.43201,495.60471,495.60471,178.55705,178.55774,14.90801,14.90801,0.00000,0.00000,0.00000,0.00000,0.00000,0.00000
19.70659,162.49989,167.34941,167.34941,192.58228,0.25560,-677.82440,1.15018,0.05168,-0.01831,0.00000,0.00000,0.00000,-0.78073,-0.08880,55.60961,56.21200,1.12761,30.29476,-87.49253,2152.94434,2148.72998,0.00000,2149.75977,717.65509,571.76587,-32815.80078,71.20927,-2.86634,-48.29961,0.52750,0.52750,365.98599,366.08862,591.92230,592.27679,967.96161,968.33875,1987.62036,1987.40002,1987.62036,1987.40002,15.71515,15.71992,82.17225,82.17225,99.37592,99.36507,270.98035,271.01395,494.95383,494.95383,494.64606,494.64606,178.55287,178.55354,14.89673,14.89673,0.00000,0.00000,0.00000,0.00000,0.00000,0.00000
19.70662,162.64508,167.48949,167.48949,192.74347,0.25582,-656.51343,1.15212,0.05153,-0.01904,0.00000,0.00000,0.00000,-0.64885,1.05637,55.60703,56.20950,1.12901,30.29482,-87.49244,2151.91797,2147.76953,0.00000,2148.66846,726.62152,571.42078,-32821.88672,71.26768,-2.68004,-48.35263,0.52750,0.52750,365.63004,365.73730,591.22723,591.67865,966.87573,967.26965,1987.90405,1987.67456,1987.90405,1987.67456,15.70891,15.71156,82.16632,82.16632,99.39075,99.37943,270.33014,270.36526,494.30225,494.30225,493.37558,493.37558,178.54694,178.54761,14.88251,14.88251,0.00000,0.00000,0.00000,0.00000,0.00000,0.00000
19.70665,162.77339,167.61635,167.61635,192.88945,0.25601,-634.65363,1.15274,0.05134,-0.01967,0.00000,0.00000,0.00000,-0.52602,2.13872,55.62166,56.22421,1.12777,30.29487,-87.49236,2151.01978,2146.91968,0.00000,2147.73486,735.09393,571.11639,-32827.63281,71.33462,-2.50283,-48.37975,0.52750,0.52750,365.39944,365.51083,590.58429,591.11218,966.13116,966.53992,1988.18018,1987.94263,1988.18018,1987.94263,15.70448,15.70512,82.16344,82.16344,99.40462,99.39288,269.97516,270.01172,493.70642,493.70642,492.24966,492.24966,178.54128,178.54193,14.87064,14.87064,0.00000,0.00000,0.00000,0.00000,0.00000,0.00000
19.70669,162.89204,167.73329,167.73329,193.02403,0.25619,-612.26294,1.15287,0.05116,-0.02027,0.00000,0.00000,0.00000,-0.40976,3.17859,55.65133,56.25394,1.12491,30.29492,-87.49227,2150.22241,2145.98413,0.00000,2146.90771,743.23126,570.84399,-32833.14844,71.40962,-2.33267,-48.38487,0.52750,0.52750,365.22717,365.34225,590.09406,590.69702,965.54663,965.96869,1988.44324,1988.19824,1988.44324,1988.19824,15.70173,15.70044,82.16197,82.16197,99.41791,99.40578,269.76627,269.80420,493.15161,493.15161,491.23199,491.23199,178.53580,178.53644,14.86052,14.86052,0.00000,0.00000,0.00000,0.00000,0.00000,0.00000
19.70671,162.96608,167.80713,167.80714,193.10902,0.25630,-596.97882,1.15277,0.05104,-0.02065,0.00000,0.00000,0.00000,-0.33486,3.85814,55.67897,56.28162,1.12230,30.29495,-87.49221,2149.73584,2145.58521,0.00000,2146.40479,748.54779,570.67664,-32836.74609,71.46426,-2.22195,-48.37717,0.52750,0.52750,365.12982,365.24719,589.81616,590.46857,965.20624,965.63654,1988.61218,1988.36292,1988.61218,1988.36292,15.70057,15.69801,82.16139,82.16139,99.42646,99.41410,269.67184,269.71066,492.79807,492.79807,490.59894,490.59894,178.53220,178.53284,14.85451,14.85451,0.00000,0.00000,0.00000,0.00000,0.00000,0.00000
19.70674,163.07903,167.92226,167.92227,193.24150,0.25648,-571.35883,1.15238,0.05086,-0.02126,0.00000,0.00000,0.00000,-0.21577,4.95773,55.73745,56.34018,1.11725,30.29500,-87.49213,2149.00903,2144.76929,0.00000,2145.66895,757.13269,570.42413,-32842.55078,71.56169,-2.04468,-48.34668,0.52750,0.52750,364.98889,365.10947,589.48846,590.22217,964.70221,965.14392,1988.88354,1988.62769,1988.88354,1988.62769,15.69967,15.69512,82.16083,82.16083,99.44002,99.42735,269.56192,269.60202,492.24142,492.24142,489.62613,489.62613,178.52635,178.52699,14.84572,14.84572,0.00000,0.00000,0.00000,0.00000,0.00000,0.00000
