"Time_Hours","Vel_Indicated_kts","Vel_True_kts","Vel_Ground_kts","Vel_Groupn_mph","Vel_Mach","Vel_Vertical_fpm","GLoad_normal","GLoad_axial","GLoad_side","Flaps_Handle","Flaps_Position","Gear","Pitch_deg","Roll_deg","Heading_True","Heading_Mag","AngleOfAttack","Latitude","Longitude","Altitude_FtMsl","Altitude_FtAgl","RunwayThreshold","Altitude_Indicated","X","Y","Z","vX","vY","vZ","Eng1_Throttle","Eng2_Throttle","Eng1_Power_hp","Eng2_Power_hp","Eng1_Thrust_lb","Eng2_Thrust_lb","Eng1_Torque_lb","Eng2_Torque_lb","Eng1_EngineRPM","Eng2_EngineRPM","Eng1_PropRPM","Eng2_PropRPM","Eng1_PropPitch_deg","Eng2_PropPitch_deg","Eng1_N1","Eng2_N1","Eng1_N2","Eng2_N2","Eng1_FuelFlow","Eng2_FuelFlow","Eng1_ITT","Eng2_ITT","Eng1_EGT","Eng2_EGT","Eng1_CHT","Eng2_CHT","Eng1_OilPress_psi","Eng2_OilPress_psi","MasterCaution","MasterWarn","MasterAccept","FuelQuantity","HydPress","AutoThrottle"
19.70409,141.06799,145.30342,155.02661,178.40144,0.22197,904.82001,0.94276,0.09494,0.00962,0.00000,0.00000,0.00000,4.42875,-0.64165,67.56084,68.15803,1.06583,30.29181,-87.49926,2171.27246,2138.51489,0.00000,2167.25781,71.39084,579.07373,-32487.33008,74.25851,4.38329,-28.75645,0.01984,0.01984,385.52258,385.52496,737.95709,737.64545,1016.61011,1016.61890,1991.18213,1991.18457,1991.18213,1991.18457,15.44747,15.44709,82.75407,82.75407,99.67133,99.67107,336.83008,336.82840,496.33118,496.33118,504.10275,504.10275,178.40182,178.40182,15.05444,15.05444,0.00000,0.00000,0.00000,0.00000,0.00000,0.00000
19.70413,141.09280,145.28630,155.01245,178.38516,0.22195,902.10468,0.79185,0.04467,0.00164,0.00000,0.00000,0.00000,3.95613,-0.83257,67.56797,68.16523,0.73270,30.29184,-87.49917,2172.96924,2140.44849,0.00000,2168.98706,80.06132,579.57367,-32490.68945,74.25982,4.20122,-28.76007,0.05876,0.05876,202.17786,202.17612,488.38535,488.41202,536.76782,536.76233,1976.26453,1976.26660,1976.26453,1976.26660,14.39749,14.39774,77.29223,77.29223,98.99698,98.99714,294.67300,294.67188,488.79529,488.79529,488.75558,488.75558,178.36145,178.36145,15.01086,15.01086,0.00000,0.00000,0.00000,0.00000,0.00000,0.00000
19.70415,141.03029,145.19627,154.92513,178.28465,0.22181,896.68280,0.76545,0.00384,0.00064,0.00000,0.00000,0.00000,3.75831,-0.95039,67.57135,68.16866,0.69603,30.29186,-87.49909,2174.25806,2142.02368,0.00000,2170.24951,86.99109,579.95282,-32493.37305,74.22623,3.99048,-28.75226,0.08987,0.08987,102.71218,102.71128,280.90155,280.86786,274.19690,274.19431,1965.65161,1965.65344,1965.65161,1965.65344,13.49145,13.49159,73.41428,73.41428,98.45419,98.45427,256.36432,256.36349,483.54700,483.54700,478.34430,478.34430,178.32155,178.32155,14.94848,14.94848,0.00000,0.00000,0.00000,0.00000,0.00000,0.00000
19.70418,140.89969,145.05154,154.78104,178.11884,0.22159,888.14905,0.78246,-0.02916,0.00022,0.00000,0.00000,0.00000,3.70871,-1.07908,67.57050,68.16788,0.78800,30.29189,-87.49902,2175.45947,2144.20386,0.00000,2171.49683,93.78320,580.30554,-32496.00391,74.16415,3.78583,-28.73473,0.12039,0.12039,32.18434,32.18164,107.94032,107.81066,86.31333,86.30588,1957.60400,1957.61072,1957.60400,1957.61072,12.68071,12.68109,70.00268,70.00268,98.00349,98.00372,221.61983,221.61914,479.04736,479.04736,469.64999,469.64999,178.27409,178.27409,14.86771,14.86771,0.00000,0.00000,0.00000,0.00000,0.00000,0.00000
19.70421,140.72661,144.86960,154.59961,177.91006,0.22131,877.36664,0.81520,-0.05080,-0.00002,0.00000,0.00000,0.00000,3.73002,-1.22185,67.56558,68.16301,0.92770,30.29191,-87.49895,2176.56421,2146.07837,0.00000,2172.62793,100.32143,580.62921,-32498.53711,74.08176,3.61274,-28.71107,0.14980,0.14980,-2.73935,-2.74636,-10.10173,-10.27552,-7.36968,-7.38848,1952.48010,1952.49414,1952.48010,1952.49414,12.05726,12.05820,67.96507,67.96507,97.69535,97.69593,193.46330,193.46231,475.29709,475.29709,462.61453,462.61453,178.21735,178.21735,14.77670,14.77670,0.00000,0.00000,0.00000,0.00000,0.00000,0.00000
19.70423,140.52655,144.66710,154.39748,177.67744,0.22100,865.01202,0.84502,-0.06175,0.00051,0.00000,0.00000,0.00000,3.76335,-1.39136,67.55763,68.15511,1.05797,30.29193,-87.49889,2177.60254,2147.87646,0.00000,2173.69067,106.71830,580.93298,-32501.01758,73.98729,3.46892,-28.68453,0.17861,0.17861,-17.00704,-17.01900,-73.53522,-73.72742,-45.83517,-45.86695,1949.72595,1949.74829,1949.72595,1949.74829,11.62158,11.62321,67.02068,67.02068,97.52248,97.52346,174.06401,174.06339,472.11160,472.11160,456.83081,456.83081,178.14256,178.14256,14.68437,14.68437,0.00000,0.00000,0.00000,0.00000,0.00000,0.00000
19.70426,140.31050,144.44408,154.17470,177.42108,0.22066,850.87836,0.86499,-0.06654,0.00081,0.00000,0.00000,0.00000,3.77636,-1.60684,67.54716,68.14469,1.15722,30.29196,-87.49882,2178.64307,2149.64258,0.00000,2174.72607,113.36200,581.23688,-32503.59375,73.88113,3.33948,-28.65638,0.20857,0.20857,-20.37105,-20.38793,-105.04604,-105.24099,-54.94929,-54.99404,1948.47827,1948.50854,1948.47827,1948.50854,11.30068,11.30303,66.75730,66.75730,97.43749,97.43888,161.48492,161.48454,469.23782,469.23782,451.80389,451.80389,178.06024,178.06024,14.59167,14.59167,0.00000,0.00000,0.00000,0.00000,0.00000,0.00000
19.70428,140.07561,144.20416,153.93494,177.14517,0.22030,834.92688,0.87327,-0.06721,0.00118,0.00000,0.00000,0.00000,3.75020,-1.87554,67.53497,68.13255,1.21488,30.29198,-87.49875,2179.70532,2151.67700,0.00000,2175.78418,120.38580,581.54669,-32506.32031,73.76508,3.21353,-28.62861,0.24029,0.24029,-15.49946,-15.52049,-113.86214,-114.03804,-41.81735,-41.87336,1948.45410,1948.49060,1948.45410,1948.49060,11.06126,11.06429,67.03419,67.03419,97.41700,97.41875,153.37300,153.37277,466.62854,466.62854,447.44443,447.44443,177.97296,177.97296,14.50172,14.50172,0.00000,0.00000,0.00000,0.00000,0.00000,0.00000
19.70431,139.83104,143.95271,153.68358,176.85591,0.21991,817.04120,0.87070,-0.06450,0.00173,0.00000,0.00000,0.00000,3.67741,-2.20747,67.52182,68.11946,1.23199,30.29201,-87.49867,2180.79541,2153.42285,0.00000,2176.86328,127.86674,581.86395,-32509.22461,73.64175,3.08009,-28.60338,0.27413,0.27413,-3.10001,-3.12372,-103.29321,-103.45095,-8.36054,-8.42431,1949.58276,1949.62341,1949.58276,1949.62341,10.89737,10.90094,67.78114,67.78114,97.45493,97.45692,148.27261,148.27248,464.29034,464.29034,443.76648,443.76648,177.88347,177.88347,14.41826,14.41826,0.00000,0.00000,0.00000,0.00000,0.00000,0.00000
19.70434,139.59254,143.70886,153.43980,176.57538,0.21954,797.90601,0.86127,-0.05915,0.00219,0.00000,0.00000,0.00000,3.56669,-2.59123,67.50874,68.10643,1.21991,30.29203,-87.49859,2181.86011,2155.62769,0.00000,2177.91821,135.48764,582.17322,-32512.18555,73.52039,2.93659,-28.58430,0.30867,0.30867,15.94003,15.91514,-77.48974,-77.64100,42.95214,42.88414,1951.68689,1951.72961,1951.68689,1951.72961,10.80590,10.80988,68.88356,68.88356,97.53921,97.54131,145.94574,145.94290,462.34213,462.34213,440.94995,440.94995,177.80936,177.80936,14.34844,14.34844,0.00000,0.00000,0.00000,0.00000,0.00000,0.00000
19.70436,139.42807,143.53716,153.26811,176.37781,0.21928,782.84412,0.85206,-0.05312,0.00278,0.00000,0.00000,0.00000,3.46603,-2.90947,67.49899,68.09673,1.20025,30.29205,-87.49853,2182.62842,2157.20996,0.00000,2178.66650,141.22783,582.39594,-32514.41992,73.43360,2.82080,-28.57526,0.33472,0.33472,34.35234,34.32710,-46.75677,-46.91731,92.47481,92.40482,1953.96033,1954.00403,1953.96033,1954.00403,10.79392,10.79814,69.89405,69.89405,97.63550,97.63765,146.90924,146.90431,461.14206,461.14206,439.38974,439.38974,177.76419,177.76419,14.30637,14.30637,0.00000,0.00000,0.00000,0.00000,0.00000,0.00000
19.70439,139.19168,143.30844,153.03940,176.11461,0.21893,759.20685,0.83770,-0.04067,0.00402,0.00000,0.00000,0.00000,3.30009,-3.43068,67.48377,68.08158,1.16638,30.29208,-87.49844,2183.71680,2159.43457,0.00000,2179.78760,149.77864,582.71045,-32517.75000,73.31545,2.63511,-28.57195,0.37357,0.37357,67.41376,67.38796,17.55268,17.34317,181.12779,181.05434,1957.90698,1957.95288,1957.90698,1957.95288,10.85837,10.86299,71.57844,71.57844,97.82238,97.82463,152.01987,152.01306,459.76675,459.76675,437.91110,437.91110,177.70706,177.70706,14.26113,14.26113,0.00000,0.00000,0.00000,0.00000,0.00000,0.00000
19.70441,139.05469,143.17654,152.90744,175.96274,0.21873,742.56042,0.82914,-0.03089,0.00492,0.00000,0.00000,0.00000,3.18462,-3.80880,67.47235,68.07021,1.14613,30.29210,-87.49838,2184.40210,2160.76001,0.00000,2180.48877,155.48293,582.90790,-32519.97461,73.24512,2.50298,-28.57722,0.39953,0.39953,93.17637,93.14978,68.26954,68.01347,249.97533,249.89798,1960.99451,1961.04321,1960.99451,1961.04321,10.94572,10.95068,72.78619,72.78619,97.96782,97.97018,157.42619,157.41858,459.11127,459.11127,437.44958,437.44958,177.67502,177.67503,14.24220,14.24220,0.00000,0.00000,0.00000,0.00000,0.00000,0.00000
19.70445,138.88116,143.01793,152.74860,175.77995,0.21849,716.66937,0.81972,-0.01332,0.00643,0.00000,0.00000,0.00000,3.01353,-4.40847,67.45207,68.05000,1.12327,30.29213,-87.49830,2185.34961,2162.53198,0.00000,2181.48584,163.88405,583.17975,-32523.25781,73.15617,2.29930,-28.59737,0.43779,0.43779,136.02620,135.99782,159.29543,158.96503,363.99997,363.91452,1966.00256,1966.05591,1966.00256,1966.05591,11.15277,11.15834,74.63244,74.63244,98.21911,98.22168,167.85568,167.84714,458.51578,458.51578,437.49146,437.49146,177.63632,177.63634,14.22986,14.22986,0.00000,0.00000,0.00000,0.00000,0.00000,0.00000
19.70447,138.79526,142.93732,152.66766,175.68681,0.21837,698.43091,0.81575,-0.00133,0.00736,0.00000,0.00000,0.00000,2.89913,-4.83717,67.43534,68.03330,1.11177,30.29215,-87.49824,2185.94019,2164.16797,0.00000,2182.07886,169.50278,583.34833,-32525.45508,73.10697,2.15894,-28.61973,0.46340,0.46340,168.11478,168.08440,221.52264,221.09052,449.07581,448.98184,1969.77075,1969.83020,1969.77075,1969.83020,11.31525,11.32140,75.89451,75.89451,98.39228,98.39509,176.25818,176.24910,458.35486,458.35486,437.97162,437.97162,177.61591,177.61592,14.23116,14.23116,0.00000,0.00000,0.00000,0.00000,0.00000,0.00000
19.70450,138.69901,142.85936,152.58894,175.59622,0.21825,669.37274,0.81173,0.02093,0.00894,0.00000,0.00000,0.00000,2.72421,-5.52939,67.40379,68.00182,1.09676,30.29218,-87.49815,2186.76831,2165.81079,0.00000,2182.94800,178.03197,583.58350,-32528.80078,73.05028,1.94205,-28.66890,0.50231,0.50231,221.35683,221.32104,336.92722,336.48065,589.45532,589.33960,1975.83630,1975.90784,1975.83630,1975.90784,11.65751,11.66494,77.82061,77.82061,98.69994,98.70335,191.04297,191.03287,458.46878,458.46878,439.36578,439.36578,177.59325,177.59331,14.24645,14.24645,0.00000,0.00000,0.00000,0.00000,0.00000,0.00000
19.70453,138.66162,142.83746,152.56604,175.56987,0.21822,642.97821,0.80985,0.04002,0.01024,0.00000,0.00000,0.00000,2.57136,-6.16113,67.36980,67.96790,1.08441,30.29221,-87.49807,2187.41846,2167.55518,0.00000,2183.64697,185.40057,583.76672,-32531.69727,73.01945,1.75243,-28.72734,0.53595,0.53595,270.81113,270.77066,436.35550,435.71555,719.19452,719.05811,1981.07947,1981.16333,1981.07947,1981.16333,11.98557,11.99424,79.44123,79.44123,98.96803,98.97203,205.55612,205.54477,458.91141,458.91141,441.19244,441.19244,177.58188,177.58195,14.27141,14.27141,0.00000,0.00000,0.00000,0.00000,0.00000,0.00000
19.70455,138.66536,142.85536,152.58267,175.58900,0.21824,617.34808,0.80904,0.05871,0.01137,0.00000,0.00000,0.00000,2.42636,-6.77809,67.33157,67.92972,1.07171,30.29223,-87.49800,2187.96973,2168.73682,0.00000,2184.22729,192.28194,583.92072,-32534.40820,73.00574,1.57442,-28.79577,0.56737,0.56737,320.12927,320.08484,533.90063,533.20532,847.94647,847.79004,1986.23584,1986.32910,1986.23584,1986.32910,12.33009,12.33999,80.92764,80.92764,99.22743,99.23196,220.37070,220.35799,459.60632,459.60632,443.39432,443.39432,177.57799,177.57806,14.30304,14.30304,0.00000,0.00000,0.00000,0.00000,0.00000,0.00000
19.70458,138.70555,142.90915,152.63493,175.64915,0.21833,591.95123,0.80872,0.07739,0.01240,0.00000,0.00000,0.00000,2.28466,-7.39390,67.28845,67.88665,1.05755,30.29226,-87.49793,2188.44727,2170.37402,0.00000,2184.72705,198.88307,584.05273,-32537.01758,73.00697,1.40321,-28.87469,0.59751,0.59751,370.29868,370.25208,631.66840,630.82147,978.32623,978.15460,1991.30029,1991.40186,1991.30029,1991.40186,12.69199,12.70290,82.32767,82.32767,99.48171,99.48663,235.66064,235.64673,460.52478,460.52478,445.94019,445.94019,177.58032,177.58043,14.33994,14.33994,0.00000,0.00000,0.00000,0.00000,0.00000,0.00000
19.70461,138.78404,143.00327,152.72708,175.75520,0.21847,565.05994,0.80881,0.09720,0.01338,0.00000,0.00000,0.00000,2.13584,-8.05244,67.23701,67.83526,1.04039,30.29228,-87.49786,2188.88550,2171.60254,0.00000,2185.17676,205.67900,584.17242,-32539.71094,73.02338,1.22675,-28.97005,0.62353,0.62353,423.96432,423.91464,735.75317,734.68457,1117.15601,1116.96411,1996.61597,1996.72949,1996.61597,1996.72949,13.09059,13.10279,83.71951,83.71951,99.74480,99.75026,252.62723,252.60957,461.72235,461.72235,448.98596,448.98596,177.58891,177.58904,14.38371,14.38371,0.00000,0.00000,0.00000,0.00000,0.00000,0.00000
19.70463,138.89890,143.13557,152.85706,175.90477,0.21867,537.53510,0.80920,0.11492,0.01431,0.00000,0.00000,0.00000,1.98475,-8.73277,67.17829,67.77660,1.02091,30.29230,-87.49779,2189.26929,2172.64575,0.00000,2185.57544,212.46156,584.27539,-32542.40625,73.05449,1.05051,-29.07974,0.62353,0.62353,463.31018,463.25650,829.27643,828.11169,1217.99426,1217.77942,2000.80640,2000.93115,2000.80640,2000.93115,13.46664,13.48028,84.68887,84.68887,99.97731,99.98336,274.53479,274.50992,463.00040,463.00040,452.10428,452.10428,177.60258,177.60274,14.43162,14.43162,0.00000,0.00000,0.00000,0.00000,0.00000,0.00000
19.70466,139.04909,143.29738,153.01613,176.08783,0.21892,509.32922,0.80972,0.12688,0.01515,0.00000,0.00000,0.00000,1.83193,-9.43372,67.11174,67.71011,1.00020,30.29233,-87.49772,2189.60010,2173.92627,0.00000,2185.92627,219.25874,584.36212,-32545.11914,73.09588,0.87361,-29.20274,0.62353,0.62353,488.29895,488.24170,893.41400,892.10754,1281.65161,1281.41748,2003.47339,2003.60779,2003.47339,2003.60779,13.74921,13.76420,85.28273,85.28273,100.13609,100.14265,297.11237,297.08206,464.20630,464.20630,454.99612,454.99612,177.61914,177.61931,14.48059,14.48059,0.00000,0.00000,0.00000,0.00000,0.00000,0.00000
19.70468,139.21590,143.47385,153.18953,176.28737,0.21919,481.30130,0.81047,0.13369,0.01581,0.00000,0.00000,0.00000,1.68335,-10.12997,67.03921,67.63762,0.98058,30.29235,-87.49765,2189.87061,2175.11768,0.00000,2186.21680,225.88049,584.43085,-32547.77148,73.14142,0.70080,-29.33368,0.62353,0.62353,503.35532,503.29471,930.99652,929.54840,1319.94653,1319.69531,2005.00293,2005.14587,2005.00293,2005.14587,13.94190,13.95819,85.63153,85.63153,100.22894,100.23595,316.11450,316.08002,465.32684,465.32684,457.63098,457.63098,177.63693,177.63712,14.52712,14.52712,0.00000,0.00000,0.00000,0.00000,0.00000,0.00000
19.70471,139.39644,143.66385,153.37604,176.50200,0.21948,452.59821,0.81164,0.13747,0.01634,0.00000,0.00000,0.00000,1.53532,-10.84066,66.95830,67.55676,0.96244,30.29238,-87.49758,2190.09106,2176.07837,0.00000,2186.45337,232.54332,584.48407,-32550.45117,73.18929,0.52653,-29.47549,0.62353,0.62353,512.64703,512.58313,952.92749,951.36932,1343.60242,1343.33569,2005.87341,2006.02429,2005.87341,2006.02429,14.08088,14.09846,85.84292,85.84292,100.28187,100.28930,331.27139,331.23352,466.41248,466.41248,460.13083,460.13083,177.65579,177.65598,14.57165,14.57165,0.00000,0.00000,0.00000,0.00000,0.00000,0.00000
19.70473,139.59441,143.87352,153.58151,176.73845,0.21980,421.83646,0.81326,0.13949,0.01681,0.00000,0.00000,0.00000,1.38132,-11.59927,66.86420,67.46272,0.94542,30.29240,-87.49751,2190.26636,2176.91260,0.00000,2186.64478,239.56879,584.52283,-32553.28906,73.23985,0.34253,-29.63533,0.62353,0.62353,518.53455,518.46777,965.76672,964.09216,1358.64111,1358.36047,2006.33020,2006.48914,2006.33020,2006.48914,14.19054,14.20943,85.97484,85.97484,100.31081,100.31862,343.19553,343.15457,467.52014,467.52014,462.62497,462.62497,177.67628,177.67647,14.61554,14.61554,0.00000,0.00000,0.00000,0.00000,0.00000,0.00000
19.70476,139.80136,144.08690,153.79025,176.97868,0.22013,391.05197,0.81518,0.14028,0.01720,0.00000,0.00000,0.00000,1.23186,-12.35366,66.76282,67.36140,0.93088,30.29243,-87.49744,2190.38306,2178.06226,0.00000,2186.78101,246.49384,584.54376,-32556.09961,73.28835,0.16094,-29.80302,0.62353,0.62353,521.94525,521.87531,972.17560,970.39349,1367.40686,1367.11182,2006.49927,2006.66577,2006.49927,2006.66577,14.27625,14.29650,86.05005,86.05005,100.32336,100.33156,351.54315,351.49954,468.57932,468.57932,464.95432,464.95432,177.69679,177.69699,14.65548,14.65548,0.00000,0.00000,0.00000,0.00000,0.00000,0.00000
19.70479,140.01913,144.31302,154.01100,177.23271,0.22047,358.77612,0.81743,0.14037,0.01757,0.00000,0.00000,0.00000,1.07937,-13.13993,66.64902,67.24766,0.91767,30.29245,-87.49736,2190.44434,2178.93481,0.00000,2186.86182,253.65614,584.54724,-32559.02344,73.33620,-0.02693,-29.98685,0.62353,0.62353,524.03827,523.96521,974.86981,972.97937,1372.86426,1372.55554,2006.49182,2006.66589,2006.49182,2006.66589,14.34873,14.37037,86.09496,86.09496,100.32524,100.33382,357.50449,357.45834,469.64453,469.64453,467.24152,467.24152,177.71817,177.71838,14.69338,14.69338,0.00000,0.00000,0.00000,0.00000,0.00000,0.00000
19.70481,140.24210,144.54465,154.23669,177.49243,0.22083,325.95251,0.81980,0.14012,0.01790,0.00000,0.00000,0.00000,0.92784,-13.93441,66.52592,67.12460,0.90572,30.29248,-87.49728,2190.44556,2180.03198,0.00000,2186.88281,260.84933,584.53223,-32561.97656,73.38131,-0.21577,-30.18210,0.62353,0.62353,525.28223,525.20624,975.68036,973.69073,1376.18127,1375.85950,2006.37415,2006.55542,2006.37415,2006.55542,14.41205,14.43509,86.12059,86.12059,100.32101,100.32995,361.51740,361.46887,470.68552,470.68552,469.42239,469.42239,177.73970,177.73993,14.72806,14.72806,0.00000,0.00000,0.00000,0.00000,0.00000,0.00000
19.70484,140.47118,144.77834,154.46391,177.75391,0.22118,293.03082,0.82241,0.13960,0.01835,0.00000,0.00000,0.00000,0.77856,-14.72538,66.39542,66.99416,0.89455,30.29251,-87.49722,2190.38721,2180.91187,0.00000,2186.84302,267.98279,584.49915,-32564.92188,73.42274,-0.40326,-30.38623,0.62353,0.62353,526.03668,525.95807,974.97748,972.89502,1378.27173,1377.93835,2006.19763,2006.38525,2006.19763,2006.38525,14.46798,14.49242,86.13502,86.13502,100.31272,100.32200,364.14914,364.09842,471.69107,471.69107,471.47760,471.47760,177.76105,177.76129,14.75933,14.75933,0.00000,0.00000,0.00000,0.00000,0.00000,0.00000
19.70487,140.69159,145.00545,154.68423,178.00745,0.22153,261.22903,0.82608,0.13913,0.01893,0.00000,0.00000,0.00000,0.63618,-15.46061,66.26298,66.86178,0.88337,30.29253,-87.49714,2190.27637,2181.65234,0.00000,2186.74976,274.80557,584.45062,-32567.75781,73.45914,-0.58186,-30.59128,0.62353,0.62353,526.49921,526.41809,974.16394,972.00146,1379.61841,1379.27429,2005.98560,2006.17896,2005.98560,2006.17896,14.51775,14.54351,86.14294,86.14294,100.30290,100.31247,365.81558,365.76285,472.62881,472.62881,473.34836,473.34836,177.78143,177.78171,14.78652,14.78652,0.00000,0.00000,0.00000,0.00000,0.00000,0.00000
19.70489,140.91902,145.24043,154.91173,178.26924,0.22189,228.53090,0.82874,0.13851,0.01898,0.00000,0.00000,0.00000,0.49074,-16.16866,66.12019,66.71904,0.87153,30.29256,-87.49707,2190.10791,2182.14941,0.00000,2186.60034,281.76227,584.38403,-32570.66797,73.49292,-0.76389,-30.81004,0.62353,0.62353,526.83179,526.74872,972.86896,970.61633,1380.65906,1380.30603,2005.73071,2005.92908,2005.73071,2005.92908,14.56398,14.59105,86.14764,86.14764,100.29063,100.30045,366.95285,366.89825,473.56201,473.56201,475.16653,475.16653,177.80219,177.80247,14.81176,14.81176,0.00000,0.00000,0.00000,0.00000,0.00000,0.00000
19.70492,141.14609,145.47449,155.13789,178.52951,0.22225,196.16013,0.83103,0.13787,0.01889,0.00000,0.00000,0.00000,0.34754,-16.82211,65.97228,66.57119,0.85993,30.29258,-87.49700,2189.88745,2182.88452,0.00000,2186.39771,288.59641,584.30188,-32573.54492,73.52283,-0.94320,-31.03405,0.62353,0.62353,527.07367,526.98859,971.46503,969.12769,1381.46692,1381.10522,2005.47229,2005.67542,2005.47229,2005.67542,14.60732,14.63569,86.15033,86.15033,100.27800,100.28807,367.70447,367.64822,474.45682,474.45682,476.86880,476.86880,177.82249,177.82280,14.83431,14.83431,0.00000,0.00000,0.00000,0.00000,0.00000,0.00000
19.70494,141.38011,145.71992,155.37457,178.80186,0.22262,162.44974,0.83327,0.13721,0.01874,0.00000,0.00000,0.00000,0.19911,-17.45540,65.81141,66.41038,0.84816,30.29261,-87.49693,2189.60254,2183.31494,0.00000,2186.13623,295.66205,584.19940,-32576.54297,73.55054,-1.12918,-31.27462,0.62353,0.62353,527.27631,527.18927,969.97870,967.56396,1382.18909,1381.81885,2005.18518,2005.39270,2005.18518,2005.39270,14.64961,14.67931,86.15195,86.15195,100.26413,100.27444,368.23492,368.17715,475.35986,475.35986,478.54645,478.54645,177.84343,177.84373,14.85551,14.85551,0.00000,0.00000,0.00000,0.00000,0.00000,0.00000
19.70497,141.63023,145.97667,155.62167,179.08623,0.22301,127.43198,0.83531,0.13646,0.01850,0.00000,0.00000,0.00000,0.04565,-18.06622,65.63721,66.23624,0.83651,30.29264,-87.49685,2189.24707,2183.95581,0.00000,2185.80078,302.94971,584.07483,-32579.65820,73.57578,-1.32183,-31.53178,0.62353,0.62353,527.45770,527.36938,968.02197,965.52600,1382.87012,1382.49365,2004.89294,2005.10413,2004.89294,2005.10413,14.69086,14.72188,86.15290,86.15290,100.24924,100.25974,368.61417,368.55493,476.26849,476.26849,480.19351,480.19351,177.86493,177.86526,14.87533,14.87533,0.00000,0.00000,0.00000,0.00000,0.00000,0.00000
19.70500,141.88084,146.23695,155.87175,179.37401,0.22341,92.18745,0.83744,0.13579,0.01819,0.00000,0.00000,0.00000,-0.10709,-18.63653,65.45480,66.05388,0.82649,30.29267,-87.49677,2188.82983,2184.44165,0.00000,2185.40649,310.23322,583.93121,-32582.79688,73.59777,-1.51526,-31.79754,0.62353,0.62353,527.61621,527.52661,966.36920,963.80750,1383.48425,1383.10217,2004.60132,2004.81543,2004.60132,2004.81543,14.73137,14.76368,86.15343,86.15343,100.23484,100.24550,368.88470,368.82419,477.15402,477.15402,481.75894,481.75894,177.88635,177.88669,14.89323,14.89323,0.00000,0.00000,0.00000,0.00000,0.00000,0.00000
19.70502,142.13281,146.48860,156.11224,179.65077,0.22380,57.92622,0.84273,0.12865,0.01803,0.00000,0.00000,0.00000,-0.25307,-19.15089,65.27089,65.87003,0.83074,30.29269,-87.49670,2188.36816,2183.77319,0.00000,2184.95654,317.26691,583.77454,-32585.85156,73.61401,-1.70136,-32.06169,0.41425,0.41425,435.21619,435.11624,930.68347,928.02722,1142.21558,1141.83044,1999.55481,1999.77319,1999.55481,1999.77319,14.65371,14.68721,84.07200,84.07200,100.14557,100.15634,365.39630,365.33438,477.59045,477.59045,482.40198,482.40198,177.90425,177.90459,14.90728,14.90728,0.00000,0.00000,0.00000,0.00000,0.00000,0.00000
19.70505,142.34155,146.67754,156.28893,179.85408,0.22408,23.48475,0.84716,0.07810,0.01752,0.00000,0.00000,0.00000,-0.39556,-19.61533,65.07870,65.67789,0.84265,30.29272,-87.49663,2187.84912,2182.85620,0.00000,2184.46582,324.30133,583.60022,-32588.93164,73.59589,-1.88499,-32.31979,0.33700,0.33700,280.89774,280.77438,670.16071,667.59131,741.66370,741.24982,1986.82458,1987.07361,1986.82458,1987.07361,13.76556,13.80176,79.90926,79.90926,99.54421,99.55606,327.99615,327.94028,475.50949,475.50949,478.04300,478.04300,177.89890,177.89923,14.89753,14.89753,0.00000,0.00000,0.00000,0.00000,0.00000,0.00000
19.70507,142.47537,146.78839,156.38635,179.96622,0.22425,-12.30915,0.85020,0.03640,0.01649,0.00000,0.00000,0.00000,-0.53528,-20.03390,64.86964,65.46889,0.86229,30.29275,-87.49655,2187.25122,2181.69873,0.00000,2183.88232,331.58002,583.40125,-32592.14648,73.53278,-2.07436,-32.57557,0.35875,0.35875,212.72249,212.57576,454.05038,451.99844,564.51801,564.05109,1978.94019,1979.22229,1978.94019,1979.22229,12.96699,13.00716,77.65627,77.65627,99.03995,99.05357,286.58865,286.53671,473.35681,473.35681,473.65115,473.65115,177.88142,177.88176,14.86404,14.86404,0.00000,0.00000,0.00000,0.00000,0.00000,0.00000
19.70510,142.54907,146.85504,156.43922,180.02705,0.22435,-47.29020,0.85404,0.01873,0.01565,0.00000,0.00000,0.00000,-0.66413,-20.39472,64.65656,65.25587,0.88781,30.29278,-87.49648,2186.61060,2180.67896,0.00000,2183.25928,338.66425,583.18945,-32595.30273,73.44757,-2.25772,-32.82185,0.39088,0.39088,192.20305,192.04179,361.21259,359.51492,511.15585,510.65015,1975.95288,1976.25671,1975.95288,1976.25671,12.57950,12.62294,76.89855,76.89855,98.82839,98.84327,256.24277,256.19025,471.76016,471.76016,470.47110,470.47110,177.86057,177.86089,14.82299,14.82299,0.00000,0.00000,0.00000,0.00000,0.00000,0.00000
19.70513,142.60271,146.90990,156.47960,180.07352,0.22444,-82.48911,0.85837,0.01371,0.01503,0.00000,0.00000,0.00000,-0.78992,-20.72390,64.43492,65.03429,0.91528,30.29281,-87.49641,2185.90942,2179.29004,0.00000,2182.58887,345.76974,582.95905,-32598.49805,73.35220,-2.43993,-33.07206,0.42316,0.42316,194.45789,194.29091,333.34174,331.86435,517.42340,516.89807,1975.67761,1975.98877,1975.67761,1975.98877,12.42178,12.46762,76.95586,76.95586,98.77665,98.79214,236.64433,236.58975,470.60950,470.60950,468.25113,468.25113,177.83948,177.83978,14.78247,14.78247,0.00000,0.00000,0.00000,0.00000,0.00000,0.00000
19.70515,142.65999,146.97165,156.52609,180.12701,0.22453,-118.98779,0.86160,0.01664,0.01445,0.00000,0.00000,0.00000,-0.91972,-21.03969,64.19911,64.79853,0.93770,30.29284,-87.49633,2185.12256,2178.41895,0.00000,2181.83081,353.12238,582.70172,-32601.83398,73.25169,-2.62711,-33.33766,0.44400,0.44400,209.21742,209.05127,346.81342,345.40796,556.42249,555.89294,1977.08252,1977.39258,1977.08252,1977.39258,12.41356,12.46110,77.46577,77.46577,98.82526,98.84084,225.96164,225.90541,469.83234,469.83234,466.82755,466.82755,177.81984,177.82014,14.74631,14.74631,0.00000,0.00000,0.00000,0.00000,0.00000,0.00000
19.70518,142.73175,147.04758,156.58629,180.19629,0.22465,-155.61932,0.86451,0.02209,0.01389,0.00000,0.00000,0.00000,-1.04997,-21.33699,63.95741,64.55689,0.95701,30.29287,-87.49625,2184.27124,2177.54346,0.00000,2180.98315,360.49142,582.42462,-32605.20898,73.15334,-2.81434,-33.61203,0.44400,0.44400,219.81412,219.65257,373.63007,372.14264,584.12177,583.60266,1978.57458,1978.87671,1978.57458,1978.87671,12.46248,12.51103,77.83947,77.83947,98.90700,98.92222,221.81042,221.75360,469.16742,469.16742,465.65756,465.65756,177.80228,177.80258,14.71702,14.71702,0.00000,0.00000,0.00000,0.00000,0.00000,0.00000
19.70520,142.81168,147.13255,156.65552,180.27596,0.22478,-190.93486,0.86767,0.02558,0.01340,0.00000,0.00000,0.00000,-1.17421,-21.60677,63.72006,64.31960,0.97575,30.29290,-87.49618,2183.39307,2176.72168,0.00000,2180.12866,367.58905,582.13971,-32608.49023,73.06009,-2.99393,-33.88361,0.44400,0.44400,226.31697,226.16019,390.52234,389.01581,601.03430,600.52814,1979.71118,1980.00415,1979.71118,1980.00415,12.48879,12.53818,78.06850,78.06850,98.96751,98.98232,220.77126,220.71480,468.52246,468.52246,464.54572,464.54572,177.78642,177.78671,14.69372,14.69372,0.00000,0.00000,0.00000,0.00000,0.00000,0.00000
19.70523,142.90515,147.23105,156.73692,180.36963,0.22492,-227.79941,0.87157,0.02817,0.01291,0.00000,0.00000,0.00000,-1.30089,-21.87077,63.46781,64.06741,0.99666,30.29293,-87.49610,2182.41431,2176.04980,0.00000,2179.17285,374.99536,581.82330,-32611.94727,72.96313,-3.18000,-34.17396,0.45200,0.45200,232.23141,232.08055,402.78165,401.24881,616.42181,615.93250,1980.73840,1981.02051,1980.73840,1981.02051,12.50388,12.55395,78.27304,78.27304,99.01882,99.03310,220.97543,220.91995,467.85281,467.85281,463.41611,463.41611,177.77054,177.77083,14.67314,14.67314,0.00000,0.00000,0.00000,0.00000,0.00000,0.00000
19.70526,143.00581,147.33572,156.82449,180.47041,0.22508,-263.20026,0.87635,0.03223,0.01248,0.00000,0.00000,0.00000,-1.41857,-22.10847,63.22129,63.82094,1.01840,30.29296,-87.49603,2181.41602,2174.81738,0.00000,2178.17505,382.11133,581.50140,-32615.30273,72.87046,-3.35670,-34.45992,0.48000,0.48000,248.33987,248.19682,422.68396,421.13187,658.72394,658.25348,1982.37292,1982.64258,1982.37292,1982.64258,12.55270,12.60325,78.79634,78.79634,99.08726,99.10096,222.42082,222.36685,467.41028,467.41028,462.75235,462.75235,177.75691,177.75720,14.65734,14.65734,0.00000,0.00000,0.00000,0.00000,0.00000,0.00000
19.70528,143.11275,147.44977,156.92177,180.58235,0.22526,-296.75235,0.88171,0.03971,0.01220,0.00000,0.00000,0.00000,-1.52664,-22.32185,62.98392,63.58363,1.03971,30.29299,-87.49596,2180.41577,2174.01172,0.00000,2177.18213,388.86743,581.17969,-32618.51758,72.78545,-3.52179,-34.73917,0.51093,0.51093,273.98438,273.85120,460.42017,458.82230,725.94556,725.49768,1984.83618,1985.09021,1984.83618,1985.09021,12.67434,12.72504,79.60092,79.60092,99.19654,99.20953,225.98416,225.93222,467.30399,467.30399,462.75528,462.75528,177.74715,177.74744,14.64787,14.64787,0.00000,0.00000,0.00000,0.00000,0.00000,0.00000
19.70531,143.24223,147.59462,157.04811,180.72775,0.22548,-332.52603,0.88788,0.05137,0.01204,0.00000,0.00000,0.00000,-1.63907,-22.53951,62.72708,63.32685,1.06179,30.29302,-87.49588,2179.28979,2172.52637,0.00000,2176.11230,396.09381,580.81830,-32621.98828,72.70096,-3.69488,-35.04786,0.54405,0.54405,310.95551,310.83545,519.91888,518.22583,822.57501,822.15790,1988.46387,1988.69641,1988.46387,1988.69641,12.88359,12.93408,80.70510,80.70510,99.35680,99.36882,232.65900,232.60999,467.52859,467.52859,463.42438,463.42438,177.74124,177.74153,14.64507,14.64507,0.00000,0.00000,0.00000,0.00000,0.00000,0.00000
19.70534,143.41229,147.78040,157.21365,180.91824,0.22576,-369.91537,0.89506,0.06769,0.01200,0.00000,0.00000,0.00000,-1.75457,-22.75987,62.45458,63.05441,1.08251,30.29305,-87.49580,2178.04541,2171.41992,0.00000,2174.88989,403.68640,580.41968,-32625.67578,72.62293,-3.87241,-35.38525,0.57889,0.57889,358.08548,357.98169,603.83484,601.94965,945.19757,944.82147,1992.94739,1993.15369,1992.94739,1993.15369,13.19492,13.24468,82.02964,82.02964,99.57239,99.58315,242.97914,242.93407,468.12302,468.12302,464.81509,464.81509,177.74101,177.74130,14.65112,14.65112,0.00000,0.00000,0.00000,0.00000,0.00000,0.00000
19.70537,143.62367,148.01428,157.42592,181.16252,0.22612,-408.31436,0.90289,0.08672,0.01210,0.00000,0.00000,0.00000,-1.87161,-22.98172,62.17003,62.76992,1.10045,30.29309,-87.49572,2176.69385,2170.15356,0.00000,2173.58569,411.54404,579.98755,-32629.53320,72.55623,-4.05098,-35.74996,0.61350,0.61350,413.97388,413.88699,702.23810,700.09027,1090.04370,1089.71240,1998.09534,1998.27380,1998.09534,1998.27380,13.57465,13.62342,83.48929,83.48929,99.81684,99.82623,256.93979,256.89969,469.10751,469.10751,466.94376,466.94376,177.74794,177.74823,14.66714,14.66714,0.00000,0.00000,0.00000,0.00000,0.00000,0.00000
19.70540,143.88611,148.30197,157.69057,181.46707,0.22656,-447.38831,0.91041,0.10667,0.01230,0.00000,0.00000,0.00000,-1.98895,-23.20513,61.87465,62.47460,1.11558,30.29312,-87.49564,2175.23901,2168.62183,0.00000,2172.17236,419.62231,579.52301,-32633.54297,72.50388,-4.22927,-36.14207,0.62150,0.62150,462.42670,462.35529,805.94690,803.53021,1214.57898,1214.29468,2002.68250,2002.83289,2002.68250,2002.83289,13.99216,14.03974,84.68056,84.68056,100.06725,100.07522,278.62585,278.57819,470.38586,470.38586,469.59534,469.59534,177.76236,177.76265,14.69280,14.69280,0.00000,0.00000,0.00000,0.00000,0.00000,0.00000
19.70543,144.20474,148.63501,157.99916,181.82219,0.22706,-486.79355,0.91682,0.12054,0.01297,0.00000,0.00000,0.00000,-2.10386,-23.40933,61.56907,62.16909,1.13076,30.29316,-87.49555,2173.68652,2167.08862,0.00000,2170.62061,427.87213,579.02808,-32637.68945,72.46294,-4.40670,-36.55725,0.62500,0.62500,493.64471,493.58588,878.61359,875.94128,1294.32092,1294.08008,2005.53223,2005.66003,2005.53223,2005.66003,14.31908,14.36558,85.41392,85.41392,100.24145,100.24816,304.10031,304.05316,471.65662,471.65662,472.15695,472.15695,177.78154,177.78183,14.72411,14.72411,0.00000,0.00000,0.00000,0.00000,0.00000,0.00000
19.70546,144.52623,148.96831,158.30890,182.17865,0.22757,-523.10437,0.92460,0.12736,0.01279,0.00000,0.00000,0.00000,-2.20461,-23.53089,61.27841,61.87849,1.14739,30.29320,-87.49547,2172.17822,2165.46753,0.00000,2169.12842,435.58051,578.54773,-32641.60742,72.42991,-4.56744,-36.95546,0.62500,0.62500,509.74185,509.69067,914.93036,912.11932,1335.39685,1335.18433,2006.89087,2007.00427,2006.89087,2007.00427,14.51979,14.56573,85.78046,85.78046,100.32629,100.33219,324.58554,324.54205,472.78873,472.78873,474.37482,474.37482,177.80174,177.80203,14.75451,14.75451,0.00000,0.00000,0.00000,0.00000,0.00000,0.00000
19.70548,144.74944,149.20352,158.52771,182.43044,0.22793,-547.60779,0.93057,0.13002,0.01247,0.00000,0.00000,0.00000,-2.26923,-23.57025,61.07644,61.67656,1.16019,30.29322,-87.49541,2171.11572,2164.57935,0.00000,2168.09692,440.84833,578.20966,-32644.31055,72.40804,-4.67340,-37.23227,0.62500,0.62500,516.42859,516.38135,929.45239,926.58252,1352.48486,1352.28723,2007.38123,2007.48718,2007.38123,2007.48718,14.62138,14.66710,85.92995,85.92995,100.35816,100.36365,335.71213,335.67145,473.53394,473.53394,475.80124,475.80124,177.81619,177.81648,14.77484,14.77484,0.00000,0.00000,0.00000,0.00000,0.00000,0.00000
19.70551,145.10905,149.56458,158.86328,182.81660,0.22848,-583.91022,0.94075,0.13207,0.01171,0.00000,0.00000,0.00000,-2.35966,-23.56450,60.76737,61.36756,1.18126,30.29326,-87.49533,2169.47144,2163.01782,0.00000,2166.43213,448.77115,577.68695,-32648.41602,72.37439,-4.82562,-37.65441,0.62500,0.62500,522.52203,522.47919,941.01715,938.09235,1368.11487,1367.93469,2007.71301,2007.81067,2007.71301,2007.81067,14.74106,14.78662,86.06399,86.06399,100.38223,100.38723,348.23428,348.19757,474.61972,474.61972,477.83115,477.83115,177.83846,177.83875,14.80390,14.80390,0.00000,0.00000,0.00000,0.00000,0.00000,0.00000
19.70555,145.45619,149.92229,159.19551,183.19893,0.22902,-618.68677,0.95100,0.13194,0.01086,0.00000,0.00000,0.00000,-2.44015,-23.48813,60.45907,61.05932,1.20370,30.29329,-87.49525,2167.81226,2161.37500,0.00000,2164.79712,456.52338,577.15985,-32652.48047,72.33926,-4.96521,-38.07280,0.61350,0.61350,518.41827,518.37830,941.08167,938.14215,1357.43896,1357.27124,2007.30444,2007.39563,2007.30444,2007.39563,14.81606,14.86161,85.97470,85.97470,100.37714,100.38179,355.96469,355.93130,475.59763,475.59763,479.59961,479.59961,177.86018,177.86049,14.82995,14.82995,0.00000,0.00000,0.00000,0.00000,0.00000,0.00000
19.70557,145.78738,150.24693,159.49622,183.54497,0.22952,-649.66107,0.96104,0.12951,0.00983,0.00000,0.00000,0.00000,-2.50661,-23.36124,60.17336,60.77367,1.22509,30.29333,-87.49518,2166.25806,2159.87549,0.00000,2163.19360,463.59601,576.66644,-32656.23047,72.30299,-5.08359,-38.45719,0.61350,0.61350,514.17029,514.13220,929.07770,926.17346,1346.74182,1346.58252,2006.74182,2006.82898,2006.74182,2006.82898,14.84111,14.88677,85.87701,85.87701,100.34540,100.34982,358.31409,358.28305,476.38129,476.38129,480.96170,480.96170,177.87900,177.87930,14.85050,14.85050,0.00000,0.00000,0.00000,0.00000,0.00000,0.00000
19.70560,146.09564,150.56836,159.79355,183.88713,0.23001,-679.69214,0.97044,0.12804,0.00876,0.00000,0.00000,0.00000,-2.56602,-23.18275,59.88565,60.48602,1.24728,30.29336,-87.49510,2164.67505,2158.12354,0.00000,2161.65820,470.63589,576.16412,-32660.00000,72.26340,-5.19264,-38.84177,0.61350,0.61350,511.83905,511.80261,921.83960,918.99518,1340.95459,1340.80310,2006.27173,2006.35364,2006.27173,2006.35364,14.87512,14.92085,85.82172,85.82172,100.32152,100.32573,358.69315,358.66409,477.14780,477.14780,482.26285,482.26285,177.89732,177.89763,14.86850,14.86850,0.00000,0.00000,0.00000,0.00000,0.00000,0.00000
19.70563,146.42538,150.90532,160.10468,184.24518,0.23052,-710.30255,0.98068,0.12677,0.00750,0.00000,0.00000,0.00000,-2.62119,-22.94071,59.58098,60.18140,1.27085,30.29340,-87.49503,2162.97583,2156.50439,0.00000,2159.97241,478.03381,575.62512,-32664.00586,72.21877,-5.29748,-39.24757,0.61350,0.61350,510.53809,510.50482,915.55426,912.77197,1337.83691,1337.69824,2005.87634,2005.95093,2005.87634,2005.95093,14.91355,14.95917,85.78888,85.78888,100.29974,100.30359,358.35150,358.32431,477.93686,477.93686,483.57007,483.57007,177.91629,177.91660,14.88529,14.88529,0.00000,0.00000,0.00000,0.00000,0.00000,0.00000
19.70565,146.74379,151.22356,160.39798,184.58272,0.23101,-738.24719,0.99046,0.12595,0.00623,0.00000,0.00000,0.00000,-2.66654,-22.66646,59.29188,59.89236,1.29275,30.29343,-87.49496,2161.33838,2154.79663,0.00000,2158.30688,485.02969,575.10583,-32667.83398,72.17426,-5.38696,-39.63235,0.61350,0.61350,509.90634,509.87646,911.45007,908.73792,1336.39697,1336.27271,2005.57690,2005.64307,2005.57690,2005.64307,14.95483,15.00020,85.77152,85.77152,100.28355,100.28701,357.87408,357.84885,478.66660,478.66660,484.74921,484.74921,177.93402,177.93433,14.89945,14.89945,0.00000,0.00000,0.00000,0.00000,0.00000,0.00000
19.70567,146.95303,151.44843,160.60524,184.82121,0.23135,-757.38751,0.99668,0.12563,0.00543,0.00000,0.00000,0.00000,-2.69448,-22.44639,59.08754,59.68806,1.30816,30.29346,-87.49490,2160.16382,2153.77344,0.00000,2157.20068,489.97696,574.73352,-32670.56641,72.14182,-5.44464,-39.90472,0.61350,0.61350,509.66159,509.63440,909.89941,907.24316,1335.88965,1335.77649,2005.35364,2005.41296,2005.35364,2005.41296,14.98525,15.03038,85.76390,85.76390,100.27349,100.27663,357.56256,357.53882,479.17303,479.17303,485.55096,485.55096,177.94647,177.94678,14.90861,14.90861,0.00000,0.00000,0.00000,0.00000,0.00000,0.00000
19.70569,147.18840,151.70100,160.83786,185.08891,0.23173,-778.24835,1.00380,0.12516,0.00444,0.00000,0.00000,0.00000,-2.72162,-22.17268,58.85870,59.45926,1.32532,30.29348,-87.49484,2158.82935,2152.39404,0.00000,2155.93140,495.53415,574.31049,-32673.65820,72.10461,-5.50388,-40.21064,0.61350,0.61350,509.52850,509.50491,907.59546,904.99835,1335.70532,1335.60693,2005.10828,2005.15881,2005.10828,2005.15881,15.01697,15.06172,85.75820,85.75820,100.26114,100.26389,357.27274,357.25082,479.73254,479.73254,486.42120,486.42120,177.96037,177.96068,14.91815,14.91815,0.00000,0.00000,0.00000,0.00000,0.00000,0.00000
19.70572,147.56580,152.08727,161.19308,185.49770,0.23232,-808.74530,1.01506,0.12454,0.00288,0.00000,0.00000,0.00000,-2.75419,-21.70644,58.51114,59.11177,1.35070,30.29353,-87.49476,2156.76025,2150.24316,0.00000,2153.87720,504.03799,573.65472,-32678.44141,72.04634,-5.58253,-40.67797,0.61350,0.61350,509.48157,509.46393,904.43567,901.94696,1335.80652,1335.73303,2004.78638,2004.82239,2004.78638,2004.82239,15.06696,15.11094,85.75321,85.75321,100.24431,100.24636,356.97223,356.95364,480.56931,480.56931,487.69131,487.69131,177.98151,177.98181,14.93133,14.93133,0.00000,0.00000,0.00000,0.00000,0.00000,0.00000
19.70576,147.93959,152.46729,161.54227,185.89952,0.23290,-836.98254,1.02588,0.12407,0.00147,0.00000,0.00000,0.00000,-2.77545,-21.19684,58.17343,58.77413,1.37458,30.29357,-87.49467,2154.69507,2148.20996,0.00000,2151.81787,512.41736,573.00006,-32683.20898,71.98809,-5.64553,-41.13642,0.61350,0.61350,509.53366,509.52255,902.09760,899.72778,1336.14050,1336.09424,2004.48865,2004.50879,2004.48865,2004.50879,15.11713,15.16014,85.75075,85.75075,100.22949,100.23077,356.81744,356.80267,481.37097,481.37097,488.87268,488.87268,178.00217,178.00246,14.94283,14.94283,0.00000,0.00000,0.00000,0.00000,0.00000,0.00000
19.70579,148.31857,152.85162,161.89523,186.30571,0.23349,-863.65698,1.03664,0.12354,0.00010,0.00000,0.00000,0.00000,-2.78568,-20.63226,57.83757,58.43835,1.39744,30.29361,-87.49458,2152.57983,2146.27417,0.00000,2149.69702,520.91162,572.32953,-32688.10352,71.92891,-5.69463,-41.59781,0.61350,0.61350,509.64734,509.64380,899.48932,897.23584,1336.64392,1336.62903,2004.19360,2004.19666,2004.19360,2004.19666,15.16570,15.20750,85.74949,85.74949,100.21410,100.21452,356.76147,356.75098,482.16110,482.16110,490.00323,490.00323,178.02296,178.02324,14.95318,14.95318,0.00000,0.00000,0.00000,0.00000,0.00000,0.00000
19.70582,148.68439,153.22038,162.23372,186.69524,0.23405,-887.35638,1.04682,0.12311,-0.00107,0.00000,0.00000,0.00000,-2.78464,-20.04791,57.52161,58.12245,1.41841,30.29366,-87.49450,2150.52856,2144.09106,0.00000,2147.62305,529.08844,571.67920,-32692.86719,71.87245,-5.72750,-42.03757,0.61350,0.61350,509.77591,509.77945,897.35211,895.21973,1337.16467,1337.17957,2003.92346,2003.90967,2003.92346,2003.90967,15.21249,15.25301,85.74888,85.74888,100.20034,100.19993,356.77277,356.76685,482.90063,482.90063,491.03067,491.03067,178.04283,178.04311,14.96201,14.96201,0.00000,0.00000,0.00000,0.00000,0.00000,0.00000
19.70584,148.91963,153.46410,162.45746,186.95271,0.23442,-901.96106,1.05317,0.12289,-0.00175,0.00000,0.00000,0.00000,-2.77800,-19.63938,57.31652,57.91740,1.43200,30.29368,-87.49444,2149.16260,2142.63086,0.00000,2146.28247,534.51123,571.24609,-32696.05664,71.83562,-5.74152,-42.32631,0.61350,0.61350,509.86563,509.87387,896.32190,894.26611,1337.51709,1337.55164,2003.73669,2003.71179,2003.73669,2003.71179,15.24323,15.28287,85.74866,85.74866,100.19157,100.19061,356.80240,356.79968,483.38000,483.38000,491.68091,491.68091,178.05592,178.05620,14.96734,14.96734,0.00000,0.00000,0.00000,0.00000,0.00000,0.00000
19.70587,149.16406,153.72430,162.69646,187.22774,0.23482,-916.60504,1.05974,0.12266,-0.00242,0.00000,0.00000,0.00000,-2.76552,-19.18248,57.10113,57.70206,1.44647,30.29371,-87.49438,2147.69653,2141.34082,0.00000,2144.88184,540.31946,570.78113,-32699.49805,71.79694,-5.74974,-42.63266,0.61350,0.61350,509.96832,509.98148,895.24683,893.26801,1337.91675,1337.97180,2003.52466,2003.48792,2003.52466,2003.48792,15.27486,15.31353,85.74850,85.74850,100.18182,100.18028,356.84726,356.84796,483.88397,483.88397,492.35144,492.35144,178.06989,178.07016,14.97261,14.97261,0.00000,0.00000,0.00000,0.00000,0.00000,0.00000
19.70589,149.43065,154.00858,162.95757,187.52823,0.23525,-931.45026,1.06697,0.12237,-0.00313,0.00000,0.00000,0.00000,-2.74539,-18.65855,56.87027,57.47126,1.46215,30.29375,-87.49432,2146.08813,2139.77075,0.00000,2143.34448,546.68848,570.27075,-32703.30469,71.75563,-5.75059,-42.96473,0.61350,0.61350,510.08737,510.10565,893.79260,891.90125,1338.37830,1338.45471,2003.29346,2003.24438,2003.29346,2003.24438,15.30792,15.34552,85.74840,85.74840,100.17066,100.16853,356.90820,356.91266,484.42566,484.42566,493.05722,493.05722,178.08513,178.08540,14.97792,14.97792,0.00000,0.00000,0.00000,0.00000,0.00000,0.00000
19.70593,149.83614,154.40559,163.32185,187.94743,0.23585,-950.00238,1.07809,0.12186,-0.00416,0.00000,0.00000,0.00000,-2.70658,-17.89120,56.55568,57.15674,1.48248,30.29380,-87.49422,2143.83154,2137.50464,0.00000,2140.99878,555.63318,569.55457,-32708.70117,71.70000,-5.73637,-43.42312,0.61350,0.61350,510.25049,510.27628,891.18805,889.42242,1338.99817,1339.10620,2003.03613,2002.97046,2003.03613,2002.97046,15.35475,15.39069,85.74833,85.74833,100.15630,100.15328,357.00916,357.01889,485.16675,485.16675,493.99680,493.99680,178.10640,178.10667,14.98461,14.98461,0.00000,0.00000,0.00000,0.00000,0.00000,0.00000
19.70596,150.19739,154.76424,163.65117,188.32642,0.23640,-964.47748,1.08743,0.12148,-0.00497,0.00000,0.00000,0.00000,-2.66103,-17.16415,56.27939,56.88051,1.49953,30.29384,-87.49413,2141.78491,2135.63647,0.00000,2138.90039,563.77991,568.90454,-32713.66797,71.65253,-5.70810,-43.83142,0.61350,0.61350,510.39056,510.42276,889.41809,887.75568,1339.52637,1339.66113,2002.79944,2002.71960,2002.79944,2002.71960,15.39765,15.43206,85.74830,85.74830,100.14429,100.14053,357.10504,357.11951,485.82217,485.82217,494.80280,494.80280,178.12563,178.12590,14.99000,14.99000,0.00000,0.00000,0.00000,0.00000,0.00000,0.00000
19.70598,150.44321,155.03075,163.89645,188.60867,0.23681,-973.82928,1.09355,0.12126,-0.00551,0.00000,0.00000,0.00000,-2.62015,-16.59903,56.07911,56.68029,1.51243,30.29388,-87.49407,2140.26074,2134.17236,0.00000,2137.46802,569.88171,568.42017,-32717.42188,71.61932,-5.67805,-44.13113,0.61350,0.61350,510.49973,510.53586,888.40948,886.82013,1339.94336,1340.09473,2002.58496,2002.49548,2002.58496,2002.49548,15.42773,15.46109,85.74828,85.74828,100.13454,100.13031,357.17661,357.19446,486.30164,486.30164,495.37817,495.37817,178.13994,178.14021,14.99365,14.99365,0.00000,0.00000,0.00000,0.00000,0.00000,0.00000
19.70601,150.71613,155.31226,164.15547,188.90675,0.23723,-982.33539,1.10075,0.12091,-0.00617,0.00000,0.00000,0.00000,-2.57037,-15.97990,55.87252,56.47375,1.52588,30.29391,-87.49400,2138.65137,2132.43188,0.00000,2135.87720,576.36877,567.90839,-32721.44141,71.58633,-5.63738,-44.44357,0.61350,0.61350,510.62177,510.66199,886.63116,885.12585,1340.40881,1340.57764,2002.38232,2002.28284,2002.38232,2002.28284,15.45807,15.49026,85.74828,85.74828,100.12369,100.11897,357.25555,357.27667,486.80078,486.80078,495.96420,495.96420,178.15509,178.15535,14.99721,14.99721,0.00000,0.00000,0.00000,0.00000,0.00000,0.00000
19.70604,150.99117,155.59709,164.41780,189.20863,0.23767,-989.44507,1.10781,0.12065,-0.00678,0.00000,0.00000,0.00000,-2.51331,-15.33155,55.66862,56.26990,1.53905,30.29395,-87.49393,2137.02368,2130.85474,0.00000,2134.27051,582.98724,567.39050,-32725.57422,71.55546,-5.58653,-44.75523,0.61350,0.61350,510.73389,510.77820,885.39404,883.96692,1340.83240,1341.01855,2002.18201,2002.07300,2002.18201,2002.07300,15.49021,15.52122,85.74828,85.74828,100.11404,100.10883,357.33780,357.36212,487.29883,487.29883,496.53571,496.53571,178.17047,178.17072,15.00052,15.00052,0.00000,0.00000,0.00000,0.00000,0.00000,0.00000
19.70606,151.27081,155.88515,164.68340,189.51427,0.23811,-995.04266,1.11486,0.12038,-0.00741,0.00000,0.00000,0.00000,-2.44880,-14.65364,55.46786,56.06919,1.55185,30.29399,-87.49387,2135.38037,2129.21582,0.00000,2132.64380,589.74274,566.86719,-32729.82227,71.52715,-5.52503,-45.06548,0.61350,0.61350,510.84647,510.89474,884.12360,882.77405,1341.25769,1341.46045,2001.98230,2001.86450,2001.98230,2001.86450,15.52239,15.55217,85.74828,85.74828,100.10435,100.09868,357.42065,357.44812,487.79581,487.79581,497.09274,497.09274,178.18608,178.18631,15.00359,15.00359,0.00000,0.00000,0.00000,0.00000,0.00000,0.00000
19.70609,151.55850,156.18097,164.95648,189.82854,0.23856,-999.06335,1.12207,0.12007,-0.00810,0.00000,0.00000,0.00000,-2.37526,-13.93375,55.26768,55.86907,1.56454,30.29403,-87.49379,2133.69824,2127.54468,0.00000,2130.97583,596.75171,566.33105,-32734.26172,71.50144,-5.45118,-45.37850,0.61350,0.61350,510.96432,511.01630,882.64252,881.37976,1341.70386,1341.92236,2001.78003,2001.65332,2001.78003,2001.65332,15.55456,15.58308,85.74828,85.74828,100.09415,100.08804,357.50497,357.53546,488.29953,488.29953,497.64392,497.64392,178.20218,178.20239,15.00648,15.00648,0.00000,0.00000,0.00000,0.00000,0.00000,0.00000
19.70613,151.97881,156.59250,165.33667,190.26605,0.23918,-1001.53717,1.13253,0.11959,-0.00917,0.00000,0.00000,0.00000,-2.26112,-12.89668,54.99987,55.60134,1.58038,30.29408,-87.49369,2131.37085,2125.19824,0.00000,2128.54443,606.63562,565.58832,-32740.57617,71.47216,-5.32938,-45.80330,0.61350,0.61350,511.12119,511.17856,880.37427,879.24237,1342.29175,1342.53320,2001.53833,2001.39917,2001.53833,2001.39917,15.60022,15.62688,85.74828,85.74828,100.08102,100.07426,357.62262,357.65710,488.98935,488.98935,498.37640,498.37640,178.22472,178.22490,15.01009,15.01009,0.00000,0.00000,0.00000,0.00000,0.00000,0.00000
19.70615,152.24132,156.85858,165.58395,190.55061,0.23959,-1001.12958,1.13742,0.11923,-0.00992,0.00000,0.00000,0.00000,-2.17896,-12.20016,54.83314,55.43467,1.58639,30.29412,-87.49362,2129.87061,2124.05640,0.00000,2127.03467,613.14575,565.10889,-32744.76758,71.45776,-5.23948,-46.07177,0.61350,0.61350,511.22501,511.28561,879.01184,877.96655,1342.68408,1342.93909,2001.36499,2001.21826,2001.36499,2001.21826,15.62896,15.65441,85.74828,85.74828,100.07211,100.06497,357.69568,357.73273,489.43100,489.43100,498.83197,498.83197,178.23944,178.23962,15.01221,15.01221,0.00000,0.00000,0.00000,0.00000,0.00000,0.00000
19.70618,152.50082,157.12630,165.83321,190.83745,0.24000,-999.07794,1.14264,0.11895,-0.01064,0.00000,0.00000,0.00000,-2.08873,-11.47928,54.67143,55.27302,1.59419,30.29416,-87.49355,2128.37158,2123.03784,0.00000,2125.54956,619.77991,564.62927,-32749.06445,71.44724,-5.14034,-46.33575,0.61350,0.61350,511.32501,511.38879,877.98138,877.02130,1343.06091,1343.32947,2001.18506,2001.03052,2001.18506,2001.03052,15.65833,15.68251,85.74828,85.74828,100.06360,100.05608,357.76965,357.80920,489.87103,489.87103,499.27554,499.27554,178.25438,178.25455,15.01417,15.01417,0.00000,0.00000,0.00000,0.00000,0.00000,0.00000
19.70621,152.76245,157.38785,166.07693,191.11794,0.24040,-995.42072,1.14870,0.11863,-0.01140,0.00000,0.00000,0.00000,-1.99324,-10.75592,54.51986,55.12150,1.60280,30.29420,-87.49348,2126.91919,2122.03174,0.00000,2124.06250,626.34729,564.16400,-32753.33984,71.44110,-5.03414,-46.58722,0.61350,0.61350,511.42609,511.49319,876.56873,875.70392,1343.44202,1343.72461,2001.02307,2000.86084,2001.02307,2000.86084,15.68631,15.70918,85.74829,85.74829,100.05499,100.04707,357.84198,357.88385,490.29678,490.29678,499.69482,499.69482,178.26909,178.26923,15.01594,15.01594,0.00000,0.00000,0.00000,0.00000,0.00000,0.00000
19.70624,153.13289,157.75154,166.41649,191.50868,0.24095,-987.46222,1.15752,0.11822,-0.01246,0.00000,0.00000,0.00000,-1.84914,-9.71883,54.32059,54.92231,1.61483,30.29425,-87.49339,2124.92236,2120.36450,0.00000,2121.98022,635.64185,563.52313,-32759.43164,71.44015,-4.86988,-46.92559,0.61350,0.61350,511.56070,511.63272,874.72180,873.99524,1343.94690,1344.25049,2000.80945,2000.63586,2000.80945,2000.63586,15.72602,15.74693,85.74829,85.74829,100.04372,100.03522,357.94229,357.98749,490.88278,490.88278,500.25595,500.25595,178.28973,178.28987,15.01816,15.01816,0.00000,0.00000,0.00000,0.00000,0.00000,0.00000
19.70628,153.47116,158.09131,166.73480,191.87498,0.24147,-976.83624,1.16517,0.11788,-0.01337,0.00000,0.00000,0.00000,-1.70267,-8.71454,54.14774,54.74953,1.62570,30.29431,-87.49329,2123.08447,2118.79834,0.00000,2120.10742,644.52087,562.93201,-32765.28906,71.44817,-4.69844,-47.22891,0.61350,0.61350,511.68433,511.76068,873.32526,872.71710,1344.41138,1344.73352,2000.59827,2000.41406,2000.59827,2000.41406,15.76320,15.78220,85.74830,85.74830,100.03333,100.02429,358.03430,358.08270,491.42505,491.42505,500.75879,500.75879,178.30931,178.30942,15.02003,15.02003,0.00000,0.00000,0.00000,0.00000,0.00000,0.00000
19.70630,153.68474,158.31157,166.94115,192.11246,0.24180,-968.24475,1.17098,0.11774,-0.01390,0.00000,0.00000,0.00000,-1.60194,-8.04597,54.04359,54.64543,1.63605,30.29434,-87.49323,2121.91455,2117.86938,0.00000,2118.94092,650.36835,562.55487,-32769.16406,71.45844,-4.57746,-47.41780,0.61350,0.61350,511.76306,511.84222,872.57574,872.04346,1344.70825,1345.04236,2000.45410,2000.26343,2000.45410,2000.26343,15.78720,15.80494,85.74830,85.74830,100.02663,100.01726,358.09335,358.14380,491.77307,491.77307,501.07321,501.07321,178.32213,178.32220,15.02114,15.02114,0.00000,0.00000,0.00000,0.00000,0.00000,0.00000
19.70632,153.89970,158.51958,167.13634,192.33707,0.24212,-958.81110,1.17684,0.11748,-0.01451,0.00000,0.00000,0.00000,-1.50285,-7.40026,53.95110,54.55299,1.64412,30.29437,-87.49318,2120.82495,2116.55786,0.00000,2117.78442,655.97449,562.20300,-32772.89453,71.47210,-4.45533,-47.59050,0.61350,0.61350,511.84503,511.92697,871.18079,870.73712,1345.01807,1345.36389,2000.33484,2000.13770,2000.33484,2000.13770,15.80874,15.82523,85.74831,85.74831,100.01961,100.00990,358.14920,358.20157,492.10001,492.10001,501.36270,501.36270,178.33435,178.33441,15.02212,15.02212,0.00000,0.00000,0.00000,0.00000,0.00000,0.00000
19.70635,154.20688,158.83499,167.43367,192.67923,0.24260,-941.94135,1.18390,0.11720,-0.01530,0.00000,0.00000,0.00000,-1.34466,-6.39044,53.82242,54.42438,1.65431,30.29443,-87.49309,2119.20337,2115.07275,0.00000,2116.16016,664.65509,561.67804,-32778.69531,71.50094,-4.25605,-47.84136,0.61350,0.61350,511.95987,512.04553,869.95935,869.62769,1345.45337,1345.81519,2000.12878,1999.92273,2000.12878,1999.92273,15.84253,15.85713,85.74831,85.74831,100.00969,99.99953,358.23407,358.28937,492.59381,492.59381,501.78922,501.78922,178.35315,178.35320,15.02348,15.02348,0.00000,0.00000,0.00000,0.00000,0.00000,0.00000
19.70638,154.40517,159.03987,167.62759,192.90239,0.24291,-929.23773,1.18802,0.11703,-0.01579,0.00000,0.00000,0.00000,-1.23649,-5.71451,53.74680,54.34880,1.65986,30.29446,-87.49303,2118.17310,2114.13989,0.00000,2115.13403,670.41602,561.34357,-32782.55859,71.52541,-4.11740,-47.99637,0.61350,0.61350,512.03204,512.12006,869.34595,869.08441,1345.72607,1346.09814,1999.99268,1999.78113,1999.99268,1999.78113,15.86489,15.87823,85.74831,85.74831,100.00352,99.99307,358.28949,358.34665,492.91324,492.91324,502.05826,502.05826,178.36554,178.36559,15.02430,15.02430,0.00000,0.00000,0.00000,0.00000,0.00000,0.00000
19.70641,154.69878,159.33185,167.90485,193.22145,0.24336,-908.62146,1.19426,0.11667,-0.01659,0.00000,0.00000,0.00000,-1.07436,-4.72318,53.65068,54.25276,1.66671,30.29451,-87.49294,2116.74097,2112.62012,0.00000,2113.64917,678.80573,560.87720,-32788.19922,71.56889,-3.90693,-48.20518,0.61350,0.61350,512.14044,512.23187,867.88550,867.73804,1346.13806,1346.52454,1999.81311,1999.59375,1999.81311,1999.59375,15.89583,15.90729,85.74831,85.74831,99.99407,99.98322,358.36844,358.42819,493.36688,493.36688,502.43094,502.43094,178.38348,178.38351,15.02537,15.02537,0.00000,0.00000,0.00000,0.00000,0.00000,0.00000
19.70644,154.98430,159.61679,168.17690,193.53452,0.24379,-885.49829,1.20026,0.11630,-0.01741,0.00000,0.00000,0.00000,-0.90607,-3.72039,53.57115,54.17329,1.67301,30.29456,-87.49285,2115.38940,2111.20020,0.00000,2112.25024,687.22351,560.43506,-32793.88281,71.62208,-3.68651,-48.39417,0.61350,0.61350,512.24933,512.34375,866.34088,866.31531,1346.55383,1346.95337,1999.63306,1999.40601,1999.63306,1999.40601,15.92550,15.93510,85.74832,85.74832,99.98444,99.97322,358.44501,358.50720,493.80865,493.80865,502.78345,502.78345,178.40135,178.40135,15.02633,15.02633,0.00000,0.00000,0.00000,0.00000,0.00000,0.00000
19.70647,155.25926,159.89503,168.44417,193.84209,0.24421,-859.86469,1.20580,0.11598,-0.01817,0.00000,0.00000,0.00000,-0.73142,-2.70454,53.50844,54.11066,1.67900,30.29461,-87.49276,2114.11938,2110.00562,0.00000,2110.95654,695.68909,560.01764,-32799.61328,71.68546,-3.45611,-48.56303,0.61350,0.61350,512.35175,512.44922,865.15710,865.24188,1346.94617,1347.35852,1999.44910,1999.21545,1999.44910,1999.21545,15.95506,15.96278,85.74832,85.74832,99.97531,99.96373,358.52032,358.58478,494.23975,494.23975,503.11746,503.11746,178.41917,178.41916,15.02718,15.02718,0.00000,0.00000,0.00000,0.00000,0.00000,0.00000
19.70650,155.51041,160.14290,168.68353,194.11754,0.24459,-834.28705,1.21077,0.11570,-0.01887,0.00000,0.00000,0.00000,-0.56732,-1.76848,53.46614,54.06843,1.68351,30.29466,-87.49268,2113.03491,2108.89575,0.00000,2109.81836,703.45770,559.65906,-32804.88281,71.75262,-3.23731,-48.69862,0.61350,0.61350,512.44012,512.54022,864.12463,864.31152,1347.28369,1347.70715,1999.29517,1999.05505,1999.29517,1999.05505,15.98212,15.98807,85.74832,85.74832,99.96752,99.95562,358.58792,358.65439,494.62390,494.62390,503.40668,503.40668,178.43541,178.43538,15.02788,15.02788,0.00000,0.00000,0.00000,0.00000,0.00000,0.00000
19.70654,155.74617,160.37909,168.91306,194.38168,0.24495,-807.36328,1.21541,0.11539,-0.01959,0.00000,0.00000,0.00000,-0.40268,-0.84558,53.43907,54.04142,1.68770,30.29471,-87.49260,2112.04810,2107.93896,0.00000,2108.79370,711.08405,559.33081,-32810.06250,71.82697,-3.01661,-48.81361,0.61350,0.61350,512.52991,512.63226,862.95532,863.24805,1347.62952,1348.06311,1999.13831,1998.89270,1999.13831,1998.89270,16.00704,16.01128,85.74833,85.74833,99.95936,99.94717,358.65149,358.71979,494.99069,494.99069,503.67554,503.67554,178.45123,178.45120,15.02849,15.02849,0.00000,0.00000,0.00000,0.00000,0.00000,0.00000
19.70657,155.97658,160.61330,169.14218,194.64536,0.24531,-778.06372,1.21995,0.11511,-0.02028,0.00000,0.00000,0.00000,-0.23067,0.10289,53.42636,54.02878,1.69209,30.29476,-87.49252,2111.12134,2106.93604,0.00000,2107.84473,718.88324,559.02020,-32815.36719,71.91170,-2.78535,-48.91248,0.61350,0.61350,512.61841,512.72296,861.93225,862.33063,1347.97290,1348.41577,1998.97461,1998.72351,1998.97461,1998.72351,16.03182,16.03432,85.74833,85.74833,99.95116,99.93871,358.71524,358.78531,495.35553,495.35553,503.93594,503.93594,178.46732,178.46727,15.02905,15.02905,0.00000,0.00000,0.00000,0.00000,0.00000,0.00000
19.70660,156.19336,160.83235,169.35800,194.89371,0.24564,-748.11761,1.22405,0.11488,-0.02092,0.00000,0.00000,0.00000,-0.06181,1.02225,53.42848,54.03096,1.69582,30.29480,-87.49245,2110.30615,2106.19141,0.00000,2107.00439,726.41931,558.74445,-32820.49219,72.00204,-2.55684,-48.98963,0.61350,0.61350,512.69757,512.80426,861.18671,861.67212,1348.27991,1348.73218,1998.82214,1998.56616,1998.82214,1998.56616,16.05581,16.05659,85.74833,85.74833,99.94383,99.93111,358.77594,358.84760,495.69833,495.69833,504.17419,504.17419,178.48276,178.48268,15.02953,15.02953,0.00000,0.00000,0.00000,0.00000,0.00000,0.00000
19.70662,156.40489,161.04529,169.56923,195.13678,0.24597,-716.50879,1.22834,0.11460,-0.02161,0.00000,0.00000,0.00000,0.10988,1.94885,53.44497,54.04750,1.69897,30.29485,-87.49236,2109.56836,2105.50952,0.00000,2106.23315,733.98907,558.49225,-32825.64453,72.10117,-2.32293,-49.04882,0.61350,0.61350,512.78082,512.88953,860.12634,860.71332,1348.60510,1349.06592,1998.67078,1998.41003,1998.67078,1998.41003,16.07827,16.07733,85.74834,85.74834,99.93596,99.92300,358.83493,358.90814,496.03336,496.03336,504.40103,504.40103,178.49815,178.49806,15.02997,15.02997,0.00000,0.00000,0.00000,0.00000,0.00000,0.00000
19.70666,156.60783,161.25189,169.77583,195.37456,0.24628,-683.29242,1.23197,0.11435,-0.02224,0.00000,0.00000,0.00000,0.28307,2.88233,53.47603,54.07863,1.70058,30.29490,-87.49229,2108.91040,2104.66260,0.00000,2105.55469,741.59399,558.26422,-32830.81641,72.20928,-2.08419,-49.08965,0.61350,0.61350,512.85876,512.96912,859.35626,860.03845,1348.91125,1349.37964,1998.51648,1998.25159,1998.51648,1998.25159,16.10061,16.09796,85.74834,85.74834,99.92846,99.91528,358.89297,358.96765,496.36078,496.36078,504.61697,504.61697,178.51352,178.51341,15.03036,15.03036,0.00000,0.00000,0.00000,0.00000,0.00000,0.00000
19.70669,156.81134,161.45786,169.98354,195.61357,0.24660,-647.52277,1.23534,0.11403,-0.02292,0.00000,0.00000,0.00000,0.46149,3.85026,53.52338,54.12604,1.69999,30.29494,-87.49220,2108.31958,2103.92700,0.00000,2104.93359,749.45453,558.05566,-32836.15625,72.32997,-1.83445,-49.11215,0.61350,0.61350,512.94037,513.05243,858.34430,859.13165,1349.23438,1349.70984,1998.36084,1998.09155,1998.36084,1998.09155,16.12237,16.11796,85.74834,85.74834,99.92043,99.90704,358.95145,359.02747,496.68979,496.68979,504.82825,504.82825,178.52930,178.52916,15.03073,15.03073,0.00000,0.00000,0.00000,0.00000,0.00000,0.00000
19.70672,157.00221,161.64970,170.17877,195.83824,0.24689,-611.61151,1.23752,0.11373,-0.02352,0.00000,0.00000,0.00000,0.63183,4.78791,53.58372,54.18645,1.69628,30.29499,-87.49213,2107.83325,2103.72388,0.00000,2104.41650,757.05963,557.88000,-32841.31250,72.45548,-1.59108,-49.11456,0.61350,0.61350,513.01270,513.12640,857.60291,858.48578,1349.52112,1350.00391,1998.21643,1997.94324,1998.21643,1997.94324,16.14350,16.13736,85.74834,85.74834,99.91328,99.89969,359.00677,359.08408,496.99915,496.99915,505.02167,505.02167,178.54443,178.54430,15.03104,15.03104,0.00000,0.00000,0.00000,0.00000,0.00000,0.00000
19.70675,157.18709,161.83559,170.36967,196.05794,0.24717,-574.31335,1.23886,0.11336,-0.02414,0.00000,0.00000,0.00000,0.80019,5.73268,53.65877,54.26156,1.68974,30.29504,-87.49204,2107.42993,2103.44507,0.00000,2103.98315,764.71143,557.72943,-32846.49219,72.59035,-1.34601,-49.09792,0.61350,0.61350,513.08636,513.20154,856.73718,857.72144,1349.81543,1350.30481,1998.07092,1997.79419,1998.07092,1997.79419,16.16356,16.15571,85.74834,85.74834,99.90585,99.89206,359.06036,359.13879,497.30182,497.30182,505.20599,505.20599,178.55957,178.55943,15.03133,15.03133,0.00000,0.00000,0.00000,0.00000,0.00000,0.00000
19.70677,157.36267,162.01218,170.55290,196.26878,0.24744,-536.45239,1.23925,0.11298,-0.02471,0.00000,0.00000,0.00000,0.96280,6.66645,53.74684,54.34969,1.68064,30.29508,-87.49197,2107.11475,2103.03882,0.00000,2103.64062,772.26904,557.60620,-32851.59375,72.73196,-1.10496,-49.06270,0.61350,0.61350,513.15546,513.27203,855.99078,857.06873,1350.09351,1350.58875,1997.92883,1997.64856,1997.92883,1997.64856,16.18293,16.17336,85.74834,85.74834,99.89873,99.88477,359.11166,359.19119,497.59244,497.59244,505.37836,505.37836,178.57442,178.57428,15.03158,15.03158,0.00000,0.00000,0.00000,0.00000,0.00000,0.00000
