"Time_Hours","Vel_Indicated_kts","Vel_True_kts","Vel_Ground_kts","Vel_Groupn_mph","Vel_Mach","Vel_Vertical_fpm","GLoad_normal","GLoad_axial","GLoad_side","Flaps_Handle","Flaps_Position","Gear","Pitch_deg","Roll_deg","Heading_True","Heading_Mag","AngleOfAttack","Latitude","Longitude","Altitude_FtMsl","Altitude_FtAgl","RunwayThreshold","Altitude_Indicated","X","Y","Z","vX","vY","vZ","Eng1_Throttle","Eng2_Throttle","Eng1_Power_hp","Eng2_Power_hp","Eng1_Thrust_lb","Eng2_Thrust_lb","Eng1_Torque_lb","Eng2_Torque_lb","Eng1_EngineRPM","Eng2_EngineRPM","Eng1_PropRPM","Eng2_PropRPM","Eng1_PropPitch_deg","Eng2_PropPitch_deg","Eng1_N1","Eng2_N1","Eng1_N2","Eng2_N2","Eng1_FuelFlow","Eng2_FuelFlow","Eng1_ITT","Eng2_ITT","Eng1_EGT","Eng2_EGT","Eng1_CHT","Eng2_CHT","Eng1_OilPress_psi","Eng2_OilPress_psi","MasterCaution","MasterWarn","MasterAccept","FuelQuantity","HydPress","AutoThrottle"
19.70410,141.08636,145.30734,155.03130,178.40683,0.22198,903.41791,0.89415,0.08599,0.00405,0.00000,0.00000,0.00000,4.29502,-0.60392,67.56291,68.16013,0.95779,30.29182,-87.49923,2171.76172,2139.25146,0.00000,2167.73682,73.85598,579.21802,-32488.28516,74.26273,4.34983,-28.75731,0.03091,0.03091,324.28815,324.28946,693.07245,692.96759,856.28223,856.28680,1986.92871,1986.92871,1986.92871,1986.92871,15.27736,15.27715,81.12061,81.12061,99.53801,99.53788,326.07208,326.07083,494.08908,494.08908,499.48932,499.48932,178.39233,178.39233,15.04667,15.04667,0.00000,0.00000,0.00000,0.00000,0.00000,0.00000
19.70413,141.08821,145.27501,155.00151,178.37256,0.22193,900.76721,0.78582,0.03878,0.00092,0.00000,0.00000,0.00000,3.92164,-0.71161,67.56850,68.16576,0.71652,30.29184,-87.49916,2173.15015,2140.74561,0.00000,2169.11450,81.01643,579.62695,-32491.05859,74.25616,4.17689,-28.75743,0.06305,0.06305,186.13698,186.13737,458.38019,458.40637,494.56445,494.56567,1974.24329,1974.24182,1974.24329,1974.24182,14.30401,14.30394,76.72397,76.72397,98.92010,98.92007,289.06723,289.06656,488.03064,488.03064,487.21570,487.21570,178.35741,178.35741,15.00413,15.00413,0.00000,0.00000,0.00000,0.00000,0.00000,0.00000
19.70415,141.00639,145.16658,154.89532,178.25037,0.22176,894.55676,0.76343,-0.00353,0.00019,0.00000,0.00000,0.00000,3.73697,-0.82197,67.57184,68.16917,0.70116,30.29187,-87.49908,2174.51001,2142.42041,0.00000,2170.47485,88.38997,580.02686,-32493.91406,74.21465,3.94861,-28.74545,0.09616,0.09616,85.94130,85.94241,242.88484,242.87054,229.66042,229.66360,1963.55188,1963.55054,1963.55188,1963.55054,13.34644,13.34627,72.66481,72.66481,98.35367,98.35358,248.63797,248.63768,482.55521,482.55521,476.39755,476.39755,178.31360,178.31360,14.93394,14.93394,0.00000,0.00000,0.00000,0.00000,0.00000,0.00000
19.70418,140.90613,145.04585,154.77518,178.11209,0.22158,887.61865,0.77932,-0.02914,-0.00010,0.00000,0.00000,0.00000,3.71084,-0.91846,67.57141,68.16878,0.78867,30.29189,-87.49902,2175.46289,2144.20874,0.00000,2171.41870,93.81370,580.30652,-32496.01562,74.16305,3.78463,-28.72938,0.12053,0.12053,31.02913,31.02963,108.28934,108.17372,83.21130,83.21266,1957.10864,1957.11035,1957.10864,1957.11035,12.71701,12.71692,69.94794,69.94794,98.00815,98.00811,221.15054,221.15047,478.99210,478.99210,469.52783,469.52783,178.27512,178.27512,14.86825,14.86825,0.00000,0.00000,0.00000,0.00000,0.00000,0.00000
19.70421,140.67224,144.78879,154.51888,177.81715,0.22119,872.67523,0.82502,-0.05644,-0.00031,0.00000,0.00000,0.00000,3.75504,-1.11229,67.56523,68.16267,0.98990,30.29192,-87.49893,2176.94580,2146.60474,0.00000,2172.89136,102.68541,580.74084,-32499.45312,74.04682,3.55488,-28.69337,0.16045,0.16045,-10.25297,-10.25767,-41.43383,-41.60099,-27.60487,-27.61740,1950.91626,1950.92749,1950.91626,1950.92749,11.90967,11.91025,67.48561,67.48561,97.62004,97.62043,184.35503,184.35495,473.97372,473.97372,460.15036,460.15036,178.19223,178.19223,14.74342,14.74342,0.00000,0.00000,0.00000,0.00000,0.00000,0.00000
19.70425,140.30124,144.42955,154.16035,177.40457,0.22064,850.38538,0.86835,-0.06640,0.00058,0.00000,0.00000,0.00000,3.79182,-1.43853,67.55142,68.14895,1.17147,30.29196,-87.49882,2178.65308,2149.65674,0.00000,2174.70923,113.48692,581.23969,-32503.63867,73.87799,3.33820,-28.64419,0.20914,0.20914,-20.37064,-20.38368,-105.02881,-105.22203,-54.95151,-54.98607,1948.34204,1948.36621,1948.34204,1948.36621,11.31619,11.31792,66.75301,66.75301,97.43160,97.43268,160.57990,160.57986,469.06091,469.06091,451.44641,451.44641,178.06010,178.06010,14.59030,14.59030,0.00000,0.00000,0.00000,0.00000,0.00000,0.00000
19.70427,140.06172,144.19102,153.92210,177.13040,0.22028,834.56946,0.87580,-0.06697,0.00090,0.00000,0.00000,0.00000,3.76356,-1.69837,67.54100,68.13858,1.22456,30.29198,-87.49875,2179.70947,2151.70947,0.00000,2175.79028,120.46922,581.54779,-32506.34766,73.76332,3.21582,-28.61460,0.24068,0.24068,-15.36875,-15.38588,-113.27786,-113.45215,-41.46812,-41.51375,1948.28906,1948.31921,1948.28906,1948.31921,11.07406,11.07643,67.03619,67.03619,97.40897,97.41039,152.87186,152.87184,466.47699,466.47699,447.14075,447.14075,177.97337,177.97337,14.50098,14.50098,0.00000,0.00000,0.00000,0.00000,0.00000,0.00000
19.70430,139.82826,143.95277,153.68405,176.85646,0.21991,817.73608,0.87232,-0.06470,0.00139,0.00000,0.00000,0.00000,3.69248,-2.00301,67.53046,68.12811,1.23738,30.29201,-87.49867,2180.74414,2153.29858,0.00000,2176.82202,127.55226,581.84894,-32509.09570,73.64731,3.09129,-28.58853,0.27272,0.27272,-3.77188,-3.79160,-104.64709,-104.79898,-10.17403,-10.22703,1949.28259,1949.31653,1949.28259,1949.31653,10.91153,10.91440,67.73315,67.73315,97.44064,97.44228,148.20131,148.20131,464.26331,464.26331,443.66455,443.66455,177.88858,177.88857,14.42180,14.42180,0.00000,0.00000,0.00000,0.00000,0.00000,0.00000
19.70432,139.58791,143.71053,153.44202,176.57793,0.21955,798.95874,0.86200,-0.05893,0.00192,0.00000,0.00000,0.00000,3.58112,-2.37309,67.51978,68.11747,1.22287,30.29203,-87.49860,2181.80200,2155.61475,0.00000,2177.88843,135.09456,582.15631,-32512.02539,73.52782,2.95045,-28.56689,0.30689,0.30689,14.71091,14.68981,-76.57488,-76.71971,39.64467,39.58709,1951.31287,1951.34888,1951.31287,1951.34888,10.82562,10.82886,68.81091,68.81091,97.52805,97.52983,145.84476,145.84253,462.32031,462.32031,440.85117,440.85117,177.81435,177.81432,14.35192,14.35192,0.00000,0.00000,0.00000,0.00000,0.00000,0.00000
19.70436,139.35645,143.47992,153.21158,176.31274,0.21919,778.52838,0.84861,-0.05010,0.00284,0.00000,0.00000,0.00000,3.44162,-2.79938,67.50901,68.10677,1.19440,30.29206,-87.49851,2182.84326,2157.62866,0.00000,2178.94653,142.88341,582.45813,-32515.05469,73.41213,2.79231,-28.55298,0.34224,0.34224,39.80476,39.78321,-31.35756,-31.51949,107.12111,107.06110,1954.26147,1954.29907,1954.26147,1954.29907,10.81763,10.82116,70.18216,70.18216,97.66405,97.66589,147.55663,147.55208,460.73468,460.73468,438.82779,438.82779,177.75403,177.75400,14.29643,14.29643,0.00000,0.00000,0.00000,0.00000,0.00000,0.00000
19.70438,139.16466,143.29581,153.02763,176.10107,0.21891,759.18488,0.83677,-0.04026,0.00388,0.00000,0.00000,0.00000,3.30557,-3.21877,67.49883,68.09664,1.16754,30.29208,-87.49844,2183.72876,2159.47534,0.00000,2179.87305,149.85863,582.71405,-32517.76953,73.31773,2.63938,-28.54902,0.37394,0.37394,66.81294,66.79064,19.54978,19.34139,179.53090,179.46739,1957.35242,1957.39221,1957.35242,1957.39221,10.86500,10.86886,71.54608,71.54608,97.81292,97.81487,152.06766,152.06186,459.66348,459.66348,437.72861,437.72861,177.70851,177.70848,14.26147,14.26147,0.00000,0.00000,0.00000,0.00000,0.00000,0.00000
19.70441,138.98941,143.12065,152.85246,175.89948,0.21865,736.62036,0.82646,-0.02717,0.00508,0.00000,0.00000,0.00000,3.15101,-3.72578,67.48557,68.08344,1.14264,30.29211,-87.49836,2184.64819,2161.13745,0.00000,2180.78101,157.55235,582.97876,-32520.76758,73.22498,2.45997,-28.55475,0.40895,0.40895,102.07888,102.05509,87.35646,87.08452,273.73767,273.66800,1961.68457,1961.72864,1961.68457,1961.72864,10.98673,10.99107,73.18181,73.18181,98.01129,98.01340,159.62064,159.61389,458.83899,458.83899,437.22729,437.22729,177.66644,177.66641,14.23796,14.23796,0.00000,0.00000,0.00000,0.00000,0.00000,0.00000
19.70444,138.84662,142.98965,152.72134,175.74860,0.21845,714.22931,0.81941,-0.01214,0.00640,0.00000,0.00000,0.00000,3.00588,-4.23952,67.46992,68.06785,1.12558,30.29214,-87.49828,2185.45264,2162.88843,0.00000,2181.62671,164.75703,583.20947,-32523.58008,73.15168,2.28451,-28.57150,0.44177,0.44177,139.35802,139.33215,165.19411,164.85574,372.88489,372.80673,1965.99951,1966.04858,1965.99951,1966.04858,11.16712,11.17204,74.76353,74.76353,98.22724,98.22960,168.87297,168.86545,458.40222,458.40222,437.40857,437.40857,177.63472,177.63469,14.22992,14.22992,0.00000,0.00000,0.00000,0.00000,0.00000,0.00000
19.70446,138.74294,142.89410,152.62547,175.63826,0.21830,691.03931,0.81505,0.00363,0.00764,0.00000,0.00000,0.00000,2.86306,-4.77997,67.45025,68.04823,1.11283,30.29216,-87.49821,2186.18823,2164.38452,0.00000,2182.37793,171.83949,583.41937,-32526.34961,73.09306,2.10752,-28.59955,0.47406,0.47406,180.17723,180.14778,246.95514,246.49709,480.99878,480.90680,1970.72009,1970.77820,1970.72009,1970.77820,11.38669,11.39244,76.34573,76.34573,98.45340,98.45615,179.74510,179.73677,458.27713,458.27713,438.16193,438.16193,177.61052,177.61052,14.23400,14.23400,0.00000,0.00000,0.00000,0.00000,0.00000,0.00000
19.70449,138.67377,142.83701,152.56781,175.57190,0.21822,667.79755,0.81234,0.02106,0.00890,0.00000,0.00000,0.00000,2.72528,-5.32809,67.42658,68.02463,1.10203,30.29218,-87.49814,2186.83960,2166.12378,0.00000,2183.06396,178.61447,583.60419,-32529.00391,73.05079,1.93564,-28.63823,0.50497,0.50497,222.56744,222.53297,337.30121,336.85147,592.70544,592.59381,1975.47278,1975.54150,1975.47278,1975.54150,11.65739,11.66426,77.85834,77.85834,98.69554,98.69884,191.65718,191.64786,458.43604,458.43604,439.39645,439.39645,177.59386,177.59387,14.24803,14.24803,0.00000,0.00000,0.00000,0.00000,0.00000,0.00000
19.70451,138.64665,142.81718,152.54742,175.54846,0.21819,650.93274,0.81123,0.03194,0.00959,0.00000,0.00000,0.00000,2.62737,-5.73033,67.40668,68.00476,1.09411,30.29220,-87.49809,2187.26465,2167.12695,0.00000,2183.46924,183.36314,583.72412,-32530.86719,73.02921,1.81423,-28.67248,0.52664,0.52664,254.80159,254.76457,394.05087,393.46179,677.46857,677.34528,1979.13379,1979.21094,1979.13379,1979.21094,11.84113,11.84871,78.92280,78.92280,98.85253,98.85616,200.79575,200.78551,458.70352,458.70352,440.54349,440.54349,177.58586,177.58591,14.26311,14.26311,0.00000,0.00000,0.00000,0.00000,0.00000,0.00000
19.70453,138.63824,142.82449,152.55353,175.55547,0.21820,622.59802,0.80985,0.05403,0.01092,0.00000,0.00000,0.00000,2.46497,-6.41605,67.36798,67.96612,1.07913,30.29223,-87.49801,2187.89917,2168.64526,0.00000,2184.12207,191.07657,583.90179,-32533.90234,73.00999,1.61597,-28.74178,0.56185,0.56185,310.58896,310.54666,509.12756,508.47171,823.25525,823.10754,1985.27295,1985.36194,1985.27295,1985.36194,12.24031,12.24933,80.64360,80.64360,99.15767,99.16196,217.08850,217.07672,459.41309,459.41309,442.89386,442.89386,177.57947,177.57953,14.29602,14.29602,0.00000,0.00000,0.00000,0.00000,0.00000,0.00000
19.70457,138.67938,142.88773,152.61504,175.62627,0.21829,591.53577,0.80903,0.07854,0.01224,0.00000,0.00000,0.00000,2.28923,-7.17965,67.31791,67.91611,1.06009,30.29226,-87.49792,2188.49341,2170.46191,0.00000,2184.74023,199.21425,584.06635,-32537.11133,73.01186,1.40588,-28.83435,0.59901,0.59901,374.01987,373.97513,637.31805,636.49072,988.08624,987.92090,1991.85510,1991.95398,1991.85510,1991.95398,12.71075,12.72096,82.42479,82.42479,99.48890,99.49364,236.10471,236.09140,460.52222,460.52222,445.99683,445.99683,177.58162,177.58168,14.34079,14.34079,0.00000,0.00000,0.00000,0.00000,0.00000,0.00000
19.70459,138.77283,142.99797,152.72328,175.75081,0.21846,561.92212,0.80893,0.10122,0.01339,0.00000,0.00000,0.00000,2.12425,-7.91411,67.26295,67.86121,1.04022,30.29228,-87.49785,2188.97412,2171.76587,0.00000,2185.25586,206.71561,584.19745,-32540.08008,73.03406,1.21169,-28.93844,0.62353,0.62353,432.57700,432.52805,756.46088,755.41040,1139.33936,1139.14880,1997.53918,1997.65198,1997.53918,1997.65198,13.16972,13.18145,83.93454,83.93454,99.78956,99.79497,255.76610,255.74881,461.87100,461.87100,449.40594,449.40594,177.59183,177.59190,14.38994,14.38994,0.00000,0.00000,0.00000,0.00000,0.00000,0.00000
19.70461,138.85689,143.09671,152.82040,175.86258,0.21861,541.79053,0.80933,0.11382,0.01404,0.00000,0.00000,0.00000,2.01337,-8.41695,67.22145,67.81975,1.02579,30.29230,-87.49780,2189.25708,2172.65967,0.00000,2185.54688,211.69754,584.27350,-32542.05859,73.05854,1.08268,-29.01733,0.62353,0.62353,460.99545,460.94345,823.04303,821.93311,1212.17896,1211.97119,2000.54956,2000.67078,2000.54956,2000.67078,13.43872,13.45152,84.63142,84.63142,99.95504,99.96090,272.26886,272.24606,462.80978,462.80978,451.69687,451.69687,177.60199,177.60210,14.42540,14.42540,0.00000,0.00000,0.00000,0.00000,0.00000,0.00000
19.70463,138.97075,143.22791,152.94949,176.01114,0.21881,518.57861,0.80988,0.12465,0.01472,0.00000,0.00000,0.00000,1.88650,-9.00151,67.16927,67.76762,1.00824,30.29232,-87.49774,2189.54224,2173.66528,0.00000,2185.83447,217.34398,584.34863,-32544.30664,73.09311,0.93648,-29.11521,0.62353,0.62353,483.74158,483.68680,880.87482,879.65796,1270.19092,1269.96765,2003.02368,2003.15283,2003.02368,2003.15283,13.68578,13.69967,85.17371,85.17371,100.09657,100.10283,291.56317,291.53540,463.82590,463.82590,454.14432,454.14432,177.61540,177.61551,14.46634,14.46634,0.00000,0.00000,0.00000,0.00000,0.00000,0.00000
19.70466,139.18422,143.45567,153.17354,176.26897,0.21916,482.43250,0.81062,0.13447,0.01567,0.00000,0.00000,0.00000,1.69315,-9.91373,67.07919,67.67760,0.98188,30.29235,-87.49765,2189.90479,2175.14575,0.00000,2186.22852,225.95148,584.44135,-32547.74609,73.15395,0.71299,-29.27999,0.62353,0.62353,504.58755,504.52850,934.71283,933.30432,1323.16553,1322.92041,2005.08667,2005.22742,2005.08667,2005.22742,13.95389,13.96944,85.65858,85.65858,100.22987,100.23672,317.22021,317.18686,465.29681,465.29681,457.61581,457.61581,177.63831,177.63844,14.52747,14.52747,0.00000,0.00000,0.00000,0.00000,0.00000,0.00000
19.70469,139.33318,143.61526,153.33032,176.44940,0.21941,458.47174,0.81158,0.13757,0.01609,0.00000,0.00000,0.00000,1.56905,-10.51553,67.01361,67.61207,0.96652,30.29237,-87.49759,2190.09448,2175.90845,0.00000,2186.43359,231.54790,584.48749,-32549.99023,73.19550,0.56724,-29.39630,0.62353,0.62353,512.43628,512.37421,952.80542,951.31372,1343.16040,1342.90100,2005.78333,2005.93091,2005.78333,2005.93091,14.06941,14.08606,85.83688,85.83688,100.27364,100.28087,330.24692,330.21060,466.21274,466.21274,459.72971,459.72971,177.65414,177.65430,14.56525,14.56525,0.00000,0.00000,0.00000,0.00000,0.00000,0.00000
19.70472,139.57491,143.86497,153.57523,176.73122,0.21979,422.01291,0.81352,0.13990,0.01670,0.00000,0.00000,0.00000,1.38648,-11.42570,66.90496,67.50348,0.94657,30.29240,-87.49751,2190.31006,2177.07446,0.00000,2186.67944,239.92041,584.53571,-32553.36523,73.25753,0.34890,-29.58291,0.62353,0.62353,519.33795,519.27191,967.74042,966.10498,1360.77039,1360.49268,2006.29517,2006.45276,2006.29517,2006.45276,14.20106,14.21931,85.99174,85.99174,100.30903,100.31675,344.59232,344.55222,467.53668,467.53668,462.71591,462.71591,177.67856,177.67874,14.61796,14.61796,0.00000,0.00000,0.00000,0.00000,0.00000,0.00000
19.70475,139.81805,144.11946,153.82430,177.01784,0.22018,385.51840,0.81605,0.14062,0.01715,0.00000,0.00000,0.00000,1.21064,-12.32866,66.78590,67.38449,0.93022,30.29243,-87.49742,2190.44287,2178.40674,0.00000,2186.83740,248.15164,584.55884,-32556.70312,73.31635,0.13420,-29.78075,0.62353,0.62353,522.90619,522.83655,974.16217,972.39886,1369.96130,1369.66711,2006.42700,2006.59363,2006.42700,2006.59363,14.29773,14.31759,86.07008,86.07008,100.32065,100.32883,353.85968,353.81635,468.79199,468.79199,465.46863,465.46863,177.70302,177.70320,14.66502,14.66502,0.00000,0.00000,0.00000,0.00000,0.00000,0.00000
19.70478,140.05986,144.36810,154.06705,177.29721,0.22056,350.21411,0.81870,0.14058,0.01755,0.00000,0.00000,0.00000,1.04571,-13.19434,66.66154,67.26019,0.91675,30.29246,-87.49734,2190.49683,2179.41211,0.00000,2186.91724,255.99332,584.55859,-32559.90039,73.36916,-0.07033,-29.98234,0.62353,0.62353,524.73889,524.66534,976.38019,974.50659,1374.75830,1374.44739,2006.37329,2006.54871,2006.37329,2006.54871,14.37401,14.39545,86.10912,86.10912,100.32096,100.32961,359.51944,359.47321,469.95016,469.95016,467.93884,467.93884,177.72647,177.72667,14.70551,14.70551,0.00000,0.00000,0.00000,0.00000,0.00000,0.00000
19.70481,140.30588,144.61316,154.30576,177.57191,0.22093,315.65112,0.82125,0.14003,0.01798,0.00000,0.00000,0.00000,0.88782,-14.03524,66.53148,67.13019,0.90477,30.29249,-87.49726,2190.48120,2180.47412,0.00000,2186.92432,263.57169,584.53772,-32563.00977,73.41661,-0.26810,-30.18926,0.62353,0.62353,525.75696,525.68030,975.78510,973.79602,1377.51746,1377.19250,2006.23181,2006.41516,2006.23181,2006.41516,14.43668,14.45965,86.12946,86.12946,100.31427,100.32331,363.02155,362.97272,471.03741,471.03741,470.19669,470.19669,177.74918,177.74937,14.74085,14.74085,0.00000,0.00000,0.00000,0.00000,0.00000,0.00000
19.70484,140.54500,144.85947,154.54517,177.84741,0.22131,281.12726,0.82485,0.13950,0.01872,0.00000,0.00000,0.00000,0.73254,-14.86192,66.39376,66.99253,0.89295,30.29252,-87.49718,2190.40088,2181.07397,0.00000,2186.86475,271.05679,584.49713,-32566.10156,73.45976,-0.46322,-30.40524,0.62353,0.62353,526.36646,526.28705,974.82935,972.74054,1379.25110,1378.91394,2006.01904,2006.20923,2006.01904,2006.20923,14.49267,14.51712,86.14049,86.14049,100.30433,100.31371,365.23920,365.18793,472.08224,472.08224,472.31073,472.31073,177.77159,177.77179,14.77238,14.77238,0.00000,0.00000,0.00000,0.00000,0.00000,0.00000
19.70486,140.77542,145.09750,154.77600,178.11305,0.22167,247.97507,0.82799,0.13897,0.01898,0.00000,0.00000,0.00000,0.58476,-15.61180,66.25435,66.85317,0.88089,30.29254,-87.49711,2190.26514,2181.81714,0.00000,2186.74854,278.17657,584.44031,-32569.06055,73.49720,-0.64819,-30.62136,0.62353,0.62353,526.73999,526.65790,974.00537,971.83472,1380.37866,1380.03003,2005.78101,2005.97705,2005.78101,2005.97705,14.54282,14.56866,86.14633,86.14633,100.29352,100.30322,366.60284,366.54944,473.05032,473.05032,474.22037,474.22037,177.79286,177.79306,14.79950,14.79950,0.00000,0.00000,0.00000,0.00000,0.00000,0.00000
19.70490,141.07809,145.40004,155.06868,178.44986,0.22213,206.14105,0.83101,0.13804,0.01894,0.00000,0.00000,0.00000,0.39955,-16.48605,66.06834,66.66724,0.86568,30.29258,-87.49702,2190.01367,2182.96899,0.00000,2186.51367,287.07913,584.34430,-32572.79102,73.53900,-0.88002,-30.90578,0.62353,0.62353,527.07269,526.98767,971.75232,969.45465,1381.47522,1381.11340,2005.46497,2005.66809,2005.46497,2005.66809,14.59962,14.62721,86.15024,86.15024,100.27721,100.28728,367.67249,367.61670,474.22693,474.22693,476.47772,476.47772,177.81935,177.81958,14.82987,14.82987,0.00000,0.00000,0.00000,0.00000,0.00000,0.00000
19.70492,141.29573,145.63292,155.29350,178.70859,0.22249,174.18701,0.83325,0.13751,0.01882,0.00000,0.00000,0.00000,0.25884,-17.10240,65.91869,66.51763,0.85434,30.29260,-87.49694,2189.76245,2183.50781,0.00000,2186.28809,293.82370,584.25281,-32575.63867,73.56718,-1.05621,-31.13113,0.62353,0.62353,527.26184,527.17487,970.80176,968.43396,1382.14355,1381.77344,2005.18970,2005.39734,2005.18970,2005.39734,14.64104,14.66993,86.15183,86.15183,100.26469,100.27500,368.19363,368.13617,475.09433,475.09433,478.09760,478.09760,177.83934,177.83958,14.85053,14.85053,0.00000,0.00000,0.00000,0.00000,0.00000,0.00000
19.70494,141.46996,145.83244,155.48579,178.92987,0.22279,147.00584,0.83492,0.13706,0.01867,0.00000,0.00000,0.00000,0.13886,-17.59336,65.78619,66.38519,0.84432,30.29262,-87.49689,2189.50684,2183.87524,0.00000,2186.07495,299.52777,584.16223,-32578.06250,73.58890,-1.20552,-31.32779,0.62353,0.62353,527.41071,527.32269,969.90021,967.47620,1382.70020,1382.32544,2004.91321,2005.12341,2004.91321,2005.12341,14.67282,14.70272,86.15267,86.15267,100.25262,100.26306,368.51474,368.45599,475.81293,475.81293,479.41251,479.41251,177.85620,177.85645,14.86663,14.86663,0.00000,0.00000,0.00000,0.00000,0.00000,0.00000
19.70497,141.67235,146.04170,155.68719,179.16164,0.22311,118.63840,0.83616,0.13637,0.01843,0.00000,0.00000,0.00000,0.01398,-18.07613,65.64326,66.24229,0.83441,30.29265,-87.49683,2189.20117,2184.42847,0.00000,2185.79077,305.44836,584.05591,-32580.59570,73.60925,-1.36134,-31.53758,0.62353,0.62353,527.55487,527.46582,967.88544,965.39374,1383.25720,1382.87756,2004.67322,2004.88635,2004.67322,2004.88635,14.70407,14.73504,86.15322,86.15322,100.23965,100.25023,368.76904,368.70920,476.54407,476.54407,480.72406,480.72406,177.87366,177.87390,14.88205,14.88205,0.00000,0.00000,0.00000,0.00000,0.00000,0.00000
19.70500,141.98132,146.35072,155.98399,179.50319,0.22358,77.04501,0.83839,0.13546,0.01798,0.00000,0.00000,0.00000,-0.16612,-18.73368,65.42524,66.02435,0.82313,30.29268,-87.49673,2188.68359,2184.28003,0.00000,2185.28735,314.06946,583.87866,-32584.31250,73.63509,-1.58960,-31.85316,0.62353,0.62353,527.73553,527.64484,965.31586,962.73907,1383.96753,1383.58093,2004.35437,2004.57092,2004.35437,2004.57092,14.75045,14.78296,86.15367,86.15367,100.22249,100.23328,369.04150,368.98022,477.58212,477.58212,482.53998,482.53998,177.89896,177.89922,14.90235,14.90235,0.00000,0.00000,0.00000,0.00000,0.00000,0.00000
19.70502,142.18207,146.56902,156.19241,179.74304,0.22392,48.02795,0.84448,0.13516,0.01790,0.00000,0.00000,0.00000,-0.28936,-19.15916,65.26736,65.86651,0.83201,30.29270,-87.49667,2188.27368,2183.76147,0.00000,2184.91650,320.04483,583.74017,-32586.91016,73.65029,-1.74593,-32.07932,0.62353,0.62353,527.84717,527.75598,964.48175,961.86389,1384.41357,1384.02441,2004.10681,2004.32422,2004.10681,2004.32422,14.78269,14.81618,86.15385,86.15385,100.21140,100.22227,369.18469,369.12259,478.28384,478.28384,483.73721,483.73721,177.91643,177.91670,14.91507,14.91507,0.00000,0.00000,0.00000,0.00000,0.00000,0.00000
19.70505,142.49721,146.88971,156.49780,180.09447,0.22441,5.83119,0.85167,0.13448,0.01768,0.00000,0.00000,0.00000,-0.46722,-19.73455,65.02985,65.62907,0.84028,30.29274,-87.49658,2187.60864,2182.01050,0.00000,2184.26904,328.69800,583.51764,-32590.70508,73.66819,-1.96848,-32.41745,0.62353,0.62353,528.00916,527.91760,962.20117,959.50555,1385.06543,1384.67444,2003.79285,2004.01147,2003.79285,2004.01147,14.82709,14.86197,86.15399,86.15399,100.19498,100.20590,369.35452,369.29153,479.27472,479.27472,485.38544,485.38544,177.94162,177.94189,14.93171,14.93171,0.00000,0.00000,0.00000,0.00000,0.00000,0.00000
19.70509,142.81348,147.22005,156.81158,180.45557,0.22491,-37.00288,0.85774,0.13388,0.01733,0.00000,0.00000,0.00000,-0.64548,-20.27096,64.77866,65.37795,0.84578,30.29277,-87.49649,2186.84912,2181.16992,0.00000,2183.54761,337.45993,583.26587,-32594.58789,73.68176,-2.19048,-32.77173,0.62353,0.62353,528.16400,528.07233,960.37561,957.62671,1385.69128,1385.29932,2003.46765,2003.68640,2003.46765,2003.68640,14.87130,14.90753,86.15406,86.15406,100.17910,100.19006,369.49728,369.43378,480.24857,480.24857,486.95767,486.95767,177.96700,177.96729,14.94664,14.94664,0.00000,0.00000,0.00000,0.00000,0.00000,0.00000
19.70512,143.14807,147.56363,157.13716,180.83022,0.22544,-80.85465,0.86455,0.13319,0.01718,0.00000,0.00000,0.00000,-0.82305,-20.77057,64.51031,65.10967,0.85200,30.29281,-87.49640,2185.98413,2179.34839,0.00000,2182.70874,346.42429,582.98120,-32598.60547,73.69099,-2.41439,-33.14582,0.62353,0.62353,528.32300,528.23206,958.00879,955.20355,1386.33447,1385.94519,2003.15515,2003.37244,2003.15515,2003.37244,14.91440,14.95187,86.15410,86.15410,100.16277,100.17365,369.62640,369.56265,481.21530,481.21530,488.47171,488.47171,177.99281,177.99313,14.96017,14.96017,0.00000,0.00000,0.00000,0.00000,0.00000,0.00000
19.70515,143.47104,147.88641,157.44278,181.18193,0.22593,-121.44039,0.86866,0.13255,0.01651,0.00000,0.00000,0.00000,-0.98021,-21.14520,64.25095,64.85038,0.85688,30.29284,-87.49631,2185.10547,2178.52124,0.00000,2181.83130,354.73187,582.69366,-32602.36914,73.69546,-2.61882,-33.50229,0.62353,0.62353,528.46307,528.37311,956.08698,953.24084,1386.89758,1386.51233,2002.88269,2003.09729,2002.88269,2003.09729,14.95420,14.99272,86.15412,86.15412,100.14864,100.15942,369.73666,369.67303,482.08490,482.08490,489.79321,489.79321,178.01663,178.01695,14.97126,14.97126,0.00000,0.00000,0.00000,0.00000,0.00000,0.00000
19.70517,143.67963,148.10556,157.65019,181.42061,0.22626,-148.65382,0.87120,0.13223,0.01576,0.00000,0.00000,0.00000,-1.07997,-21.33827,64.07055,64.67002,0.86448,30.29287,-87.49625,2184.47314,2177.64819,0.00000,2181.22852,360.31137,582.48761,-32604.91992,73.69656,-2.75596,-33.74611,0.62353,0.62353,528.55481,528.46582,955.13409,952.27515,1387.26709,1386.88574,2002.68628,2002.89832,2002.68628,2002.89832,14.98034,15.01951,86.15412,86.15412,100.13934,100.15001,369.80688,369.74356,482.65530,482.65530,490.63959,490.63959,178.03255,178.03287,14.97803,14.97803,0.00000,0.00000,0.00000,0.00000,0.00000,0.00000
19.70520,143.90594,148.35254,157.88368,181.68930,0.22664,-178.99165,0.87536,0.13191,0.01486,0.00000,0.00000,0.00000,-1.18522,-21.49699,63.86336,64.46288,0.87842,30.29289,-87.49619,2183.72656,2176.99463,0.00000,2180.54590,366.54083,582.24506,-32607.78906,73.69601,-2.90745,-34.02234,0.62353,0.62353,528.66046,528.57312,954.02954,951.16156,1387.69360,1387.31885,2002.45361,2002.66138,2002.45361,2002.66138,15.00807,15.04786,86.15413,86.15413,100.12858,100.13907,369.88303,369.82022,483.27991,483.27991,491.54825,491.54825,178.05026,178.05058,14.98502,14.98502,0.00000,0.00000,0.00000,0.00000,0.00000,0.00000
19.70523,144.25778,148.69426,158.20607,182.06030,0.22716,-220.41339,0.88408,0.13127,0.01328,0.00000,0.00000,0.00000,-1.31918,-21.63086,63.57102,64.17062,0.90407,30.29293,-87.49610,2182.63892,2176.21460,0.00000,2179.41870,375.07474,581.89264,-32611.75781,73.69186,-3.10976,-34.40762,0.62353,0.62353,528.80481,528.71997,951.20837,948.32495,1388.27039,1387.90637,2002.21460,2002.41638,2002.21460,2002.41638,15.04530,15.08584,86.15413,86.15413,100.11431,100.12450,369.98761,369.92584,484.11401,484.11401,492.73083,492.73083,178.07440,178.07472,14.99364,14.99364,0.00000,0.00000,0.00000,0.00000,0.00000,0.00000
19.70526,144.56929,149.00757,158.50122,182.39996,0.22764,-257.75583,0.89315,0.13094,0.01195,0.00000,0.00000,0.00000,-1.43149,-21.67532,63.29898,63.89865,0.93131,30.29296,-87.49602,2181.58838,2175.10107,0.00000,2178.36597,382.81842,581.55347,-32615.39844,73.68501,-3.28614,-34.76357,0.62353,0.62353,528.91974,528.83807,949.59949,946.73743,1388.72485,1388.37390,2001.99658,2002.19055,2001.99658,2002.19055,15.08078,15.12182,86.15413,86.15413,100.10329,100.11313,370.07773,370.01736,484.85004,484.85004,493.74503,493.74503,178.09619,178.09651,15.00062,15.00062,0.00000,0.00000,0.00000,0.00000,0.00000,0.00000
19.70528,144.86761,149.30951,158.78528,182.72684,0.22810,-293.09927,0.90228,0.13061,0.01063,0.00000,0.00000,0.00000,-1.53183,-21.65224,63.03489,63.63461,0.95846,30.29299,-87.49594,2180.53076,2173.87183,0.00000,2177.31030,390.21625,581.21265,-32618.91211,73.67591,-3.44717,-35.10859,0.62353,0.62353,529.03021,528.95203,947.89673,945.06750,1389.16052,1388.82495,2001.79260,2001.97754,2001.79260,2001.97754,15.11363,15.15498,86.15413,86.15413,100.09279,100.10220,370.15994,370.10132,485.53531,485.53531,494.66495,494.66495,178.11691,178.11723,15.00662,15.00662,0.00000,0.00000,0.00000,0.00000,0.00000,0.00000
19.70531,145.15103,149.60182,159.05998,183.04297,0.22854,-326.65625,0.91092,0.13036,0.00941,0.00000,0.00000,0.00000,-1.62245,-21.57325,62.77864,63.37841,0.98440,30.29302,-87.49586,2179.46655,2172.69336,0.00000,2176.26660,397.32642,580.87042,-32622.32227,73.66508,-3.59458,-35.44403,0.62353,0.62353,529.13049,529.05664,946.55267,943.76825,1389.55334,1389.23560,2001.60132,2001.77551,2001.60132,2001.77551,15.14544,15.18692,86.15414,86.15414,100.08348,100.09238,370.23676,370.18018,486.17792,486.17792,495.50629,495.50629,178.13672,178.13704,15.01183,15.01183,0.00000,0.00000,0.00000,0.00000,0.00000,0.00000
19.70534,145.44905,149.90564,159.34518,183.37119,0.22901,-360.77243,0.91991,0.13000,0.00805,0.00000,0.00000,0.00000,-1.71009,-21.43481,62.51300,63.11283,1.01051,30.29305,-87.49579,2178.32104,2171.83496,0.00000,2175.12866,404.66537,580.50262,-32625.87695,73.65210,-3.73896,-35.79338,0.62353,0.62353,529.23816,529.16937,944.64478,941.92749,1389.97522,1389.67944,2001.41113,2001.57275,2001.41113,2001.57275,15.17666,15.21808,86.15414,86.15414,100.07345,100.08174,370.31363,370.25964,486.82535,486.82535,496.33334,496.33334,178.15707,178.15739,15.01670,15.01670,0.00000,0.00000,0.00000,0.00000,0.00000,0.00000
19.70535,145.65627,159.46666,159.46667,183.51099,0.24359,-377.79398,1.15797,0.07147,-0.05419,0.00000,0.00000,0.00000,-1.75262,-21.34962,62.38106,62.98093,1.39364,30.29307,-87.49575,2177.72705,2171.19727,0.00000,2174.37915,408.37961,580.31201,-32627.68945,73.62419,-3.77267,-35.98991,0.62353,0.62353,529.18060,529.11554,658.68231,656.01642,1389.90234,1389.62244,2005.01343,2005.18005,2005.01343,2005.18005,15.19128,15.23244,86.15414,86.15414,100.06782,100.07568,370.35208,370.29956,487.14673,487.14673,496.73587,496.73587,178.16733,178.16765,15.01898,15.01898,0.00000,0.00000,0.00000,0.00000,0.00000,0.00000
19.70537,154.89650,159.63306,159.63307,183.70247,0.24384,-402.03204,1.12861,0.10678,-0.06947,0.00000,0.00000,0.00000,-1.82813,-21.26456,62.25168,62.85159,1.25660,30.29309,-87.49570,2176.83350,2170.33325,0.00000,2173.58545,414.00366,580.02515,-32630.46094,73.54281,-3.74549,-36.35254,0.62353,0.62353,526.12598,526.07831,850.75934,851.74451,1376.47400,1376.27344,2009.91003,2009.95654,2009.91003,2009.95654,15.83876,15.87699,86.15415,86.15415,100.46078,100.46632,370.04575,369.99503,487.62842,487.62842,497.33121,497.33121,178.18056,178.18088,15.02222,15.02222,0.00000,0.00000,0.00000,0.00000,0.00000,0.00000
19.70539,155.11317,159.84854,159.84856,183.95045,0.24417,-427.10495,1.08000,0.11152,-0.05654,0.00000,0.00000,0.00000,-1.89885,-21.15650,62.19661,62.79657,1.11114,30.29312,-87.49563,2175.82153,2169.32007,0.00000,2172.60181,420.38287,579.70001,-32633.63867,73.47082,-3.74993,-36.74612,0.62353,0.62353,525.76111,525.80054,882.30652,884.29285,1374.90759,1375.07336,2009.98303,2009.82568,2009.98303,2009.82568,15.98309,16.00603,86.15416,86.15416,100.50549,100.50091,369.32324,369.28745,488.16449,488.16449,497.98062,497.98062,178.19536,178.19568,15.02561,15.02561,0.00000,0.00000,0.00000,0.00000,0.00000,0.00000
19.70542,155.35626,160.08728,160.08728,184.22517,0.24453,-451.93726,1.04564,0.11103,-0.04040,0.00000,0.00000,0.00000,-1.92426,-20.97799,62.20181,62.80182,1.00432,30.29315,-87.49555,2174.72778,2168.30127,0.00000,2171.53198,427.22742,579.34857,-32637.08789,73.40649,-3.78261,-37.14421,0.62353,0.62353,525.99860,526.11487,884.22174,886.33246,1375.87012,1376.35913,2009.40100,2009.08545,2009.40100,2009.08545,16.02747,16.03603,86.15417,86.15417,100.48053,100.46703,368.83194,368.82996,488.72760,488.72760,498.64767,498.64767,178.21115,178.21149,15.02893,15.02893,0.00000,0.00000,0.00000,0.00000,0.00000,0.00000
19.70545,155.60980,160.34073,160.34074,184.51683,0.24492,-476.16611,1.03014,0.11069,-0.02235,0.00000,0.00000,0.00000,-1.89204,-20.71453,62.23874,62.83881,0.95221,30.29319,-87.49548,2173.57275,2166.94702,0.00000,2170.40552,434.36871,578.97742,-32640.73047,73.35109,-3.82859,-37.53620,0.62353,0.62353,526.29242,526.45612,884.02448,885.83026,1377.07031,1377.76050,2008.74707,2008.34363,2008.74707,2008.34363,16.06268,16.06116,86.15417,86.15417,100.44904,100.42995,368.60330,368.64157,489.30191,489.30191,499.31192,499.31192,178.22758,178.22794,15.03209,15.03209,0.00000,0.00000,0.00000,0.00000,0.00000,0.00000
19.70548,155.89372,160.63213,160.63213,184.85216,0.24536,-502.01370,1.03080,0.11040,-0.00276,0.00000,0.00000,0.00000,-1.80523,-20.31893,62.28039,62.88053,0.94670,30.29322,-87.49540,2172.24048,2165.87964,0.00000,2169.11060,442.49857,578.54926,-32644.92383,73.29980,-3.87591,-37.95888,0.62353,0.62353,526.64636,526.82635,882.93518,884.00635,1378.52002,1379.28064,2007.98767,2007.57153,2007.98767,2007.57153,16.09548,16.08869,86.15417,86.15417,100.41088,100.38982,368.55319,368.62936,489.93976,489.93976,500.03104,500.03104,178.24622,178.24660,15.03533,15.03533,0.00000,0.00000,0.00000,0.00000,0.00000,0.00000
19.70550,156.08742,160.83342,160.83342,185.08380,0.24567,-518.75751,1.03705,0.11028,0.00903,0.00000,0.00000,0.00000,-1.73334,-19.99373,62.29065,62.89083,0.96035,30.29325,-87.49534,2171.31250,2164.59546,0.00000,2168.20312,448.11032,578.25110,-32647.84570,73.27018,-3.89869,-38.23828,0.62353,0.62353,526.87726,527.04828,882.88751,883.28735,1379.46606,1380.18945,2007.47632,2007.09778,2007.47632,2007.09778,16.11797,16.11114,86.15417,86.15417,100.38602,100.36597,368.60178,368.69489,490.37018,490.37018,500.50500,500.50500,178.25903,178.25943,15.03736,15.03736,0.00000,0.00000,0.00000,0.00000,0.00000,0.00000
19.70553,156.38290,161.13737,161.13739,185.43361,0.24613,-542.28906,1.04966,0.10992,0.02282,0.00000,0.00000,0.00000,-1.63028,-19.43174,62.25509,62.85534,0.98951,30.29329,-87.49525,2169.89771,2163.44678,0.00000,2166.78735,456.62753,577.79626,-32652.32422,73.23219,-3.91445,-38.64596,0.62353,0.62353,527.22949,527.36151,882.53436,881.79010,1380.90979,1381.46912,2006.72656,2006.45679,2006.72656,2006.45679,16.14815,16.14612,86.15418,86.15418,100.34811,100.33260,368.74725,368.84882,491.00824,491.00824,501.19086,501.19086,178.27843,178.27882,15.04017,15.04017,0.00000,0.00000,0.00000,0.00000,0.00000,0.00000
19.70556,156.57597,161.34178,161.34178,185.66882,0.24644,-556.82806,1.05748,0.10972,0.02848,0.00000,0.00000,0.00000,-1.57321,-19.01281,62.18747,62.78777,1.00912,30.29332,-87.49519,2168.93872,2162.33936,0.00000,2165.84937,462.39526,577.48798,-32655.38477,73.21010,-3.91312,-38.91272,0.62353,0.62353,527.45868,527.55341,882.49438,881.03918,1381.85034,1382.25232,2006.22168,2006.04663,2006.22168,2006.04663,16.16762,16.17112,86.15418,86.15418,100.32340,100.31223,368.87366,368.96954,491.43015,491.43015,501.63336,501.63336,178.29150,178.29192,15.04188,15.04188,0.00000,0.00000,0.00000,0.00000,0.00000,0.00000
19.70559,156.87798,161.64713,161.64713,186.02020,0.24691,-576.46680,1.06841,0.10936,0.03164,0.00000,0.00000,0.00000,-1.51083,-18.33694,62.01338,62.61375,1.03532,30.29336,-87.49510,2167.49902,2160.91406,0.00000,2164.38354,471.08353,577.02466,-32660.03516,73.18044,-3.89584,-39.30366,0.62353,0.62353,527.80151,527.83221,881.49860,879.12238,1383.25696,1383.38721,2005.52576,2005.49976,2005.52576,2005.49976,16.19380,16.20790,86.15419,86.15419,100.28653,100.28291,369.08615,369.15976,492.05051,492.05051,502.26807,502.26807,178.31111,178.31152,15.04423,15.04423,0.00000,0.00000,0.00000,0.00000,0.00000,0.00000
19.70561,157.06386,161.83397,161.83397,186.23520,0.24719,-587.16321,1.07397,0.10931,0.03061,0.00000,0.00000,0.00000,-1.48503,-17.90215,61.86504,62.46546,1.04938,30.29339,-87.49504,2166.61621,2160.11890,0.00000,2163.48706,476.44022,576.74042,-32662.92578,73.16351,-3.87755,-39.53974,0.62353,0.62353,527.99078,527.98334,881.32751,878.52997,1384.03210,1384.00037,2005.12744,2005.18677,2005.12744,2005.18677,16.21172,16.23256,86.15419,86.15419,100.26630,100.26718,369.22308,369.27686,492.42392,492.42392,502.64084,502.64084,178.32317,178.32358,15.04553,15.04553,0.00000,0.00000,0.00000,0.00000,0.00000,0.00000
19.70564,157.35175,162.13214,162.13214,186.57834,0.24765,-602.14813,1.08203,0.10924,0.02517,0.00000,0.00000,0.00000,-1.45765,-17.18058,61.56931,62.16979,1.07086,30.29343,-87.49496,2165.21143,2158.69043,0.00000,2162.10205,485.03766,576.28760,-32667.60156,73.13721,-3.83877,-39.91370,0.62353,0.62353,528.28497,528.22687,880.37903,877.19928,1385.23914,1384.99133,2004.50745,2004.67822,2004.50745,2004.67822,16.23882,16.26928,86.15419,86.15419,100.23476,100.24166,369.43796,369.45676,493.00952,493.00952,503.21182,503.21182,178.34242,178.34283,15.04744,15.04744,0.00000,0.00000,0.00000,0.00000,0.00000,0.00000
19.70568,157.63580,162.41304,162.41304,186.90160,0.24807,-613.87604,1.08984,0.10924,0.01679,0.00000,0.00000,0.00000,-1.43908,-16.47900,61.24168,61.84223,1.09019,30.29347,-87.49487,2163.89355,2157.40161,0.00000,2160.75342,493.20309,575.86230,-32672.08594,73.11176,-3.79181,-40.26552,0.62353,0.62353,528.53632,528.44373,879.36206,876.13361,1386.26562,1385.87061,2004.00293,2004.24011,2004.00293,2004.24011,16.26646,16.30416,86.15420,86.15420,100.20818,100.21919,369.63620,369.62292,493.55011,493.55011,503.72385,503.72385,178.36063,178.36101,15.04905,15.04905,0.00000,0.00000,0.00000,0.00000,0.00000,0.00000
19.70571,157.91690,162.69801,162.69801,187.22954,0.24851,-623.43884,1.09750,0.10917,0.00703,0.00000,0.00000,0.00000,-1.41887,-15.74923,60.88287,61.48349,1.10923,30.29351,-87.49478,2162.56641,2156.17603,0.00000,2159.42358,501.55286,575.43347,-32676.71289,73.08450,-3.73450,-40.62323,0.62353,0.62353,528.77350,528.66528,878.05408,875.04138,1387.23425,1386.77161,2003.52222,2003.78357,2003.52222,2003.78357,16.29511,16.33708,86.15420,86.15420,100.18315,100.19606,369.82449,369.78467,494.08783,494.08783,504.21896,504.21896,178.37915,178.37950,15.05052,15.05052,0.00000,0.00000,0.00000,0.00000,0.00000,0.00000
19.70574,158.18602,162.97139,162.97141,187.54416,0.24892,-630.40125,1.10472,0.10908,-0.00202,0.00000,0.00000,0.00000,-1.39142,-15.03269,60.53453,61.13521,1.12654,30.29355,-87.49470,2161.30322,2154.91748,0.00000,2158.15576,509.64441,575.02460,-32681.23633,73.05678,-3.66976,-40.96756,0.62353,0.62353,528.97705,528.87030,877.05615,874.43634,1388.06140,1387.60461,2003.10486,2003.35095,2003.10486,2003.35095,16.32504,16.36821,86.15421,86.15421,100.16199,100.17475,369.99411,369.93756,494.59464,494.59464,504.67255,504.67255,178.39700,178.39734,15.05179,15.05179,0.00000,0.00000,0.00000,0.00000,0.00000,0.00000
19.70577,158.44977,163.23993,163.23993,187.85316,0.24933,-635.13208,1.11170,0.10890,-0.00986,0.00000,0.00000,0.00000,-1.35182,-14.31040,60.20634,60.80708,1.14253,30.29359,-87.49461,2160.07373,2153.66724,0.00000,2156.92310,517.68475,574.62592,-32685.77148,73.02839,-3.59628,-41.30623,0.62353,0.62353,529.16168,529.07013,876.06903,873.94476,1388.81018,1388.41785,2002.72498,2002.92627,2002.72498,2002.92627,16.35553,16.39731,86.15421,86.15421,100.14293,100.15390,370.14935,370.08609,495.08478,495.08478,505.09921,505.09921,178.41466,178.41498,15.05292,15.05292,0.00000,0.00000,0.00000,0.00000,0.00000,0.00000
19.70580,158.73187,163.53264,163.53265,188.19002,0.24978,-637.91187,1.11931,0.10859,-0.01622,0.00000,0.00000,0.00000,-1.29023,-13.49462,59.88123,60.48205,1.15929,30.29364,-87.49452,2158.74976,2152.35425,0.00000,2155.61572,526.56610,574.19580,-32690.82617,72.99735,-3.50420,-41.67379,0.62353,0.62353,529.35956,529.29529,874.59601,873.04022,1389.61316,1389.33752,2002.32397,2002.45227,2002.32397,2002.45227,16.38775,16.42573,86.15421,86.15421,100.12249,100.13020,370.30618,370.24579,495.61127,495.61127,505.54462,505.54462,178.43405,178.43436,15.05403,15.05403,0.00000,0.00000,0.00000,0.00000,0.00000,0.00000
19.70584,159.01593,163.81802,163.81802,188.51843,0.25021,-638.11188,1.12717,0.10823,-0.02002,0.00000,0.00000,0.00000,-1.21038,-12.66633,59.60686,60.20776,1.17437,30.29368,-87.49443,2157.47754,2151.10742,0.00000,2154.30835,535.36755,573.78137,-32695.88086,72.96861,-3.40037,-42.02787,0.62353,0.62353,529.54132,529.51093,872.93756,871.90680,1390.34802,1390.21765,2001.97815,2002.02490,2001.97815,2002.02490,16.41994,16.45243,86.15421,86.15421,100.10393,100.10757,370.45038,370.40179,496.11768,496.11768,505.96024,505.96024,178.45316,178.45345,15.05500,15.05500,0.00000,0.00000,0.00000,0.00000,0.00000,0.00000
19.70587,159.27097,164.07474,164.07474,188.81384,0.25061,-636.03986,1.13377,0.10803,-0.02115,0.00000,0.00000,0.00000,-1.12277,-11.89093,59.39915,60.00011,1.18635,30.29372,-87.49435,2156.35278,2150.07324,0.00000,2153.15796,543.41742,573.41394,-32700.54102,72.94587,-3.29387,-42.33970,0.62353,0.62353,529.68756,529.68842,872.13147,871.49268,1390.93555,1390.93896,2001.68066,2001.65552,2001.68066,2001.65552,16.45114,16.47816,86.15422,86.15422,100.08929,100.08920,370.57269,370.54047,496.56769,496.56769,506.31888,506.31888,178.47054,178.47083,15.05579,15.05579,0.00000,0.00000,0.00000,0.00000,0.00000,0.00000
19.70590,159.51991,164.32294,164.32295,189.09949,0.25098,-631.93005,1.14023,0.10775,-0.02059,0.00000,0.00000,0.00000,-1.02514,-11.10820,59.23290,59.83392,1.19666,30.29377,-87.49426,2155.28760,2149.02197,0.00000,2152.06079,551.32764,573.06494,-32705.15625,72.92825,-3.17861,-42.63259,0.62353,0.62353,529.83521,529.86340,870.76324,870.40509,1391.53174,1391.65295,2001.39795,2001.31128,2001.39795,2001.31128,16.47930,16.50110,86.15422,86.15422,100.07430,100.07089,370.68427,370.67010,496.99814,496.99814,506.65265,506.65265,178.48752,178.48781,15.05648,15.05648,0.00000,0.00000,0.00000,0.00000,0.00000,0.00000
19.70593,159.75548,164.55937,164.55937,189.37155,0.25134,-625.98505,1.14593,0.10754,-0.01889,0.00000,0.00000,0.00000,-0.92245,-10.32965,59.10223,59.70332,1.20494,30.29381,-87.49419,2154.29761,2148.08691,0.00000,2151.04761,558.98834,572.73944,-32709.65234,72.91678,-3.05707,-42.90160,0.62353,0.62353,529.96875,530.01801,869.81342,869.61847,1392.07019,1392.28235,2001.13086,2000.99817,2001.13086,2000.99817,16.50665,16.52407,86.15422,86.15422,100.06078,100.05484,370.78732,370.79062,497.40408,497.40408,506.95908,506.95908,178.50389,178.50417,15.05709,15.05709,0.00000,0.00000,0.00000,0.00000,0.00000,0.00000
19.70596,159.97775,164.78287,164.78287,189.62875,0.25168,-618.44830,1.15090,0.10734,-0.01672,0.00000,0.00000,0.00000,-0.81863,-9.56211,58.99860,59.59975,1.21110,30.29385,-87.49411,2153.38721,2147.19971,0.00000,2150.11426,566.35437,572.43896,-32714.00391,72.91168,-2.93143,-43.14538,0.62353,0.62353,530.09320,530.15717,868.95575,868.83154,1392.57288,1392.84839,2000.88037,2000.71729,2000.88037,2000.71729,16.53216,16.54621,86.15422,86.15422,100.04816,100.04044,370.88226,370.90057,497.78448,497.78448,507.23892,507.23892,178.51955,178.51982,15.05761,15.05761,0.00000,0.00000,0.00000,0.00000,0.00000,0.00000
19.70599,160.19807,165.01529,165.01529,189.89622,0.25204,-608.57928,1.15526,0.10715,-0.01439,0.00000,0.00000,0.00000,-0.70522,-8.72864,58.90590,59.50711,1.21611,30.29389,-87.49403,2152.47217,2146.24512,0.00000,2149.21484,574.14825,572.13562,-32718.63281,72.91309,-2.79012,-43.38677,0.62353,0.62353,530.22180,530.29456,868.34131,868.21484,1393.09375,1393.40771,2000.60156,2000.42065,2000.60156,2000.42065,16.55811,16.56960,86.15423,86.15423,100.03501,100.02620,370.97876,371.01004,498.17682,498.17682,507.52023,507.52023,178.53603,178.53630,15.05810,15.05810,0.00000,0.00000,0.00000,0.00000,0.00000,0.00000
19.70601,160.35585,165.17529,165.17529,190.08034,0.25228,-600.53186,1.15836,0.10694,-0.01291,0.00000,0.00000,0.00000,-0.62458,-8.13284,58.84791,59.44917,1.21863,30.29392,-87.49397,2151.86304,2145.58472,0.00000,2148.59570,579.60193,571.93274,-32721.88672,72.91837,-2.68640,-43.54530,0.62353,0.62353,530.31451,530.39050,867.53058,867.38428,1393.47083,1393.79871,2000.41699,2000.23120,2000.41699,2000.23120,16.57480,16.58504,86.15423,86.15423,100.02543,100.01623,371.04483,371.08304,498.44525,498.44525,507.70840,507.70840,178.54752,178.54779,15.05842,15.05842,0.00000,0.00000,0.00000,0.00000,0.00000,0.00000
19.70603,160.51590,165.34355,165.34355,190.27397,0.25254,-590.93738,1.16106,0.10677,-0.01161,0.00000,0.00000,0.00000,-0.53807,-7.48674,58.78989,59.39119,1.22040,30.29395,-87.49391,2151.24268,2145.14209,0.00000,2147.98462,585.41846,571.72534,-32725.36914,72.92794,-2.57187,-43.70488,0.62353,0.62353,530.40747,530.48413,867.03052,866.84369,1393.84888,1394.17993,2000.21533,2000.03015,2000.21533,2000.03015,16.59279,16.60213,86.15424,86.15424,100.01583,100.00653,371.11411,371.15778,498.72610,498.72610,507.90158,507.90158,178.55972,178.56000,15.05873,15.05873,0.00000,0.00000,0.00000,0.00000,0.00000,0.00000
19.70605,160.68141,165.51035,165.51033,190.46590,0.25279,-580.22394,1.16378,0.10652,-0.01067,0.00000,0.00000,0.00000,-0.45096,-6.82681,58.73378,59.33512,1.22091,30.29398,-87.49385,2150.64941,2144.23364,0.00000,2147.37231,591.27728,571.52588,-32728.89062,72.94170,-2.45264,-43.85560,0.62353,0.62353,530.50153,530.57709,866.21307,865.98401,1394.23181,1394.55823,2000.03015,1999.84961,2000.03015,1999.84961,16.61000,16.61881,86.15424,86.15424,100.00609,99.99693,371.18280,371.22998,499.00339,499.00339,508.08853,508.08853,178.57196,178.57224,15.05902,15.05902,0.00000,0.00000,0.00000,0.00000,0.00000,0.00000
19.70608,160.84677,165.68359,165.68361,190.66530,0.25306,-567.81262,1.16585,0.10630,-0.01012,0.00000,0.00000,0.00000,-0.35929,-6.12081,58.67583,59.27723,1.22022,30.29401,-87.49378,2150.05859,2143.80615,0.00000,2146.78491,597.46313,571.32617,-32732.61719,72.96067,-2.32329,-44.00399,0.62353,0.62353,530.59418,530.66693,865.72668,865.45300,1394.60962,1394.92395,1999.82727,1999.65503,1999.82727,1999.65503,16.62835,16.63690,86.15424,86.15424,99.99647,99.98763,371.25327,371.30243,499.29019,499.29019,508.27802,508.27802,178.58484,178.58510,15.05931,15.05931,0.00000,0.00000,0.00000,0.00000,0.00000,0.00000
19.70610,161.01761,165.85468,165.85468,190.86217,0.25332,-554.22217,1.16788,0.10599,-0.01012,0.00000,0.00000,0.00000,-0.26763,-5.40364,58.61843,59.21988,1.21808,30.29405,-87.49372,2149.50244,2143.22754,0.00000,2146.20361,603.68140,571.13672,-32736.37500,72.98425,-2.19001,-44.14204,0.62353,0.62353,530.68945,530.75842,864.81628,864.52106,1394.99768,1395.29590,1999.64417,1999.48108,1999.64417,1999.48108,16.64565,16.65416,86.15424,86.15424,99.98660,99.97822,371.32245,371.37198,499.57236,499.57236,508.46054,508.46054,178.59772,178.59798,15.05957,15.05957,0.00000,0.00000,0.00000,0.00000,0.00000,0.00000
19.70614,161.26627,166.10252,166.10252,191.14738,0.25370,-532.11145,1.16987,0.10553,-0.01095,0.00000,0.00000,0.00000,-0.13290,-4.33043,58.53543,59.13695,1.21227,30.29410,-87.49362,2148.74780,2142.78979,0.00000,2145.41089,612.89905,570.87720,-32741.96484,73.02743,-1.98774,-44.32646,0.62353,0.62353,530.81976,530.88300,863.67584,863.38086,1395.52979,1395.80347,1999.38574,1999.23511,1999.38574,1999.23511,16.67142,16.67994,86.15424,86.15424,99.97302,99.96532,371.42126,371.46939,499.97952,499.97952,508.71704,508.71704,178.61671,178.61696,15.05991,15.05991,0.00000,0.00000,0.00000,0.00000,0.00000,0.00000
19.70617,161.48965,166.32542,166.32542,191.40388,0.25404,-509.69775,1.17057,0.10512,-0.01238,0.00000,0.00000,0.00000,-0.00960,-3.33214,58.46325,59.06484,1.20416,30.29414,-87.49354,2148.12598,2142.89600,0.00000,2144.75537,621.41968,570.66016,-32747.14648,73.07595,-1.79718,-44.47559,0.62353,0.62353,530.92859,530.98810,862.91803,862.66663,1395.97339,1396.23132,1999.16064,1999.01746,1999.16064,1999.01746,16.69569,16.70401,86.15424,86.15424,99.96173,99.95448,371.50766,371.55347,500.34430,500.34430,508.93988,508.93988,178.63416,178.63440,15.06019,15.06019,0.00000,0.00000,0.00000,0.00000,0.00000,0.00000
19.70620,161.70152,166.53693,166.53693,191.64728,0.25436,-486.20786,1.17063,0.10467,-0.01416,0.00000,0.00000,0.00000,0.10980,-2.35422,58.40048,59.00214,1.19438,30.29419,-87.49345,2147.59082,2142.71387,0.00000,2144.19116,629.72046,570.47028,-32752.20508,73.13099,-1.60960,-44.60159,0.62353,0.62353,531.03052,531.08868,862.09851,861.93988,1396.39062,1396.64233,1998.95044,1998.80859,1998.95044,1998.80859,16.71853,16.72631,86.15424,86.15424,99.95106,99.94397,371.58725,371.63086,500.68930,500.68930,509.14459,509.14459,178.65105,178.65128,15.06044,15.06044,0.00000,0.00000,0.00000,0.00000,0.00000,0.00000
19.70624,161.90749,166.74460,166.74461,191.88629,0.25467,-461.02689,1.17023,0.10417,-0.01609,0.00000,0.00000,0.00000,0.22947,-1.36272,58.34838,58.95011,1.18287,30.29424,-87.49336,2147.12305,2142.57495,0.00000,2143.69800,638.09277,570.30066,-32757.31641,73.19423,-1.41951,-44.70954,0.62353,0.62353,531.13141,531.19031,861.07629,861.04761,1396.80530,1397.06079,1998.74536,1998.59924,1998.74536,1998.59924,16.74044,16.74722,86.15424,86.15424,99.94036,99.93317,371.66287,371.70514,501.02725,501.02725,509.33951,509.33951,178.66798,178.66820,15.06065,15.06065,0.00000,0.00000,0.00000,0.00000,0.00000,0.00000
19.70627,162.10120,166.94099,166.94099,192.11227,0.25497,-435.27405,1.16913,0.10372,-0.01779,0.00000,0.00000,0.00000,0.34441,-0.39591,58.31167,58.91347,1.16992,30.29428,-87.49328,2146.73730,2142.53687,0.00000,2143.29077,646.22601,570.15668,-32762.28906,73.26327,-1.23483,-44.79581,0.62353,0.62353,531.21930,531.28137,860.40607,860.51752,1397.16650,1397.43567,1998.55554,1998.40051,1998.55554,1998.40051,16.76224,16.76763,86.15425,86.15425,99.93107,99.92348,371.73294,371.77505,501.34610,501.34610,509.51822,509.51822,178.68433,178.68452,15.06084,15.06084,0.00000,0.00000,0.00000,0.00000,0.00000,0.00000
19.70630,162.29308,167.13556,167.13556,192.33618,0.25527,-407.91971,1.16766,0.10320,-0.01932,0.00000,0.00000,0.00000,0.45958,0.59284,58.29095,58.89281,1.15513,30.29432,-87.49319,2146.41406,2142.26025,0.00000,2142.94360,654.50519,570.03131,-32767.35156,73.34139,-1.04780,-44.86469,0.62353,0.62353,531.30878,531.37549,859.40845,859.67871,1397.53638,1397.82605,1998.37134,1998.20361,1998.37134,1998.20361,16.78307,16.78669,86.15425,86.15425,99.92144,99.91328,371.80014,371.84341,501.66141,501.66141,509.69009,509.69009,178.70087,178.70105,15.06102,15.06102,0.00000,0.00000,0.00000,0.00000,0.00000,0.00000
19.70633,162.47755,167.32013,167.32011,192.54855,0.25555,-380.29147,1.16559,0.10271,-0.02046,0.00000,0.00000,0.00000,0.56925,1.56022,58.28828,58.89022,1.13910,30.29437,-87.49311,2146.16553,2142.10083,0.00000,2142.67163,662.57568,569.92938,-32772.28906,73.42547,-0.86728,-44.91305,0.62353,0.62353,531.38776,531.46021,858.65149,859.07001,1397.86340,1398.17786,1998.20190,1998.01990,1998.20190,1998.01990,16.80366,16.80528,86.15425,86.15425,99.91292,99.90405,371.86258,371.90808,501.95996,501.95996,509.84830,509.84830,178.71687,178.71706,15.06117,15.06117,0.00000,0.00000,0.00000,0.00000,0.00000,0.00000
19.70636,162.65146,167.49689,167.49690,192.75200,0.25582,-352.33099,1.16308,0.10223,-0.02124,0.00000,0.00000,0.00000,0.67401,2.51556,58.30310,58.90510,1.12193,30.29441,-87.49303,2145.98413,2142.06494,0.00000,2142.46899,670.51599,569.84827,-32777.14453,73.51604,-0.69232,-44.94230,0.62353,0.62353,531.46185,531.53998,857.93951,858.49646,1398.17126,1398.51074,1998.04028,1997.84399,1998.04028,1997.84399,16.82344,16.82298,86.15425,86.15425,99.90484,99.89527,371.92059,371.96909,502.24539,502.24539,509.99548,509.99548,178.73254,178.73271,15.06130,15.06130,0.00000,0.00000,0.00000,0.00000,0.00000,0.00000
19.70640,162.82277,167.66800,167.66800,192.94890,0.25608,-323.93167,1.16024,0.10171,-0.02175,0.00000,0.00000,0.00000,0.77445,3.46859,58.33474,58.93680,1.10365,30.29446,-87.49294,2145.86450,2141.87695,0.00000,2142.32812,678.40588,569.78625,-32781.96484,73.61395,-0.52185,-44.95319,0.62353,0.62353,531.53442,531.61810,857.06940,857.75244,1398.47449,1398.83850,1997.88660,1997.67700,1997.88660,1997.67700,16.84219,16.83961,86.15425,86.15425,99.89681,99.88655,371.97519,372.02713,502.52112,502.52112,510.13385,510.13385,178.74803,178.74818,15.06141,15.06141,0.00000,0.00000,0.00000,0.00000,0.00000,0.00000
19.70643,162.98517,167.83580,167.83580,193.14201,0.25634,-294.87848,1.15691,0.10124,-0.02199,0.00000,0.00000,0.00000,0.87129,4.43138,58.38280,58.98493,1.08412,30.29450,-87.49286,2145.80396,2141.59351,0.00000,2142.24902,686.34570,569.74207,-32786.80859,73.72059,-0.35452,-44.94580,0.62353,0.62353,531.60211,531.69055,856.45483,857.24170,1398.75891,1399.14380,1997.73010,1997.50928,1997.73010,1997.50928,16.86092,16.85631,86.15425,86.15425,99.88922,99.87837,372.02740,372.08295,502.79083,502.79083,510.26556,510.26556,178.76350,178.76366,15.06152,15.06152,0.00000,0.00000,0.00000,0.00000,0.00000,0.00000
19.70646,163.14819,167.99962,167.99962,193.33052,0.25659,-265.45670,1.15437,0.10080,-0.02237,0.00000,0.00000,0.00000,0.96337,5.38454,58.44603,59.04823,1.06288,30.29454,-87.49277,2145.80176,2141.54932,0.00000,2142.22705,694.29529,569.71564,-32791.64844,73.83551,-0.19111,-44.92010,0.62353,0.62353,531.66858,531.76099,855.57770,856.45880,1399.03918,1399.44153,1997.58752,1997.35779,1997.58752,1997.35779,16.87891,16.87235,86.15425,86.15425,99.88170,99.87035,372.07773,372.13660,503.05328,503.05328,510.39032,510.39032,178.77892,178.77907,15.06161,15.06161,0.00000,0.00000,0.00000,0.00000,0.00000,0.00000
19.70649,163.30550,168.15726,168.15724,193.51190,0.25683,-236.23351,1.15083,0.10031,-0.02217,0.00000,0.00000,0.00000,1.04893,6.29160,58.52193,59.12419,1.04047,30.29459,-87.49270,2145.85498,2141.73608,0.00000,2142.26270,702.13660,569.70648,-32796.41016,73.95683,-0.03482,-44.87700,0.62353,0.62353,531.72821,531.82343,854.77185,855.73187,1399.29175,1399.70630,1997.45691,1997.22095,1997.45691,1997.22095,16.89677,16.88846,86.15425,86.15425,99.87487,99.86317,372.12463,372.18646,503.30487,503.30487,510.50668,510.50668,178.79402,178.79416,15.06170,15.06170,0.00000,0.00000,0.00000,0.00000,0.00000,0.00000
19.70652,163.45471,168.30910,168.30910,193.68666,0.25706,-207.32716,1.14695,0.09986,-0.02185,0.00000,0.00000,0.00000,1.12820,7.15139,58.60874,59.21106,1.01746,30.29463,-87.49261,2145.95898,2141.87329,0.00000,2142.34888,709.87463,569.71326,-32801.09766,74.08396,0.11376,-44.81779,0.62353,0.62353,531.78217,531.87921,854.20770,855.22614,1399.52136,1399.94397,1997.32861,1997.08911,1997.32861,1997.08911,16.91441,16.90450,86.15425,86.15425,99.86862,99.85669,372.16794,372.23212,503.54623,503.54623,510.61539,510.61539,178.80884,178.80896,15.06177,15.06177,0.00000,0.00000,0.00000,0.00000,0.00000,0.00000
19.70654,163.60063,168.45599,168.45598,193.85570,0.25729,-178.77084,1.14285,0.09938,-0.02150,0.00000,0.00000,0.00000,1.20161,7.96736,58.70515,59.30754,0.99406,30.29467,-87.49254,2146.11035,2141.93481,0.00000,2142.48560,717.53461,569.73474,-32805.71875,74.21664,0.25484,-44.74369,0.62353,0.62353,531.83490,531.93292,853.49713,854.57703,1399.74707,1400.17419,1997.20862,1996.96692,1997.20862,1996.96692,16.93114,16.91981,86.15425,86.15425,99.86241,99.85036,372.20850,372.27441,503.77856,503.77856,510.71729,510.71729,178.82341,178.82352,15.06184,15.06184,0.00000,0.00000,0.00000,0.00000,0.00000,0.00000
19.70657,163.74403,168.60220,168.60220,194.02396,0.25751,-149.89009,1.13848,0.09891,-0.02114,0.00000,0.00000,0.00000,1.27123,8.76146,58.81286,59.41531,0.96985,30.29471,-87.49245,2146.31177,2142.14819,0.00000,2142.67139,725.33026,569.77112,-32810.40625,74.35817,0.39189,-44.65337,0.62353,0.62353,531.88629,531.98444,852.84125,853.97675,1399.96851,1400.39612,1997.08691,1996.84534,1997.08691,1996.84534,16.94774,16.93511,86.15425,86.15425,99.85627,99.84419,372.24768,372.31479,504.00851,504.00851,510.81549,510.81549,178.83815,178.83826,15.06190,15.06190,0.00000,0.00000,0.00000,0.00000,0.00000,0.00000
19.70660,163.88257,168.74274,168.74274,194.18568,0.25773,-121.80269,1.13403,0.09845,-0.02081,0.00000,0.00000,0.00000,1.33485,9.50573,58.92710,59.52961,0.94597,30.29475,-87.49238,2146.55322,2142.58105,0.00000,2142.89893,732.99078,569.82025,-32814.99609,74.50319,0.51984,-44.55072,0.62353,0.62353,531.93390,532.03162,852.23639,853.41516,1400.17456,1400.60071,1996.97241,1996.73206,1996.97241,1996.73206,16.96381,16.94999,86.15425,86.15425,99.85050,99.83846,372.28442,372.35220,504.22815,504.22815,510.90683,510.90683,178.85255,178.85266,15.06195,15.06195,0.00000,0.00000,0.00000,0.00000,0.00000,0.00000
19.70662,164.01703,168.88356,168.88356,194.34773,0.25794,-93.47784,1.12952,0.09803,-0.02050,0.00000,0.00000,0.00000,1.39523,10.23006,59.05179,59.65437,0.92170,30.29479,-87.49229,2146.84277,2142.88330,0.00000,2143.16724,740.82715,569.88361,-32819.66797,74.65713,0.64373,-44.43246,0.62353,0.62353,531.97943,532.07642,851.80176,853.01245,1400.37280,1400.79590,1996.85315,1996.61536,1996.85315,1996.61536,16.98005,16.96512,86.15426,86.15426,99.84492,99.83297,372.32028,372.38824,504.44659,504.44659,510.99530,510.99530,178.86720,178.86729,15.06200,15.06200,0.00000,0.00000,0.00000,0.00000,0.00000,0.00000
19.70666,164.15770,169.02652,169.02652,194.51225,0.25816,-64.65564,1.12482,0.09754,-0.02024,0.00000,0.00000,0.00000,1.45292,10.94148,59.18864,59.79128,0.89675,30.29484,-87.49221,2147.18555,2143.03247,0.00000,2143.49561,748.95111,569.96234,-32824.48438,74.82213,0.76469,-44.29667,0.62353,0.62353,532.02753,532.12317,851.06287,852.31665,1400.58374,1401.00098,1996.73779,1996.50330,1996.73779,1996.50330,16.99586,16.97987,86.15426,86.15426,99.83891,99.82712,372.35587,372.42368,504.66663,504.66663,511.08197,511.08197,178.88228,178.88235,15.06204,15.06204,0.00000,0.00000,0.00000,0.00000,0.00000,0.00000
19.70669,164.29431,169.16252,169.16252,194.66876,0.25837,-37.30095,1.12014,0.09705,-0.02002,0.00000,0.00000,0.00000,1.50423,11.59377,59.32822,59.93092,0.87278,30.29488,-87.49213,2147.55688,2143.43311,0.00000,2143.86255,756.83771,570.05060,-32829.13672,74.98714,0.87475,-44.15274,0.62353,0.62353,532.07056,532.16467,850.33594,851.63763,1400.77368,1401.18469,1996.63562,1996.40454,1996.63562,1996.40454,17.01112,16.99417,86.15426,86.15426,99.83344,99.82182,372.38895,372.45618,504.87402,504.87402,511.16144,511.16144,178.89682,178.89688,15.06208,15.06208,0.00000,0.00000,0.00000,0.00000,0.00000,0.00000
19.70672,164.42369,169.29857,169.29858,194.82535,0.25858,-10.12512,1.11559,0.09663,-0.01982,0.00000,0.00000,0.00000,1.55192,12.21993,59.47691,60.07969,0.84870,30.29492,-87.49204,2147.97144,2143.97705,0.00000,2144.25513,764.87921,570.15179,-32833.85156,75.15980,0.97959,-43.99472,0.62353,0.62353,532.11102,532.20349,849.87653,851.21124,1400.95374,1401.35742,1996.52502,1996.29834,1996.52502,1996.29834,17.02658,17.00870,86.15426,86.15426,99.82821,99.81680,372.42059,372.48703,505.07944,505.07944,511.23801,511.23801,178.91156,178.91162,15.06211,15.06211,0.00000,0.00000,0.00000,0.00000,0.00000,0.00000
19.70675,164.56009,169.43651,169.43651,194.98405,0.25879,17.10761,1.11083,0.09615,-0.01964,0.00000,0.00000,0.00000,1.59627,12.82606,59.63685,60.23970,0.82414,30.29497,-87.49196,2148.43579,2144.22803,0.00000,2144.70947,773.18494,570.26733,-32838.69531,75.34223,1.08019,-43.82050,0.62353,0.62353,532.15289,532.24359,849.14417,850.52368,1401.14111,1401.53723,1996.42065,1996.19800,1996.42065,1996.19800,17.04175,17.02295,86.15426,86.15426,99.82271,99.81151,372.45193,372.51736,505.28543,505.28543,511.31262,511.31262,178.92668,178.92674,15.06215,15.06215,0.00000,0.00000,0.00000,0.00000,0.00000,0.00000
19.70678,164.69164,169.57051,169.57051,195.13828,0.25899,43.13650,1.10614,0.09569,-0.01946,0.00000,0.00000,0.00000,1.63531,13.38557,59.80099,60.40390,0.80022,30.29501,-87.49187,2148.92725,2144.65405,0.00000,2145.19263,781.40112,570.39172,-32843.45312,75.52637,1.17207,-43.63797,0.62353,0.62353,532.19049,532.27942,848.52167,849.94025,1401.31079,1401.69922,1996.32214,1996.10376,1996.32214,1996.10376,17.05675,17.03705,86.15426,86.15426,99.81767,99.80669,372.48126,372.54559,505.48309,505.48309,511.38220,511.38220,178.94154,178.94159,15.06218,15.06218,0.00000,0.00000,0.00000,0.00000,0.00000,0.00000
19.70681,164.81836,169.70184,169.70183,195.28938,0.25919,68.11163,1.10159,0.09527,-0.01926,0.00000,0.00000,0.00000,1.66956,13.90377,59.97005,60.57302,0.77679,30.29505,-87.49178,2149.44629,2145.33374,0.00000,2145.69727,789.58698,570.52466,-32848.16016,75.71300,1.25623,-43.44689,0.62353,0.62353,532.22485,532.31207,848.02051,849.47040,1401.46729,1401.84839,1996.22559,1996.01135,1996.22559,1996.01135,17.07158,17.05102,86.15426,86.15426,99.81297,99.80219,372.50876,372.57196,505.67422,505.67422,511.44757,511.44757,178.95625,178.95628,15.06220,15.06220,0.00000,0.00000,0.00000,0.00000,0.00000,0.00000
19.70685,164.94655,169.83322,169.83322,195.44058,0.25939,92.46983,1.09699,0.09484,-0.01904,0.00000,0.00000,0.00000,1.69966,14.39115,60.14714,60.75018,0.75337,30.29509,-87.49170,2150.00098,2145.85229,0.00000,2146.24243,797.90674,570.66821,-32852.91016,75.90547,1.33443,-43.24411,0.62353,0.62353,532.25891,532.34442,847.41199,848.89801,1401.62341,1401.99695,1996.13245,1995.92261,1996.13245,1995.92261,17.08614,17.06474,86.15426,86.15426,99.80824,99.79767,372.53519,372.59723,505.86273,505.86273,511.51022,511.51022,178.97110,178.97112,15.06223,15.06223,0.00000,0.00000,0.00000,0.00000,0.00000,0.00000
