"Time_Hours","Vel_Indicated_kts","Vel_True_kts","Vel_Ground_kts","Vel_Groupn_mph","Vel_Mach","Vel_Vertical_fpm","GLoad_normal","GLoad_axial","GLoad_side","Flaps_Handle","Flaps_Position","Gear","Pitch_deg","Roll_deg","Heading_True","Heading_Mag","AngleOfAttack","Latitude","Longitude","Altitude_FtMsl","Altitude_FtAgl","RunwayThreshold","Altitude_Indicated","X","Y","Z","vX","vY","vZ","Eng1_Throttle","Eng2_Throttle","Eng1_Power_hp","Eng2_Power_hp","Eng1_Thrust_lb","Eng2_Thrust_lb","Eng1_Torque_lb","Eng2_Torque_lb","Eng1_EngineRPM","Eng2_EngineRPM","Eng1_PropRPM","Eng2_PropRPM","Eng1_PropPitch_deg","Eng2_PropPitch_deg","Eng1_N1","Eng2_N1","Eng1_N2","Eng2_N2","Eng1_FuelFlow","Eng2_FuelFlow","Eng1_ITT","Eng2_ITT","Eng1_EGT","Eng2_EGT","Eng1_CHT","Eng2_CHT","Eng1_OilPress_psi","Eng2_OilPress_psi","MasterCaution","MasterWarn","MasterAccept","FuelQuantity","HydPress","AutoThrottle"
19.70410,144.70934,154.91870,154.91864,178.27719,0.23663,903.88641,1.03980,0.05440,-0.05866,0.00000,0.00000,0.00000,4.24857,-0.70196,67.61057,68.20778,1.02103,30.29182,-87.49924,2171.74805,2139.33154,0.00000,2119.93311,73.61723,579.21423,-32488.19727,74.17968,4.50548,-28.78703,0.24036,0.24036,322.06024,322.07483,566.05731,568.28253,843.77948,843.82922,2004.11060,2004.03247,2004.11060,2004.03247,16.39476,16.39305,81.27449,81.27449,100.31895,100.31757,330.83734,330.83609,496.28165,496.28165,503.86127,503.86127,178.40440,178.40440,15.04742,15.04742,0.00000,0.00000,0.00000,0.00000,0.00000,0.00000
19.70413,145.20683,154.84558,154.84554,178.19307,0.23652,902.99829,0.88241,0.01958,-0.04856,0.00000,0.00000,0.00000,3.85628,-0.91276,67.75758,68.35485,0.67962,30.29184,-87.49916,2173.20288,2140.70703,0.00000,2125.77905,80.74052,579.64349,-32490.96484,74.12795,4.43493,-28.82712,0.27238,0.27238,188.55838,188.67651,402.08853,405.26535,496.55417,496.91638,1992.39380,1992.12549,1992.39380,1992.12549,15.66226,15.64653,77.13878,77.13878,99.80540,99.79514,291.48267,291.48898,492.60519,492.60519,496.21103,496.21103,178.37636,178.37636,15.00601,15.00601,0.00000,0.00000,0.00000,0.00000,0.00000,0.00000
19.70415,145.58781,154.72208,154.72202,178.05093,0.23633,900.53552,0.84790,-0.00872,-0.03429,0.00000,0.00000,0.00000,3.69975,-1.09988,67.96215,68.55948,0.62043,30.29187,-87.49908,2174.60425,2142.55518,0.00000,2131.17798,87.78658,580.05658,-32493.70898,74.05959,4.29486,-28.84852,0.30409,0.30409,135.49045,135.71039,259.05112,261.76398,358.45895,359.10861,1984.85034,1984.43396,1984.85034,1984.43396,14.95826,14.92829,75.09235,75.09235,99.34455,99.32581,254.16119,254.18738,489.61536,489.61536,490.11182,490.11182,178.34045,178.34048,14.94551,14.94551,0.00000,0.00000,0.00000,0.00000,0.00000,0.00000
19.70418,145.88222,154.57611,154.57607,177.88297,0.23611,896.01953,0.87411,-0.01904,-0.01961,0.00000,0.00000,0.00000,3.71525,-1.28252,68.19050,68.78788,0.72266,30.29189,-87.49902,2175.94312,2144.46094,0.00000,2136.08569,94.72298,580.45087,-32496.41211,73.98378,4.16628,-28.85480,0.33533,0.33533,118.68168,118.95984,199.40134,201.22400,314.79544,315.60870,1980.63672,1980.14771,1980.63672,1980.14771,14.53446,14.49497,74.34297,74.34297,99.09005,99.06636,226.96643,227.01646,487.19919,487.19919,485.29575,485.29575,178.30193,178.30200,14.88079,14.88079,0.00000,0.00000,0.00000,0.00000,0.00000,0.00000
19.70421,146.12035,154.42027,154.42023,177.70363,0.23588,889.90570,0.91670,-0.02045,-0.00617,0.00000,0.00000,0.00000,3.81064,-1.47663,68.42268,69.02011,0.87896,30.29192,-87.49894,2177.26050,2147.01562,0.00000,2140.68677,101.71059,580.83832,-32499.13867,73.90467,4.07120,-28.85028,0.36683,0.36683,120.59741,120.88725,182.64984,183.62239,320.34058,321.19141,1978.36462,1977.87061,1978.36462,1977.87061,14.26028,14.21659,74.35239,74.35239,98.94659,98.92166,209.23271,209.30284,485.21448,485.21448,481.44739,481.44739,178.26320,178.26332,14.81827,14.81827,0.00000,0.00000,0.00000,0.00000,0.00000,0.00000
19.70424,146.36197,154.22371,154.22368,177.47745,0.23558,881.10870,0.96164,-0.01485,0.00975,0.00000,0.00000,0.00000,3.92938,-1.74964,68.68952,69.28703,1.03461,30.29195,-87.49885,2178.90625,2149.53003,0.00000,2146.08813,110.58630,581.32220,-32502.60547,73.80623,4.00459,-28.83335,0.40690,0.40690,139.87320,140.12495,201.67244,201.59183,371.81451,372.56702,1977.40894,1976.99231,1977.40894,1976.99231,14.06531,14.02303,75.05370,75.05370,98.87421,98.85210,198.16013,198.24339,483.27277,483.27277,477.83148,477.83148,178.21758,178.21777,14.74937,14.74937,0.00000,0.00000,0.00000,0.00000,0.00000,0.00000
19.70427,146.51485,154.09015,154.09012,177.32375,0.23537,874.70728,0.97507,-0.00799,0.01819,0.00000,0.00000,0.00000,3.97550,-1.97305,68.84615,69.44371,1.09152,30.29197,-87.49878,2180.08643,2151.75171,0.00000,2149.68164,117.00392,581.66901,-32505.11328,73.74007,3.97807,-28.81730,0.43590,0.43590,162.35011,162.54834,233.14609,232.47777,431.54889,432.15341,1977.77319,1977.45520,1977.77319,1977.45520,14.00593,13.96849,75.87617,75.87617,98.87749,98.85973,196.27187,196.35451,482.23587,482.23587,476.00684,476.00684,178.18864,178.18889,14.70925,14.70925,0.00000,0.00000,0.00000,0.00000,0.00000,0.00000
19.70429,146.66354,153.96268,153.96265,177.17706,0.23518,868.15680,0.97644,0.00163,0.02456,0.00000,0.00000,0.00000,3.98390,-2.24178,68.96873,69.56634,1.10802,30.29199,-87.49871,2181.33057,2153.76147,0.00000,2153.26147,123.80250,582.03461,-32507.77148,73.67734,3.95519,-28.80060,0.46665,0.46665,192.66058,192.78995,281.22186,280.11401,511.87128,512.27649,1978.99646,1978.80225,1978.99646,1978.80225,14.01240,13.98250,76.94781,76.94781,98.92519,98.91331,198.54190,198.61586,481.44733,481.44733,474.72580,474.72580,178.16255,178.16281,14.67648,14.67648,0.00000,0.00000,0.00000,0.00000,0.00000,0.00000
19.70432,146.80344,153.85483,153.85478,177.05293,0.23502,861.85608,0.96806,0.01344,0.02833,0.00000,0.00000,0.00000,3.96087,-2.53817,69.04294,69.64060,1.09651,30.29202,-87.49864,2182.56860,2155.74951,0.00000,2156.65601,130.60129,582.39819,-32510.42969,73.62421,3.92905,-28.78752,0.49743,0.49743,228.50421,228.56041,342.18588,340.78979,606.58130,606.76300,1980.86743,1980.80334,1980.86743,1980.80334,14.08147,14.06072,78.15144,78.15144,99.01022,99.00491,204.39369,204.45262,480.96469,480.96469,474.07449,474.07449,178.14172,178.14200,14.65410,14.65410,0.00000,0.00000,0.00000,0.00000,0.00000,0.00000
19.70435,146.93858,153.77292,153.77290,176.95871,0.23489,855.88538,0.96085,0.02612,0.02946,0.00000,0.00000,0.00000,3.92524,-2.85940,69.06851,69.66623,1.07875,30.29204,-87.49857,2183.75635,2157.90381,0.00000,2159.73901,137.17079,582.74701,-32512.99805,73.58298,3.89665,-28.78152,0.52718,0.52718,267.67279,267.66458,408.39441,406.80823,709.78613,709.75867,1983.20740,1983.26184,1983.20740,1983.26184,14.19530,14.18361,79.39005,79.39005,99.11777,99.11858,212.80673,212.84732,480.77798,480.77798,474.00772,474.00772,178.12695,178.12724,14.64218,14.64218,0.00000,0.00000,0.00000,0.00000,0.00000,0.00000
19.70438,147.12114,153.70442,153.70439,176.87987,0.23479,848.14270,0.95221,0.04508,0.02785,0.00000,0.00000,0.00000,3.86622,-3.33368,69.03998,69.63776,1.05133,30.29207,-87.49848,2185.27734,2160.43555,0.00000,2163.48755,145.66437,583.19348,-32516.32227,73.54525,3.84700,-28.78780,0.56567,0.56567,324.11435,324.03836,507.16193,505.45459,857.91412,857.64600,1986.87671,1987.06030,1986.87671,1987.06030,14.41721,14.41655,81.05219,81.05219,99.29543,99.30318,226.95122,226.96666,480.93036,480.93036,474.69360,474.69360,178.11604,178.11633,14.64009,14.64009,0.00000,0.00000,0.00000,0.00000,0.00000,0.00000
19.70441,147.31201,153.68272,153.68271,176.85490,0.23476,840.50604,0.94529,0.06499,0.02434,0.00000,0.00000,0.00000,3.79787,-3.85170,68.95918,69.55702,1.02213,30.29210,-87.49840,2186.72168,2162.98291,0.00000,2166.83960,153.83627,583.61725,-32519.52344,73.52631,3.79206,-28.81281,0.60271,0.60271,383.95749,383.83960,611.02386,609.29254,1014.28430,1013.84430,1990.95679,1991.22742,1990.95679,1991.22742,14.69395,14.70181,82.67530,82.67530,99.49430,99.50692,243.42339,243.41679,481.48343,481.48343,476.12933,476.12933,178.11449,178.11478,14.65107,14.65107,0.00000,0.00000,0.00000,0.00000,0.00000,0.00000
19.70444,147.52333,153.70752,153.70750,176.88345,0.23480,832.62354,0.94036,0.08579,0.01992,0.00000,0.00000,0.00000,3.71512,-4.42923,68.84216,69.44006,0.98561,30.29213,-87.49831,2188.13477,2165.31323,0.00000,2169.93188,161.94843,584.03156,-32522.70508,73.52493,3.73223,-28.85910,0.62353,0.62353,443.25336,443.11487,719.85126,718.14105,1168.39722,1167.84973,1995.21387,1995.53491,1995.21387,1995.53491,15.01858,15.03248,84.16624,84.16624,99.70945,99.72502,263.77237,263.73666,482.39288,482.39288,478.22006,478.22006,178.12166,178.12193,14.67306,14.67306,0.00000,0.00000,0.00000,0.00000,0.00000,0.00000
19.70448,147.76250,153.77620,153.77620,176.96249,0.23490,824.19562,0.93038,0.10222,0.01508,0.00000,0.00000,0.00000,3.61141,-5.07802,68.70167,69.29964,0.93827,30.29216,-87.49823,2189.54956,2167.69092,0.00000,2172.88086,170.20805,584.44598,-32525.95117,73.53904,3.66277,-28.92883,0.62353,0.62353,481.65814,481.51224,806.82849,805.16364,1267.50647,1266.90808,1998.09705,1998.43689,1998.09705,1998.43689,15.29274,15.31051,85.08134,85.08134,99.87655,99.89346,290.58774,290.52295,483.33099,483.33099,480.30582,480.30582,178.13503,178.13528,14.70286,14.70286,0.00000,0.00000,0.00000,0.00000,0.00000,0.00000
19.70451,148.01878,153.87679,153.87677,177.07823,0.23506,814.96497,0.92183,0.11170,0.01043,0.00000,0.00000,0.00000,3.49891,-5.79293,68.54989,69.14793,0.89361,30.29219,-87.49814,2190.96899,2170.20654,0.00000,2175.69653,178.66756,584.86145,-32529.28516,73.56216,3.58063,-29.02171,0.62353,0.62353,503.89523,503.75357,858.32690,856.79248,1324.85669,1324.26233,1999.55493,1999.88538,1999.55493,1999.88538,15.46213,15.48160,85.59126,85.59126,99.96458,99.98132,315.53284,315.45114,484.21585,484.21585,482.22662,482.22662,178.15207,178.15230,14.73585,14.73585,0.00000,0.00000,0.00000,0.00000,0.00000,0.00000
19.70454,148.21103,153.96378,153.96376,177.17834,0.23519,807.61853,0.91775,0.11569,0.00753,0.00000,0.00000,0.00000,3.41638,-6.34944,68.43916,69.03725,0.86600,30.29221,-87.49808,2192.00195,2172.17407,0.00000,2177.68066,184.95047,585.16345,-32531.76758,73.58125,3.51401,-29.10346,0.62353,0.62353,513.52039,513.38672,880.80029,879.40045,1349.74402,1349.17773,2000.02966,2000.34094,2000.02966,2000.34094,15.54073,15.56035,85.80688,85.80688,99.99564,100.01157,330.26440,330.17694,484.83823,484.83823,483.54620,483.54620,178.16599,178.16621,14.76013,14.76013,0.00000,0.00000,0.00000,0.00000,0.00000,0.00000
19.70457,148.40955,154.06337,154.06335,177.29295,0.23534,799.33325,0.91440,0.11815,0.00526,0.00000,0.00000,0.00000,3.33071,-6.95909,68.32831,68.92645,0.84115,30.29223,-87.49801,2193.07544,2173.77686,0.00000,2179.63843,191.61069,585.47693,-32534.40820,73.60136,3.43926,-29.20087,0.62353,0.62353,519.88696,519.76459,895.33197,894.10541,1366.29639,1365.77417,2000.21277,2000.49609,2000.21277,2000.49609,15.59626,15.61540,85.94705,85.94705,100.00894,100.02363,342.29129,342.20258,485.47375,485.47375,484.86523,484.86523,178.18143,178.18166,14.78485,14.78485,0.00000,0.00000,0.00000,0.00000,0.00000,0.00000
19.70460,148.66563,154.19916,154.19913,177.44920,0.23555,787.86963,0.91155,0.11978,0.00387,0.00000,0.00000,0.00000,3.22496,-7.76560,68.19924,68.79745,0.81553,30.29226,-87.49792,2194.42261,2176.39624,0.00000,2182.07690,200.17831,585.86993,-32537.81641,73.62553,3.33806,-29.34102,0.62353,0.62353,524.54553,524.44086,905.91693,904.88690,1378.52771,1378.07849,2000.16431,2000.40686,2000.16431,2000.40686,15.64389,15.66152,86.04762,86.04762,100.00979,100.02242,353.11316,353.02826,486.26123,486.26123,486.45764,486.45764,178.20192,178.20215,14.81449,14.81449,0.00000,0.00000,0.00000,0.00000,0.00000,0.00000
19.70464,148.90724,154.33887,154.33887,177.61000,0.23577,775.66766,0.91008,0.12041,0.00379,0.00000,0.00000,0.00000,3.12539,-8.57942,68.08793,68.68621,0.79493,30.29229,-87.49783,2195.71216,2178.68970,0.00000,2184.30688,208.62767,586.24548,-32541.19336,73.64648,3.23417,-29.49407,0.62353,0.62353,526.99756,526.90997,911.17554,910.29584,1385.09460,1384.71741,1999.96118,2000.16418,1999.96118,2000.16418,15.67563,15.69152,86.09885,86.09885,100.00092,100.01153,359.98367,359.90649,487.00992,487.00992,487.92798,487.92798,178.22252,178.22275,14.84109,14.84109,0.00000,0.00000,0.00000,0.00000,0.00000,0.00000
19.70467,149.13409,154.47739,154.47739,177.76939,0.23598,763.10034,0.90903,0.12057,0.00480,0.00000,0.00000,0.00000,3.03277,-9.37505,67.99443,68.59277,0.77705,30.29232,-87.49774,2196.91528,2181.02881,0.00000,2186.32007,216.75499,586.59528,-32544.45898,73.66357,3.13104,-29.65402,0.62353,0.62353,528.29358,528.22064,913.76593,912.97113,1388.67346,1388.35876,1999.70288,1999.87244,1999.70288,1999.87244,15.69903,15.71334,86.12466,86.12466,99.98849,99.99734,364.16464,364.09656,487.70709,487.70709,489.25833,489.25833,178.24252,178.24275,14.86419,14.86419,0.00000,0.00000,0.00000,0.00000,0.00000,0.00000
19.70469,149.30583,154.59245,154.59244,177.90181,0.23616,752.31464,0.90819,0.12058,0.00628,0.00000,0.00000,0.00000,2.95877,-10.02984,67.92618,68.52457,0.76263,30.29235,-87.49767,2197.86426,2182.50049,0.00000,2187.80322,223.35773,586.87073,-32547.12500,73.67525,3.04501,-29.79232,0.62353,0.62353,528.92700,528.86322,915.23547,914.47186,1390.48816,1390.21277,1999.45996,1999.60742,1999.45996,1999.60742,15.71595,15.72932,86.13652,86.13652,99.97772,99.98547,366.40332,366.34277,488.25845,488.25845,490.28436,490.28436,178.25885,178.25908,14.88128,14.88128,0.00000,0.00000,0.00000,0.00000,0.00000,0.00000
19.70471,149.44008,154.68506,154.68504,178.00838,0.23630,743.41687,0.90729,0.12043,0.00785,0.00000,0.00000,0.00000,2.90016,-10.55486,67.87508,68.47351,0.75069,30.29236,-87.49762,2198.59766,2184.15674,0.00000,2188.93335,228.58914,587.08325,-32549.24609,73.68320,2.97534,-29.90670,0.62353,0.62353,529.27832,529.22058,915.60748,914.81415,1391.54578,1391.29614,1999.26001,1999.39465,1999.26001,1999.39465,15.72694,15.73974,86.14250,86.14250,99.96809,99.97512,367.67102,367.61603,488.68643,488.68643,491.06522,491.06522,178.27184,178.27206,14.89383,14.89383,0.00000,0.00000,0.00000,0.00000,0.00000,0.00000
19.70473,149.58397,154.78647,154.78647,178.12511,0.23645,733.44818,0.90608,0.12021,0.00975,0.00000,0.00000,0.00000,2.83653,-11.12599,67.82068,68.41916,0.73731,30.29239,-87.49757,2199.37134,2185.34546,0.00000,2190.12280,234.24248,587.30707,-32551.54688,73.69046,2.89833,-30.03499,0.62353,0.62353,529.55304,529.50000,915.76172,914.90643,1392.41260,1392.18286,1999.05176,1999.17773,1999.05176,1999.17773,15.73808,15.75056,86.14674,86.14674,99.95772,99.96419,368.67023,368.62061,489.14026,489.14026,491.87811,491.87811,178.28587,178.28612,14.90646,14.90646,0.00000,0.00000,0.00000,0.00000,0.00000,0.00000
19.70476,149.73238,154.89453,154.89453,178.24945,0.23662,722.57672,0.90454,0.11995,0.01176,0.00000,0.00000,0.00000,2.76921,-11.73017,67.76225,68.36076,0.72313,30.29241,-87.49751,2200.16235,2187.09497,0.00000,2191.31836,240.18135,587.53564,-32553.97656,73.69659,2.81519,-30.17497,0.62353,0.62353,529.76099,529.71045,915.90094,914.95398,1393.10425,1392.88538,1998.83875,1998.96130,1998.83875,1998.96130,15.74970,15.76222,86.14954,86.14954,99.94732,99.95349,369.41684,369.37195,489.60751,489.60751,492.69870,492.69870,178.30063,178.30089,14.91874,14.91874,0.00000,0.00000,0.00000,0.00000,0.00000,0.00000
19.70479,149.96141,155.06044,155.06044,178.44037,0.23687,705.37848,0.90197,0.11943,0.01490,0.00000,0.00000,0.00000,2.66614,-12.64895,67.66673,68.26533,0.70197,30.29244,-87.49741,2201.31396,2189.42310,0.00000,2193.07349,249.14258,587.86743,-32557.66406,73.70278,2.68511,-30.39638,0.62353,0.62353,529.98669,529.93579,915.49896,914.36316,1393.91626,1393.69568,1998.54602,1998.67322,1998.54602,1998.67322,15.76566,15.77900,86.15190,86.15190,99.93165,99.93787,370.14716,370.10706,490.29453,490.29453,493.87469,493.87469,178.32291,178.32318,14.93548,14.93548,0.00000,0.00000,0.00000,0.00000,0.00000,0.00000
19.70482,150.17775,155.22580,155.22580,178.63066,0.23713,687.64813,0.89951,0.11893,0.01748,0.00000,0.00000,0.00000,2.56282,-13.55229,67.55959,68.15826,0.68195,30.29247,-87.49731,2202.38696,2191.40259,0.00000,2194.66162,257.88925,588.17566,-32561.28906,73.70508,2.55255,-30.62474,0.62353,0.62353,530.14075,530.08533,915.25800,913.90582,1394.51526,1394.27490,1998.27454,1998.41565,1998.27454,1998.41565,15.78165,15.79661,86.15302,86.15302,99.91776,99.92455,370.57571,370.53729,490.94479,490.94479,494.95410,494.95410,178.34464,178.34492,14.94994,14.94994,0.00000,0.00000,0.00000,0.00000,0.00000,0.00000
19.70485,150.36575,155.37067,155.37067,178.79738,0.23735,671.62787,0.89794,0.11852,0.01950,0.00000,0.00000,0.00000,2.47113,-14.33130,67.45346,68.05219,0.66544,30.29250,-87.49724,2203.26855,2193.23828,0.00000,2195.97095,265.40787,588.42798,-32564.42578,73.70377,2.43402,-30.83129,0.62353,0.62353,530.24316,530.18109,914.98505,913.43292,1394.93762,1394.66809,1998.06726,1998.22522,1998.06726,1998.22522,15.79563,15.81258,86.15351,86.15351,99.90681,99.91442,370.81171,370.77246,491.48795,491.48795,495.83011,495.83011,178.36331,178.36360,14.96102,14.96102,0.00000,0.00000,0.00000,0.00000,0.00000,0.00000
19.70487,150.53697,155.51057,155.51057,178.95839,0.23756,655.76416,0.89571,0.11811,0.02052,0.00000,0.00000,0.00000,2.38072,-15.07381,67.33906,67.93784,0.65027,30.29253,-87.49716,2204.06787,2194.92896,0.00000,2197.10620,272.53986,588.65607,-32567.42383,73.69955,2.31734,-31.03634,0.62353,0.62353,530.32684,530.25775,914.73151,913.00354,1395.29504,1394.99463,1997.87158,1998.04736,1997.87158,1998.04736,15.80875,15.82781,86.15377,86.15377,99.89699,99.90547,370.96799,370.92627,491.99030,491.99030,496.61993,496.61993,178.38100,178.38129,14.97052,14.97052,0.00000,0.00000,0.00000,0.00000,0.00000,0.00000
19.70490,150.71591,155.66122,155.66122,179.13174,0.23779,638.28253,0.89372,0.11768,0.01890,0.00000,0.00000,0.00000,2.28081,-15.86449,67.20433,67.80317,0.63397,30.29256,-87.49709,2204.87158,2196.66772,0.00000,2198.22241,280.07950,588.88446,-32570.61328,73.69147,2.18944,-31.26384,0.62353,0.62353,530.40851,530.33185,914.20239,912.33398,1395.65137,1395.31799,1997.67334,1997.86731,1997.67334,1997.86731,15.82199,15.84339,86.15392,86.15392,99.88686,99.89628,371.08929,371.04388,492.50830,492.50830,497.41434,497.41434,178.39967,178.39996,14.97960,14.97960,0.00000,0.00000,0.00000,0.00000,0.00000,0.00000
19.70493,150.89362,155.81450,155.81450,179.30814,0.23803,620.07867,0.89384,0.11738,0.01647,0.00000,0.00000,0.00000,2.18480,-16.64603,67.06601,67.66491,0.62261,30.29259,-87.49701,2205.62964,2198.47705,0.00000,2199.26758,287.59860,589.09882,-32573.82031,73.67861,2.05637,-31.50433,0.62353,0.62353,530.47589,530.39630,913.62927,912.02368,1395.95068,1395.60461,1997.50183,1997.69421,1997.50183,1997.69421,15.83631,15.85923,86.15400,86.15400,99.87813,99.88791,371.18173,371.13220,493.01184,493.01184,498.16675,498.16675,178.41826,178.41855,14.98777,14.98777,0.00000,0.00000,0.00000,0.00000,0.00000,0.00000
19.70495,151.07736,155.97488,155.97487,179.49269,0.23827,600.56561,0.89684,0.11674,0.00848,0.00000,0.00000,0.00000,2.09341,-17.40642,66.94168,67.54064,0.61011,30.29262,-87.49693,2206.36230,2200.16992,0.00000,2200.27466,295.32550,589.30475,-32577.14258,73.65859,1.91661,-31.76889,0.62353,0.62353,530.54004,530.47003,912.59595,911.61371,1396.23743,1395.93250,1997.34717,1997.50378,1997.34717,1997.50378,15.85093,15.87309,86.15405,86.15405,99.86969,99.87832,371.25580,371.20419,493.51611,493.51611,498.90082,498.90082,178.43733,178.43762,14.99533,14.99533,0.00000,0.00000,0.00000,0.00000,0.00000,0.00000
19.70498,151.25531,156.13774,156.13774,179.68011,0.23852,580.29492,0.89477,0.11620,0.01451,0.00000,0.00000,0.00000,2.00679,-18.10985,66.85372,67.45275,0.58933,30.29265,-87.49685,2207.04541,2201.92725,0.00000,2201.19165,303.03754,589.49554,-32580.49023,73.63473,1.77405,-32.04303,0.62353,0.62353,530.58655,530.54242,911.85071,911.51312,1396.44861,1396.25647,1997.21790,1997.30298,1997.21790,1997.30298,15.86791,15.88597,86.15408,86.15408,99.86334,99.86878,371.31506,371.26727,494.00644,494.00644,499.59583,499.59583,178.45633,178.45662,15.00211,15.00211,0.00000,0.00000,0.00000,0.00000,0.00000,0.00000
19.70501,151.44154,156.30386,156.30385,179.87126,0.23878,559.17566,0.89089,0.11535,0.02164,0.00000,0.00000,0.00000,1.92393,-18.75752,66.78806,67.38715,0.56547,30.29268,-87.49677,2207.68115,2203.54688,0.00000,2202.07227,310.77179,589.67163,-32583.87500,73.60993,1.62659,-32.32094,0.62353,0.62353,530.63702,530.61688,910.89703,910.47821,1396.67627,1396.58875,1997.09375,1997.13208,1997.09375,1997.13208,15.88363,15.89760,86.15409,86.15409,99.85655,99.85903,371.36298,371.32562,494.48547,494.48547,500.25702,500.25702,178.47534,178.47563,15.00822,15.00822,0.00000,0.00000,0.00000,0.00000,0.00000,0.00000
19.70504,151.61205,156.46338,156.46336,180.05482,0.23902,538.44342,0.88768,0.11447,0.02353,0.00000,0.00000,0.00000,1.85113,-19.32311,66.74104,67.34019,0.54350,30.29271,-87.49669,2208.23560,2203.77612,0.00000,2202.81860,318.08786,589.82379,-32587.10547,73.58446,1.48163,-32.58907,0.62353,0.62353,530.68018,530.67169,910.29327,910.09540,1396.87146,1396.83447,1996.97583,1996.98425,1996.97583,1996.98425,15.89878,15.91076,86.15409,86.15409,99.85072,99.85177,371.40240,371.37619,494.92709,494.92709,500.85083,500.85083,178.49327,178.49356,15.01343,15.01343,0.00000,0.00000,0.00000,0.00000,0.00000,0.00000
19.70506,151.77750,156.62201,156.62202,180.23741,0.23927,517.35370,0.88525,0.11326,0.01992,0.00000,0.00000,0.00000,1.78900,-19.82668,66.71652,67.31573,0.52304,30.29273,-87.49661,2208.73364,2203.64917,0.00000,2203.49170,325.27097,589.95892,-32590.30664,73.55672,1.33455,-32.85864,0.62353,0.62353,530.72156,530.72681,909.53363,909.69116,1397.05774,1397.08057,1996.86804,1996.83972,1996.86804,1996.83972,15.91341,15.92284,86.15409,86.15409,99.84519,99.84455,371.43738,371.42108,495.35019,495.35019,501.40561,501.40561,178.51083,178.51114,15.01806,15.01806,0.00000,0.00000,0.00000,0.00000,0.00000,0.00000
19.70509,151.93929,156.78148,156.78148,180.42091,0.23951,495.63940,0.88273,0.11209,0.02495,0.00000,0.00000,0.00000,1.74182,-20.28524,66.72630,67.32555,0.50418,30.29276,-87.49654,2209.18213,2203.77344,0.00000,2204.10156,332.41266,590.07880,-32593.51367,73.52737,1.18423,-33.13020,0.62353,0.62353,530.75690,530.78613,908.56226,909.32416,1397.21631,1397.34399,1996.78088,1996.68896,1996.78088,1996.68896,15.92869,15.93341,86.15409,86.15409,99.84051,99.83689,371.46924,371.46341,495.76080,495.76080,501.93088,501.93088,178.52826,178.52856,15.02223,15.02223,0.00000,0.00000,0.00000,0.00000,0.00000,0.00000
19.70512,152.09314,156.93974,156.93974,180.60303,0.23975,473.55148,0.88051,0.11102,0.03496,0.00000,0.00000,0.00000,1.71035,-20.69563,66.77090,67.37022,0.48645,30.29279,-87.49647,2209.57690,2203.41431,0.00000,2204.63843,339.43970,590.18243,-32596.69922,73.49813,1.03407,-33.39734,0.62353,0.62353,530.78809,530.84375,907.81549,909.11249,1397.35559,1397.59863,1996.69885,1996.53979,1996.69885,1996.53979,15.94411,15.94339,86.15409,86.15409,99.83643,99.82954,371.49725,371.50476,496.15524,496.15524,502.42328,502.42328,178.54535,178.54565,15.02595,15.02595,0.00000,0.00000,0.00000,0.00000,0.00000,0.00000
19.70514,152.24313,157.10040,157.10039,180.78792,0.24000,450.53845,0.87975,0.10926,0.03586,0.00000,0.00000,0.00000,1.69464,-21.05823,66.85474,67.45412,0.46850,30.29282,-87.49639,2209.92773,2203.42627,0.00000,2205.12256,346.54083,590.27246,-32599.94336,73.46688,0.87999,-33.66932,0.62353,0.62353,530.82422,530.90320,906.93427,908.97693,1397.51538,1397.85974,1996.61096,1996.38733,1996.61096,1996.38733,15.95856,15.95268,86.15409,86.15409,99.83181,99.82206,371.52332,371.54630,496.54449,496.54449,502.89752,502.89752,178.56256,178.56288,15.02936,15.02936,0.00000,0.00000,0.00000,0.00000,0.00000,0.00000
19.70517,152.38791,157.26749,157.26747,180.98018,0.24025,425.89380,0.87700,0.10697,0.03697,0.00000,0.00000,0.00000,1.70296,-21.36922,67.00275,67.60218,0.45027,30.29285,-87.49632,2210.24072,2203.33374,0.00000,2205.55737,353.92471,590.35010,-32603.34766,73.43272,0.71732,-33.95295,0.62353,0.62353,530.85883,530.97406,906.24060,909.15393,1397.66687,1398.17004,1996.52075,1996.20068,1996.52075,1996.20068,15.97387,15.95995,86.15409,86.15409,99.82749,99.81323,371.54962,371.59009,496.93958,496.93958,503.36703,503.36703,178.58041,178.58076,15.03258,15.03258,0.00000,0.00000,0.00000,0.00000,0.00000,0.00000
19.70520,152.51854,157.43340,157.43340,181.17113,0.24051,400.73346,0.87386,0.10602,0.05909,0.00000,0.00000,0.00000,1.73502,-21.61923,67.20937,67.80885,0.43286,30.29288,-87.49624,2210.49902,2203.88208,0.00000,2205.93066,361.25638,590.41101,-32606.75781,73.40237,0.55711,-34.22399,0.62353,0.62353,530.89331,531.05267,905.80774,909.21814,1397.81689,1398.51306,1996.42786,1996.00525,1996.42786,1996.00525,15.98874,15.96482,86.15409,86.15409,99.82326,99.80353,371.57510,371.63742,497.32227,497.32227,503.81036,503.81036,178.59810,178.59845,15.03546,15.03546,0.00000,0.00000,0.00000,0.00000,0.00000,0.00000
19.70522,152.63509,157.59584,157.59586,181.35809,0.24076,375.38516,0.87039,0.10444,0.07522,0.00000,0.00000,0.00000,1.78142,-21.81629,67.45232,68.05187,0.41585,30.29291,-87.49617,2210.70337,2204.12329,0.00000,2206.24292,368.47507,590.45551,-32610.14062,73.37617,0.40076,-34.47931,0.62353,0.62353,530.94238,531.12933,905.57831,909.06152,1398.02917,1398.84619,1996.30469,1995.82593,1996.30469,1995.82593,16.00022,15.96898,86.15409,86.15409,99.81733,99.79416,371.60110,371.68710,497.68988,497.68988,504.22562,504.22562,178.61543,178.61581,15.03802,15.03802,0.00000,0.00000,0.00000,0.00000,0.00000,0.00000
19.70525,152.73218,157.74644,157.74644,181.53139,0.24099,351.18564,0.86698,0.10166,0.07650,0.00000,0.00000,0.00000,1.83435,-21.96295,67.70646,68.30606,0.40032,30.29294,-87.49609,2210.84985,2204.44214,0.00000,2206.48120,375.24030,590.48352,-32613.33398,73.35344,0.25412,-34.71053,0.62353,0.62353,530.99963,531.19708,905.49127,909.17352,1398.27625,1399.13953,1996.16455,1995.66223,1996.16455,1995.66223,16.00840,15.97295,86.15409,86.15409,99.81045,99.78596,371.62961,371.73489,498.02625,498.02625,504.59644,504.59644,178.63164,178.63203,15.04020,15.04020,0.00000,0.00000,0.00000,0.00000,0.00000,0.00000
19.70527,152.80435,157.88774,157.88774,181.69397,0.24120,327.66971,0.86325,0.09871,0.08014,0.00000,0.00000,0.00000,1.90477,-22.07738,67.99758,68.59724,0.38707,30.29297,-87.49603,2210.94897,2204.35376,0.00000,2206.65942,381.70483,590.49756,-32616.40625,73.33089,0.11212,-34.92825,0.62353,0.62353,531.05243,531.27277,905.34735,909.99359,1398.50330,1399.46692,1996.03638,1995.46765,1996.03638,1995.46765,16.01608,15.97404,86.15409,86.15409,99.80418,99.77683,371.66156,371.78110,498.34052,498.34052,504.93500,504.93500,178.64706,178.64748,15.04210,15.04210,0.00000,0.00000,0.00000,0.00000,0.00000,0.00000
19.70530,152.84955,158.02489,158.02487,181.85179,0.24141,303.82129,0.86312,0.09599,0.08937,0.00000,0.00000,0.00000,2.00746,-22.15492,68.35595,68.95566,0.38000,30.29300,-87.49596,2211.00708,2204.47266,0.00000,2206.79077,388.15805,590.49908,-32619.49414,73.30702,-0.03018,-35.14201,0.62353,0.62353,531.11047,531.36560,905.07141,911.74438,1398.75220,1399.86877,1995.90063,1995.21802,1995.90063,1995.21802,16.02228,15.97106,86.15409,86.15409,99.79732,99.76562,371.69562,371.83133,498.64746,498.64746,505.25839,505.25839,178.66241,178.66284,15.04384,15.04384,0.00000,0.00000,0.00000,0.00000,0.00000,0.00000
19.70533,152.86044,158.16231,158.16232,182.00996,0.24162,278.95068,0.86097,0.09501,0.11240,0.00000,0.00000,0.00000,2.14709,-22.19226,68.80491,69.40467,0.37646,30.29302,-87.49590,2211.02490,2204.36743,0.00000,2206.87817,394.79779,590.48779,-32622.68945,73.28651,-0.17177,-35.34742,0.62353,0.62353,531.17731,531.48944,905.72894,913.23572,1399.03894,1400.40588,1995.72363,1994.90271,1995.72363,1994.90271,16.02674,15.96153,86.15409,86.15409,99.78941,99.75060,371.73346,371.89175,498.95639,498.95639,505.57663,505.57663,178.67813,178.67860,15.04547,15.04547,0.00000,0.00000,0.00000,0.00000,0.00000,0.00000
19.70536,152.82304,158.32930,158.32930,182.20210,0.24188,247.35605,0.85873,0.09517,0.15275,0.00000,0.00000,0.00000,2.34608,-22.18260,69.44669,70.04652,0.36999,30.29306,-87.49580,2210.99097,2204.41089,0.00000,2206.92212,403.16150,590.45624,-32626.74023,73.27248,-0.33770,-35.57244,0.62353,0.62353,531.29968,531.66327,907.66901,914.80042,1399.56592,1401.15955,1995.40759,1994.49048,1995.40759,1994.49048,16.02409,15.94423,86.15409,86.15409,99.77483,99.72955,371.79044,371.98474,499.33569,499.33569,505.95731,505.95731,178.69788,178.69836,15.04732,15.04732,0.00000,0.00000,0.00000,0.00000,0.00000,0.00000
19.70539,152.76469,158.45319,158.45319,182.34468,0.24206,222.76462,0.85497,0.09505,0.17938,0.00000,0.00000,0.00000,2.49873,-22.12181,69.96674,70.56663,0.36330,30.29309,-87.49574,2210.92334,2204.31299,0.00000,2206.91211,409.66937,590.41901,-32629.90820,73.27067,-0.45878,-35.72050,0.62353,0.62353,531.42505,531.79291,909.50897,915.88971,1400.10779,1401.72180,1995.07593,1994.16833,1995.07593,1994.16833,16.01504,15.93019,86.15409,86.15409,99.75974,99.71386,371.84760,372.06589,499.62347,499.62347,506.23883,506.23883,178.71315,178.71367,15.04863,15.04863,0.00000,0.00000,0.00000,0.00000,0.00000,0.00000
19.70541,152.68498,158.57768,158.57770,182.48796,0.24226,196.61238,0.84970,0.09829,0.24295,0.00000,0.00000,0.00000,2.63409,-22.00009,70.48388,71.08382,0.35658,30.29312,-87.49567,2210.81421,2204.03394,0.00000,2206.85938,416.62842,590.36792,-32633.30859,73.28408,-0.57515,-35.83732,0.62353,0.62353,531.58417,531.93121,912.07379,915.97546,1400.79724,1402.32153,1994.65833,1993.85449,1994.65833,1993.85449,15.99901,15.91371,86.15409,86.15409,99.74051,99.69714,371.92404,372.15652,499.92422,499.92422,506.52640,506.52640,178.72940,178.72995,15.04990,15.04990,0.00000,0.00000,0.00000,0.00000,0.00000,0.00000
19.70544,152.64272,158.68167,158.68167,182.60760,0.24241,172.22130,0.84182,0.09765,0.31022,0.00000,0.00000,0.00000,2.67552,-21.83751,70.80125,71.40124,0.34779,30.29315,-87.49560,2210.68164,2203.98511,0.00000,2206.77100,423.23056,590.31049,-32636.54102,73.31707,-0.66764,-35.89001,0.62353,0.62353,531.77667,532.01300,914.81958,912.97955,1401.63354,1402.67261,1994.18127,1993.73743,1994.18127,1993.73743,15.97404,15.90626,86.15409,86.15409,99.71709,99.68751,372.01425,372.24200,500.20285,500.20285,506.78659,506.78659,178.74472,178.74532,15.05099,15.05099,0.00000,0.00000,0.00000,0.00000,0.00000,0.00000
19.70547,152.69260,158.76292,158.76294,182.70113,0.24254,148.71872,0.83623,0.09103,0.36944,0.00000,0.00000,0.00000,2.58285,-21.66386,70.80296,71.40301,0.34013,30.29318,-87.49553,2210.52637,2203.91992,0.00000,2206.65576,429.76318,590.24634,-32639.73633,73.36370,-0.74453,-35.88832,0.62353,0.62353,531.97314,531.99274,916.94946,906.82770,1402.48901,1402.57507,1993.71106,1993.90588,1993.71106,1993.90588,15.94594,15.91773,86.15409,86.15409,99.69308,99.69064,372.12140,372.30652,500.47229,500.47229,507.03256,507.03256,178.75981,178.76042,15.05198,15.05198,0.00000,0.00000,0.00000,0.00000,0.00000,0.00000
19.70549,152.87950,158.82938,158.82938,182.77759,0.24264,126.14272,0.83473,0.08317,0.38777,0.00000,0.00000,0.00000,2.32833,-21.49844,70.38281,70.98291,0.33928,30.29321,-87.49546,2210.35107,2203.82764,0.00000,2206.51929,436.25421,590.17633,-32642.91016,73.41453,-0.81494,-35.86065,0.62353,0.62353,532.13971,531.83917,916.54095,898.62012,1403.21448,1401.89246,1993.35962,1994.41479,1993.35962,1994.41479,15.92132,15.95536,86.15409,86.15409,99.67274,99.71040,372.23795,372.32785,500.73392,500.73392,507.26614,507.26614,178.77473,178.77534,15.05287,15.05287,0.00000,0.00000,0.00000,0.00000,0.00000,0.00000
19.70552,153.21230,158.90637,158.90637,182.86620,0.24276,104.34843,0.83750,0.08673,0.32953,0.00000,0.00000,0.00000,1.91205,-21.40028,69.51775,70.11790,0.34024,30.29323,-87.49539,2210.15527,2203.61304,0.00000,2206.35791,442.73682,590.09998,-32646.07422,73.46175,-0.89256,-35.85237,0.62353,0.62353,532.22791,531.55475,913.71936,889.78412,1403.59485,1400.63574,1993.24158,1995.21875,1993.24158,1995.21875,15.91022,16.02019,86.15409,86.15409,99.66225,99.74648,372.34723,372.28708,500.98932,500.98932,507.48914,507.48914,178.78958,178.79015,15.05369,15.05369,0.00000,0.00000,0.00000,0.00000,0.00000,0.00000
19.70554,153.64209,159.02068,159.02068,182.99773,0.24293,82.59032,0.84133,0.09226,0.24751,0.00000,0.00000,0.00000,1.36461,-21.43817,68.29085,68.89104,0.33438,30.29326,-87.49532,2209.92822,2203.37451,0.00000,2206.16821,449.34668,590.01373,-32649.30078,73.49830,-0.99373,-35.90888,0.62353,0.62353,532.19458,531.20325,908.83752,884.28436,1403.43750,1399.08630,1993.43945,1996.10876,1993.43945,1996.10876,15.92231,16.10156,86.15409,86.15409,99.66718,99.79092,372.42850,372.17569,501.24390,501.24390,507.70648,507.70648,178.80463,178.80515,15.05445,15.05445,0.00000,0.00000,0.00000,0.00000,0.00000,0.00000
19.70557,154.07794,159.16701,159.16701,183.16612,0.24315,61.13962,0.84523,0.09730,0.15927,0.00000,0.00000,0.00000,0.75759,-21.61074,66.87729,67.47754,0.33061,30.29329,-87.49525,2209.67041,2203.06494,0.00000,2205.94458,455.87253,589.91833,-32652.49609,73.51733,-1.11876,-36.03761,0.62353,0.62353,532.06616,530.88434,904.78955,881.90399,1402.85925,1397.68042,1993.82458,1996.84851,1993.82458,1996.84851,15.95368,16.18049,86.15409,86.15409,99.68421,99.83132,372.45816,372.01544,501.48956,501.48956,507.91156,507.91156,178.81943,178.81985,15.05514,15.05514,0.00000,0.00000,0.00000,0.00000,0.00000,0.00000
19.70560,154.45787,159.34302,159.34300,183.36865,0.24342,38.87317,0.85384,0.10181,0.07225,0.00000,0.00000,0.00000,0.12710,-21.88933,65.36706,65.96736,0.34107,30.29332,-87.49519,2209.36523,2202.93799,0.00000,2205.67773,462.52267,589.80811,-32655.76758,73.51382,-1.27025,-36.24496,0.62353,0.62353,531.90015,530.65967,902.01093,882.40002,1402.11353,1396.68579,1994.26709,1997.32629,1994.26709,1997.32629,15.99434,16.24536,86.15409,86.15409,99.70610,99.86014,372.43719,371.83676,501.73434,501.73434,508.11139,508.11139,178.83444,178.83478,15.05577,15.05577,0.00000,0.00000,0.00000,0.00000,0.00000,0.00000
19.70562,154.75716,159.54039,159.54039,183.59581,0.24372,15.43382,0.86840,0.10568,-0.00708,0.00000,0.00000,0.00000,-0.47437,-22.23375,63.88409,64.48444,0.37409,30.29335,-87.49512,2209.00488,2202.68481,0.00000,2205.35742,469.28680,589.68066,-32659.12109,73.48257,-1.44425,-36.53050,0.62353,0.62353,531.74066,530.56213,899.99213,884.63733,1401.39526,1396.24377,1994.67432,1997.48657,1994.67432,1997.48657,16.03608,16.28897,86.15409,86.15409,99.72729,99.87339,372.37842,371.67648,501.97781,501.97781,508.30563,508.30563,178.84967,178.84991,15.05637,15.05637,0.00000,0.00000,0.00000,0.00000,0.00000,0.00000
19.70565,154.97710,159.75099,159.75101,183.83818,0.24405,-9.69263,0.88095,0.10633,-0.07180,0.00000,0.00000,0.00000,-1.01199,-22.62246,62.52454,63.12496,0.42734,30.29338,-87.49505,2208.57764,2202.17993,0.00000,2204.97656,476.22668,589.53204,-32662.59570,73.42014,-1.63821,-36.88967,0.62353,0.62353,531.60699,530.58875,898.34064,887.66547,1400.78821,1396.33948,1995.01709,1997.35718,1995.01709,1997.35718,16.07534,16.31087,86.15410,86.15410,99.74544,99.87156,372.29932,371.56308,502.22208,502.22208,508.49597,508.49597,178.86525,178.86537,15.05692,15.05692,0.00000,0.00000,0.00000,0.00000,0.00000,0.00000
19.70567,155.14813,159.96411,159.96413,184.08344,0.24437,-37.18700,0.89692,0.10246,-0.12030,0.00000,0.00000,0.00000,-1.46077,-23.03473,61.36638,61.96685,0.49246,30.29342,-87.49497,2208.06567,2201.53979,0.00000,2204.50806,483.45047,589.35681,-32666.25586,73.32240,-1.85151,-37.31592,0.62353,0.62353,531.49902,530.72003,896.70142,890.86395,1400.29211,1396.88879,1995.29529,1997.00000,1995.29529,1997.00000,16.11207,16.31366,86.15410,86.15410,99.76051,99.85699,372.21429,371.51263,502.47061,502.47061,508.68506,508.68506,178.88141,178.88144,15.05744,15.05744,0.00000,0.00000,0.00000,0.00000,0.00000,0.00000
19.70570,155.30045,160.17137,160.17139,184.32196,0.24469,-66.24670,0.91408,0.10021,-0.14714,0.00000,0.00000,0.00000,-1.78723,-23.42702,60.51269,61.11322,0.54985,30.29345,-87.49490,2207.48096,2201.02637,0.00000,2203.96265,490.71411,589.15887,-32669.98633,73.19772,-2.06775,-37.78174,0.62353,0.62353,531.41382,530.91406,894.43652,893.00146,1399.89453,1397.71057,1995.53625,1996.53943,1995.53625,1996.53943,16.14609,16.30314,86.15410,86.15410,99.77283,99.83475,372.13571,371.52960,502.71481,502.71481,508.86636,508.86636,178.89764,178.89758,15.05792,15.05792,0.00000,0.00000,0.00000,0.00000,0.00000,0.00000
19.70572,155.46907,160.37596,160.37596,184.55737,0.24500,-96.40314,0.92779,0.09970,-0.15284,0.00000,0.00000,0.00000,-1.98770,-23.76359,59.98053,60.58112,0.58813,30.29348,-87.49482,2206.83032,2200.27393,0.00000,2203.34766,497.93393,588.94073,-32673.75000,73.05917,-2.27840,-38.26438,0.62353,0.62353,531.33124,531.11218,891.66217,893.77911,1399.50684,1398.54919,1995.78296,1996.10767,1995.78296,1996.10767,16.18094,16.28967,86.15411,86.15411,99.78497,99.81213,372.06592,371.59750,502.95206,502.95206,509.03818,509.03818,178.91373,178.91364,15.05835,15.05835,0.00000,0.00000,0.00000,0.00000,0.00000,0.00000
19.70575,155.68159,160.59418,160.59418,184.80849,0.24533,-128.93456,0.93695,0.10044,-0.14000,0.00000,0.00000,0.00000,-2.07503,-24.02523,59.73533,60.33598,0.60408,30.29352,-87.49474,2206.08057,2199.67310,0.00000,2202.64600,505.45944,588.69116,-32677.73242,72.91195,-2.48888,-38.77095,0.62353,0.62353,531.24231,531.28320,888.75421,893.37897,1399.08972,1399.26819,1996.05103,1995.75806,1996.05103,1995.75806,16.21921,16.28018,86.15411,86.15411,99.79802,99.79295,371.99814,371.69589,503.19376,503.19376,509.20895,509.20895,178.93047,178.93034,15.05875,15.05875,0.00000,0.00000,0.00000,0.00000,0.00000,0.00000
19.70578,155.93111,160.82147,160.82147,185.07007,0.24568,-162.14943,0.94099,0.10193,-0.11287,0.00000,0.00000,0.00000,-2.06064,-24.17097,59.74399,60.34470,0.59955,30.29355,-87.49467,2205.26465,2198.91748,0.00000,2201.87012,512.95459,588.42133,-32681.75586,72.77367,-2.68639,-39.26378,0.62353,0.62353,531.15222,531.40326,886.25281,892.15143,1398.66541,1399.76270,1996.31055,1995.54614,1996.31055,1995.54614,16.25928,16.27878,86.15411,86.15411,99.81136,99.78024,371.93222,371.79831,503.42886,503.42886,509.37085,509.37085,178.94707,178.94696,15.05912,15.05912,0.00000,0.00000,0.00000,0.00000,0.00000,0.00000
19.70581,156.21161,161.06807,161.06807,185.35382,0.24605,-196.82446,0.94174,0.10379,-0.07561,0.00000,0.00000,0.00000,-1.96981,-24.18317,59.93727,60.53804,0.58204,30.29359,-87.49458,2204.35791,2198.01611,0.00000,2200.99976,520.66766,588.12280,-32685.95703,72.64845,-2.87478,-39.74687,0.62353,0.62353,531.07703,531.47717,884.27448,890.33374,1398.30225,1400.05139,1996.52734,1995.45288,1996.52734,1995.45288,16.29894,16.28605,86.15411,86.15411,99.82315,99.77356,371.86734,371.88953,503.66507,503.66507,509.52936,509.52936,178.96410,178.96404,15.05945,15.05945,0.00000,0.00000,0.00000,0.00000,0.00000,0.00000
19.70584,156.49983,161.33202,161.33203,185.65759,0.24646,-232.30157,0.94073,0.10559,-0.03470,0.00000,0.00000,0.00000,-1.83588,-24.04671,60.23399,60.83482,0.55978,30.29363,-87.49450,2203.36963,2196.92310,0.00000,2200.05420,528.52893,587.79865,-32690.29492,72.54331,-3.04965,-40.20652,0.62353,0.62353,531.03241,531.50812,883.19012,888.35474,1398.07092,1400.14978,1996.65796,1995.45642,1996.65796,1995.45642,16.33461,16.30157,86.15411,86.15411,99.83128,99.77234,371.80997,371.95908,503.89987,503.89987,509.68286,509.68286,178.98140,178.98138,15.05976,15.05976,0.00000,0.00000,0.00000,0.00000,0.00000,0.00000
19.70587,156.78069,161.59586,161.59586,185.96120,0.24686,-266.32599,0.93977,0.10656,0.00366,0.00000,0.00000,0.00000,-1.70316,-23.78137,60.53150,61.13240,0.54080,30.29367,-87.49442,2202.36011,2195.85156,0.00000,2199.04272,536.11920,587.46857,-32694.53516,72.46384,-3.20155,-40.61634,0.62353,0.62353,531.02838,531.50867,882.62231,886.13159,1398.01453,1400.11365,1996.69128,1995.53027,1996.69128,1995.53027,16.36270,16.32253,86.15411,86.15411,99.83454,99.77504,371.77042,372.00211,504.12094,504.12094,509.82364,509.82364,178.99803,178.99806,15.06003,15.06003,0.00000,0.00000,0.00000,0.00000,0.00000,0.00000
19.70590,157.03619,161.85913,161.85915,186.26419,0.24726,-299.32343,0.93959,0.10555,0.03389,0.00000,0.00000,0.00000,-1.59747,-23.40770,60.76773,61.36869,0.52891,30.29371,-87.49435,2201.31787,2194.95752,0.00000,2198.02515,543.59766,587.12860,-32698.75391,72.40336,-3.33607,-40.98911,0.62353,0.62353,531.06354,531.49158,882.61053,884.13544,1398.12903,1399.99939,1996.63196,1995.63745,1996.63196,1995.63745,16.38323,16.34706,86.15412,86.15412,99.83298,99.77997,371.75168,372.02383,504.33340,504.33340,509.95554,509.95554,179.01436,179.01442,15.06027,15.06027,0.00000,0.00000,0.00000,0.00000,0.00000,0.00000
19.70592,157.27882,162.11581,162.11581,186.55956,0.24765,-330.88278,0.94099,0.10376,0.05479,0.00000,0.00000,0.00000,-1.53516,-22.95439,60.89989,61.50092,0.52558,30.29375,-87.49427,2200.25659,2194.07935,0.00000,2196.97900,550.91711,586.78314,-32702.92383,72.35658,-3.45485,-41.32892,0.62353,0.62353,531.12756,531.46643,882.68665,882.22083,1398.36926,1399.84973,1996.51282,1995.75916,1996.51282,1995.75916,16.39755,16.37332,86.15412,86.15412,99.82787,99.78590,371.75525,372.02979,504.53629,504.53629,510.07837,510.07837,179.03026,179.03035,15.06048,15.06048,0.00000,0.00000,0.00000,0.00000,0.00000,0.00000
19.70595,157.51851,162.37552,162.37552,186.85843,0.24805,-362.07993,0.94399,0.10240,0.06617,0.00000,0.00000,0.00000,-1.52135,-22.42546,60.90818,61.50926,0.53055,30.29378,-87.49419,2199.13843,2192.85010,0.00000,2195.89380,558.36395,586.41980,-32707.20117,72.31756,-3.56490,-41.65640,0.62353,0.62353,531.20819,531.43811,882.46405,880.21222,1398.68054,1399.68518,1996.36621,1995.89307,1996.36621,1995.89307,16.40866,16.40126,86.15413,86.15413,99.82079,99.79232,371.77884,372.02521,504.73770,504.73770,510.19736,510.19736,179.04634,179.04648,15.06067,15.06067,0.00000,0.00000,0.00000,0.00000,0.00000,0.00000
19.70598,157.77095,162.64120,162.64120,187.16417,0.24845,-392.96539,0.94867,0.10169,0.06828,0.00000,0.00000,0.00000,-1.55771,-21.83467,60.77861,61.37975,0.54295,30.29382,-87.49411,2197.95703,2191.49438,0.00000,2194.74023,565.99017,586.03638,-32711.61719,72.28271,-3.66863,-41.98093,0.62353,0.62353,531.28992,531.40448,881.84283,878.15564,1398.99536,1399.49585,1996.23071,1996.03979,1996.23071,1996.03979,16.41949,16.43154,86.15413,86.15413,99.81369,99.79951,371.81796,372.01315,504.93890,504.93890,510.31326,510.31326,179.06277,179.06291,15.06085,15.06085,0.00000,0.00000,0.00000,0.00000,0.00000,0.00000
19.70601,158.03848,162.91162,162.91162,187.47536,0.24886,-423.09177,0.95484,0.10157,0.06184,0.00000,0.00000,0.00000,-1.63739,-21.20614,60.51698,61.11818,0.56132,30.29386,-87.49403,2196.72559,2190.25854,0.00000,2193.52026,573.71484,585.63715,-32716.12891,72.24908,-3.76658,-42.30636,0.62353,0.62353,531.36224,531.37000,880.74829,876.09802,1399.26624,1399.30017,1996.13330,1996.18933,1996.13330,1996.18933,16.43200,16.46332,86.15414,86.15414,99.80795,99.80699,371.86453,371.99567,505.13754,505.13754,510.42480,510.42480,179.07932,179.07947,15.06101,15.06101,0.00000,0.00000,0.00000,0.00000,0.00000,0.00000
19.70604,158.30716,163.17506,163.17506,187.77853,0.24927,-451.04910,0.96189,0.10189,0.04952,0.00000,0.00000,0.00000,-1.74133,-20.58617,60.16535,60.76662,0.58317,30.29390,-87.49396,2195.50537,2189.38110,0.00000,2192.29858,581.17285,585.24207,-32720.51953,72.21533,-3.85566,-42.62348,0.62353,0.62353,531.41254,531.33856,879.46777,874.41162,1399.44165,1399.11853,1996.08777,1996.32153,1996.08777,1996.32153,16.44738,16.49448,86.15414,86.15414,99.80489,99.81404,371.90921,371.97610,505.32452,505.32452,510.52719,510.52719,179.09520,179.09535,15.06115,15.06115,0.00000,0.00000,0.00000,0.00000,0.00000,0.00000
19.70606,158.57446,163.44031,163.44031,188.08376,0.24967,-477.81064,0.96975,0.10239,0.03410,0.00000,0.00000,0.00000,-1.85665,-19.96422,59.74956,60.35089,0.60788,30.29394,-87.49387,2194.26123,2188.23804,0.00000,2191.07324,588.60217,584.83948,-32724.92773,72.17843,-3.93949,-42.94604,0.62353,0.62353,531.44537,531.31879,878.04059,873.05792,1399.54126,1398.98840,1996.08154,1996.42261,1996.08154,1996.42261,16.46572,16.52400,86.15414,86.15414,99.80395,99.81961,371.94757,371.95660,505.50623,505.50623,510.62430,510.62430,179.11095,179.11108,15.06128,15.06128,0.00000,0.00000,0.00000,0.00000,0.00000,0.00000
19.70609,158.84618,163.70786,163.70786,188.39165,0.25008,-503.47174,0.97848,0.10287,0.01752,0.00000,0.00000,0.00000,-1.97051,-19.34235,59.30276,59.90414,0.63381,30.29398,-87.49380,2192.99072,2186.68481,0.00000,2189.81104,596.02423,584.42883,-32729.36719,72.13709,-4.01788,-43.27665,0.62353,0.62353,531.46399,531.31299,876.44257,871.90936,1399.57678,1398.91724,1996.11182,1996.49036,1996.11182,1996.49036,16.48694,16.55159,86.15414,86.15414,99.80492,99.82359,371.97772,371.94125,505.68332,505.68332,510.71664,510.71664,179.12659,179.12672,15.06139,15.06139,0.00000,0.00000,0.00000,0.00000,0.00000,0.00000
19.70612,159.11823,163.97928,163.97928,188.70399,0.25049,-528.24115,0.98754,0.10311,0.00200,0.00000,0.00000,0.00000,-2.07329,-18.71544,58.85346,59.45491,0.65946,30.29402,-87.49372,2191.68506,2185.30029,0.00000,2188.51562,603.50323,584.00702,-32733.88086,72.09070,-4.09060,-43.61777,0.62353,0.62353,531.47137,531.32269,874.75555,870.92963,1399.56262,1398.91357,1996.16785,1996.52136,1996.16785,1996.52136,16.51066,16.57681,86.15414,86.15414,99.80730,99.82568,371.99921,371.93237,505.85739,505.85739,510.80530,510.80530,179.14227,179.14238,15.06149,15.06149,0.00000,0.00000,0.00000,0.00000,0.00000,0.00000
19.70615,159.38812,164.25658,164.25658,189.02310,0.25091,-552.32739,0.99649,0.10302,-0.01086,0.00000,0.00000,0.00000,-2.15788,-18.07340,58.42487,59.02638,0.68390,30.29407,-87.49364,2190.33105,2184.29956,0.00000,2187.19067,611.12158,583.56976,-32738.51758,72.03923,-4.15711,-43.97121,0.62353,0.62353,531.47131,531.34686,873.12225,870.14801,1399.51501,1398.97156,1996.23962,1996.51807,1996.23962,1996.51807,16.53660,16.60002,86.15415,86.15415,99.81070,99.82609,372.01282,371.93182,506.03040,506.03040,510.89124,510.89124,179.15816,179.15823,15.06159,15.06159,0.00000,0.00000,0.00000,0.00000,0.00000,0.00000
19.70618,159.66321,164.53580,164.53580,189.34442,0.25134,-575.37842,1.00543,0.10264,-0.02032,0.00000,0.00000,0.00000,-2.21795,-17.41785,58.04318,58.64475,0.70628,30.29411,-87.49356,2188.94531,2183.36841,0.00000,2185.81348,618.79688,583.12244,-32743.22852,71.98463,-4.21514,-44.32993,0.62353,0.62353,531.46753,531.38318,871.37927,869.27289,1399.44971,1399.08130,1996.32166,1996.49255,1996.32166,1996.49255,16.56396,16.62123,86.15415,86.15415,99.81464,99.82507,372.01990,371.94052,506.20038,506.20038,510.97363,510.97363,179.17406,179.17412,15.06167,15.06167,0.00000,0.00000,0.00000,0.00000,0.00000,0.00000
19.70620,159.93051,164.80695,164.80693,189.65643,0.25175,-596.57379,1.01387,0.10223,-0.02555,0.00000,0.00000,0.00000,-2.25085,-16.76621,57.73035,58.33199,0.72588,30.29415,-87.49348,2187.57861,2182.45020,0.00000,2184.44385,626.26819,582.68140,-32747.85742,71.93094,-4.26169,-44.67781,0.62353,0.62353,531.46179,531.42444,869.82971,868.50452,1399.37585,1399.21265,1996.40247,1996.45532,1996.40247,1996.45532,16.59155,16.64079,86.15416,86.15416,99.81883,99.82345,372.02240,371.95712,506.36172,506.36172,511.04999,511.04999,179.18944,179.18948,15.06175,15.06175,0.00000,0.00000,0.00000,0.00000,0.00000,0.00000
19.70623,160.19328,165.07423,165.07425,189.96407,0.25216,-616.24634,1.02191,0.10186,-0.02702,0.00000,0.00000,0.00000,-2.25971,-16.10311,57.48034,58.08204,0.74352,30.29419,-87.49341,2186.21436,2181.44214,0.00000,2183.08130,633.65454,582.24109,-32752.47070,71.87971,-4.29705,-45.01675,0.62353,0.62353,531.45874,531.46838,868.29999,867.58514,1399.31470,1399.35681,1996.47607,1996.41541,1996.47607,1996.41541,16.61872,16.65931,86.15416,86.15416,99.82262,99.82143,372.02234,371.97928,506.51740,506.51740,511.12192,511.12192,179.20456,179.20459,15.06181,15.06181,0.00000,0.00000,0.00000,0.00000,0.00000,0.00000
19.70625,160.37793,165.28339,165.28340,190.20474,0.25248,-630.75348,1.02722,0.10169,-0.02610,0.00000,0.00000,0.00000,-2.25153,-15.56389,57.32409,57.92583,0.75685,30.29422,-87.49335,2185.13721,2180.72412,0.00000,2182.11328,639.44403,581.89355,-32756.11328,71.84225,-4.31723,-45.27699,0.62353,0.62353,531.46222,531.50256,867.51611,867.10931,1399.29492,1399.47107,1996.51086,1996.37146,1996.51086,1996.37146,16.63889,16.67347,86.15417,86.15417,99.82468,99.81969,372.02188,371.99908,506.63687,506.63687,511.17606,511.17606,179.21635,179.21638,15.06186,15.06186,0.00000,0.00000,0.00000,0.00000,0.00000,0.00000
19.70628,160.59871,165.51375,165.51376,190.46985,0.25283,-645.77551,1.03404,0.10147,-0.02347,0.00000,0.00000,0.00000,-2.22956,-14.94628,57.18591,57.78770,0.77127,30.29426,-87.49328,2183.94409,2179.71313,0.00000,2180.95605,645.83527,581.50836,-32760.16211,71.80476,-4.33102,-45.55699,0.62353,0.62353,531.47095,531.54279,866.14099,865.99170,1399.29248,1399.60596,1996.55261,1996.34155,1996.55261,1996.34155,16.66065,16.68869,86.15417,86.15417,99.82650,99.81763,372.02319,372.02310,506.76620,506.76620,511.23355,511.23355,179.22931,179.22934,15.06191,15.06191,0.00000,0.00000,0.00000,0.00000,0.00000,0.00000
19.70630,160.81920,165.73763,165.73761,190.72745,0.25317,-659.32111,1.04073,0.10132,-0.01959,0.00000,0.00000,0.00000,-2.19828,-14.32440,57.07767,57.67951,0.78482,30.29429,-87.49322,2182.77856,2178.71191,0.00000,2179.79272,652.06500,581.13220,-32764.13281,71.77317,-4.33521,-45.82098,0.62353,0.62353,531.47552,531.57190,865.12250,865.08636,1399.27173,1399.69263,1996.59070,1996.32886,1996.59070,1996.32886,16.68290,16.70540,86.15417,86.15417,99.82884,99.81693,372.02615,372.04764,506.88965,506.88965,511.28735,511.28735,179.24187,179.24190,15.06195,15.06195,0.00000,0.00000,0.00000,0.00000,0.00000,0.00000
19.70633,161.04657,165.96780,165.96780,190.99236,0.25352,-672.11603,1.04777,0.10114,-0.01505,0.00000,0.00000,0.00000,-2.15834,-13.66067,56.98536,57.58725,0.79867,30.29433,-87.49315,2181.57690,2177.32178,0.00000,2178.58789,658.49390,580.74402,-32768.25391,71.74633,-4.33011,-46.08326,0.62353,0.62353,531.48859,531.60211,863.89270,863.87195,1399.28699,1399.78223,1996.61877,1996.32507,1996.61877,1996.32507,16.70446,16.72259,86.15417,86.15417,99.83021,99.81619,372.02979,372.07104,507.01440,507.01440,511.34067,511.34067,179.25476,179.25479,15.06199,15.06199,0.00000,0.00000,0.00000,0.00000,0.00000,0.00000
19.70635,161.27444,166.20264,166.20264,191.26259,0.25388,-683.91779,1.05462,0.10097,-0.01045,0.00000,0.00000,0.00000,-2.11190,-12.95832,56.90233,57.50427,0.81287,30.29437,-87.49308,2180.34912,2176.20093,0.00000,2177.37964,665.08319,580.34723,-32772.50781,71.72527,-4.31498,-46.34072,0.62353,0.62353,531.50494,531.62714,862.92047,862.80621,1399.31531,1399.84888,1996.63245,1996.32666,1996.63245,1996.32666,16.72611,16.74125,86.15418,86.15418,99.83125,99.81615,372.03577,372.09341,507.13956,507.13956,511.39310,511.39310,179.26790,179.26793,15.06203,15.06203,0.00000,0.00000,0.00000,0.00000,0.00000,0.00000
19.70638,161.50519,166.43806,166.43806,191.53351,0.25424,-694.41272,1.06163,0.10077,-0.00630,0.00000,0.00000,0.00000,-2.06153,-12.22954,56.82239,57.42439,0.82712,30.29441,-87.49301,2179.11743,2175.16895,0.00000,2176.15283,671.72986,579.94904,-32776.82031,71.71075,-4.28970,-46.58850,0.62353,0.62353,531.52521,531.64856,861.93750,861.67261,1399.36108,1399.89954,1996.63782,1996.33765,1996.63782,1996.33765,16.74727,16.76079,86.15418,86.15418,99.83179,99.81655,372.04446,372.11380,507.26306,507.26306,511.44376,511.44376,179.28107,179.28111,15.06207,15.06207,0.00000,0.00000,0.00000,0.00000,0.00000,0.00000
19.70640,161.73961,166.67618,166.67618,191.80753,0.25460,-703.60480,1.06882,0.10052,-0.00305,0.00000,0.00000,0.00000,-2.00795,-11.46811,56.73826,57.34032,0.84157,30.29445,-87.49294,2177.87305,2173.73242,0.00000,2174.90552,678.50354,579.54626,-32781.23828,71.70271,-4.25397,-46.82883,0.62353,0.62353,531.55145,531.66943,860.86676,860.42059,1399.43127,1399.94641,1996.63574,1996.35486,1996.63574,1996.35486,16.76789,16.78100,86.15419,86.15419,99.83171,99.81713,372.05609,372.13223,507.38611,507.38611,511.49326,511.49326,179.29442,179.29446,15.06210,15.06210,0.00000,0.00000,0.00000,0.00000,0.00000,0.00000
19.70644,162.07698,167.00890,167.00890,192.19041,0.25510,-713.88092,1.07893,0.10017,-0.00047,0.00000,0.00000,0.00000,-1.93016,-10.36968,56.60709,57.20923,0.86086,30.29451,-87.49284,2176.13867,2171.94824,0.00000,2173.11304,688.07233,578.98431,-32787.51562,71.70249,-4.18689,-47.14784,0.62353,0.62353,531.58826,531.69122,859.42407,858.72021,1399.52930,1399.97888,1996.63135,1996.39099,1996.63135,1996.39099,16.79705,16.81116,86.15419,86.15419,99.83163,99.81891,372.07712,372.15469,507.55518,507.55518,511.55957,511.55957,179.31313,179.31317,15.06214,15.06214,0.00000,0.00000,0.00000,0.00000,0.00000,0.00000
19.70647,162.37927,167.30598,167.30598,192.53229,0.25556,-720.38196,1.08746,0.09984,-0.00046,0.00000,0.00000,0.00000,-1.85763,-9.35971,56.47319,57.07540,0.87695,30.29456,-87.49275,2174.59863,2170.45703,0.00000,2171.51636,696.73456,578.48456,-32793.23438,71.71269,-4.11079,-47.41701,0.62353,0.62353,531.62341,531.70978,858.14490,857.27875,1399.62659,1400.00354,1996.62341,1996.42236,1996.62341,1996.42236,16.82304,16.83885,86.15420,86.15420,99.83130,99.82063,372.09863,372.17136,507.70346,507.70346,511.61615,511.61615,179.32993,179.32997,15.06217,15.06217,0.00000,0.00000,0.00000,0.00000,0.00000,0.00000
19.70651,162.65623,167.58264,167.58266,192.85068,0.25598,-724.08252,1.09494,0.09954,-0.00213,0.00000,0.00000,0.00000,-1.78596,-8.39643,56.33584,56.93812,0.89122,30.29461,-87.49267,2173.17554,2168.99072,0.00000,2170.06396,704.91376,578.02209,-32798.65625,71.73049,-4.02684,-47.65526,0.62353,0.62353,531.65717,531.72968,856.96588,856.04358,1399.72290,1400.03931,1996.61133,1996.44153,1996.61133,1996.44153,16.84717,16.86448,86.15420,86.15420,99.83076,99.82182,372.12045,372.18567,507.83951,507.83951,511.66678,511.66678,179.34566,179.34570,15.06220,15.06220,0.00000,0.00000,0.00000,0.00000,0.00000,0.00000
19.70654,162.92162,167.85349,167.85349,193.16235,0.25639,-725.44879,1.10190,0.09925,-0.00480,0.00000,0.00000,0.00000,-1.71031,-7.43270,56.19452,56.79688,0.90452,30.29465,-87.49258,2171.79712,2167.62183,0.00000,2168.68164,713.03668,577.57318,-32804.07031,71.75541,-3.93276,-47.87735,0.62353,0.62353,531.69080,531.75342,855.82507,854.94330,1399.82043,1400.09399,1996.59656,1996.44751,1996.59656,1996.44751,16.87088,16.88910,86.15421,86.15421,99.83012,99.82238,372.14307,372.20020,507.97092,507.97092,511.71451,511.71451,179.36116,179.36119,15.06222,15.06222,0.00000,0.00000,0.00000,0.00000,0.00000,0.00000
19.70657,163.17702,168.10892,168.10893,193.45631,0.25678,-724.61346,1.10845,0.09894,-0.00791,0.00000,0.00000,0.00000,-1.63301,-6.50567,56.06122,56.66364,0.91587,30.29470,-87.49250,2170.51245,2166.38892,0.00000,2167.36865,720.81732,577.15399,-32809.27344,71.78584,-3.83305,-48.07661,0.62353,0.62353,531.72076,531.77850,854.63739,853.87122,1399.90503,1400.15723,1996.58948,1996.44812,1996.58948,1996.44812,16.89386,16.91220,86.15421,86.15421,99.82971,99.82258,372.16513,372.21558,508.09338,508.09338,511.75797,511.75797,179.37589,179.37592,15.06224,15.06224,0.00000,0.00000,0.00000,0.00000,0.00000,0.00000
19.70660,163.42644,168.36127,168.36125,193.74667,0.25716,-721.71802,1.11449,0.09861,-0.01102,0.00000,0.00000,0.00000,-1.55020,-5.57164,55.93596,56.53844,0.92588,30.29475,-87.49242,2169.26196,2165.29297,0.00000,2166.10498,728.62622,576.74500,-32814.51562,71.82284,-3.72436,-48.26320,0.62353,0.62353,531.75031,531.80786,853.45630,852.85651,1399.98926,1400.24048,1996.58069,1996.43665,1996.58069,1996.43665,16.91677,16.93439,86.15421,86.15421,99.82925,99.82215,372.18668,372.23248,508.21307,508.21307,511.79947,511.79947,179.39058,179.39058,15.06226,15.06226,0.00000,0.00000,0.00000,0.00000,0.00000,0.00000
19.70664,163.67624,168.61586,168.61584,194.03966,0.25755,-716.65771,1.12032,0.09825,-0.01390,0.00000,0.00000,0.00000,-1.45964,-4.60876,55.82218,56.42472,0.93470,30.29480,-87.49234,2168.02197,2163.85254,0.00000,2164.85449,736.64233,576.33832,-32819.91406,71.86781,-3.60444,-48.44026,0.62353,0.62353,531.78119,531.84241,852.19611,851.80023,1400.07910,1400.34644,1996.57104,1996.41455,1996.57104,1996.41455,16.94003,16.95612,86.15421,86.15421,99.82865,99.82108,372.20825,372.25189,508.33264,508.33264,511.84003,511.84003,179.40553,179.40553,15.06228,15.06228,0.00000,0.00000,0.00000,0.00000,0.00000,0.00000
19.70667,163.92093,168.85600,168.85600,194.31602,0.25792,-709.58551,1.12534,0.08664,-0.01612,0.00000,0.00000,0.00000,-1.36449,-3.64728,55.72846,56.33107,0.94211,30.29485,-87.49226,2166.83740,2162.67993,0.00000,2163.65894,744.60028,575.94867,-32825.28906,71.91656,-3.47755,-48.59832,0.37523,0.37523,404.70023,404.77838,792.89539,792.69080,1066.83875,1067.13489,1989.24841,1989.07544,1989.24841,1989.07544,16.77125,16.78518,83.22685,83.22685,99.70329,99.69487,366.10724,366.15179,507.88815,507.88815,510.75842,510.75842,179.41620,179.41620,15.05960,15.05960,0.00000,0.00000,0.00000,0.00000,0.00000,0.00000
19.70670,164.09572,168.98811,168.98811,194.46805,0.25812,-700.45557,1.12953,0.02418,-0.01824,0.00000,0.00000,0.00000,-1.25847,-2.64187,55.65615,56.25883,0.95459,30.29489,-87.49217,2165.69263,2161.53857,0.00000,2162.49634,752.62305,575.57080,-32830.71875,71.92905,-3.34194,-48.71074,0.20650,0.20650,221.23103,221.32542,469.46863,469.61722,587.34937,587.65253,1975.88770,1975.70764,1975.88770,1975.70764,15.66952,15.68181,77.90623,77.90623,98.99753,98.98868,315.76962,315.81091,503.54303,503.54303,501.97906,501.97906,179.39201,179.39201,15.02306,15.02306,0.00000,0.00000,0.00000,0.00000,0.00000,0.00000
19.70673,164.14476,169.00267,169.00266,194.48480,0.25814,-689.54004,1.13374,-0.02371,-0.01993,0.00000,0.00000,0.00000,-1.14172,-1.60699,55.60799,56.21073,0.97472,30.29494,-87.49209,2164.61475,2160.23584,0.00000,2161.39185,760.52820,575.21375,-32836.07812,71.90297,-3.20105,-48.77204,0.20650,0.20650,106.92209,107.03510,219.55403,219.94891,285.42203,285.75232,1966.69617,1966.49951,1966.69617,1966.49951,14.75285,14.76261,73.58274,73.58274,98.45885,98.44900,263.92322,263.96167,498.74503,498.74503,492.55652,492.55652,179.34813,179.34813,14.95154,14.95154,0.00000,0.00000,0.00000,0.00000,0.00000,0.00000
19.70677,164.10609,168.93938,168.93938,194.41197,0.25804,-676.82983,1.13673,-0.05219,-0.02103,0.00000,0.00000,0.00000,-1.01904,-0.54218,55.58277,56.18558,0.99765,30.29499,-87.49200,2163.59180,2159.33105,0.00000,2160.35742,768.40631,574.87347,-32841.42578,71.85547,-3.05502,-48.79337,0.20650,0.20650,51.52555,51.65277,68.80374,69.65816,137.96405,138.31979,1961.98157,1961.75842,1961.98157,1961.75842,14.15346,14.16078,71.02197,71.02197,98.15932,98.14859,221.58710,221.62660,494.34512,494.34512,484.17093,484.17093,179.29135,179.29137,14.85826,14.85826,0.00000,0.00000,0.00000,0.00000,0.00000,0.00000
19.70680,164.01604,168.83725,168.83725,194.29443,0.25789,-663.00043,1.13761,-0.06682,-0.02121,0.00000,0.00000,0.00000,-0.90279,0.49621,55.57859,56.18147,1.01661,30.29504,-87.49193,2162.65991,2158.52002,0.00000,2159.38818,775.96075,574.56213,-32846.55469,71.80403,-2.91220,-48.78428,0.20650,0.20650,22.35262,22.49980,-10.21973,-9.21339,59.93617,60.33833,1959.87134,1959.61816,1959.87134,1959.61816,13.78085,13.78474,69.51575,69.51575,98.01988,98.00768,192.52028,192.56306,490.38824,490.38824,476.85278,476.85278,179.22755,179.22758,14.76125,14.76125,0.00000,0.00000,0.00000,0.00000,0.00000,0.00000
19.70683,163.90378,168.71153,168.71153,194.14977,0.25769,-647.79230,1.13551,-0.07527,-0.02096,0.00000,0.00000,0.00000,-0.79295,1.53643,55.59209,56.19503,1.03040,30.29508,-87.49185,2161.78125,2157.74927,0.00000,2158.50732,783.47552,574.26709,-32851.66016,71.75436,-2.77086,-48.75047,0.20650,0.20650,4.51395,4.67878,-56.82098,-55.84628,12.11139,12.55537,1958.91614,1958.63879,1958.91614,1958.63879,13.51572,13.51630,68.53968,68.53968,97.95746,97.94396,172.55151,172.59920,486.64517,486.64517,470.12851,470.12851,179.15584,179.15591,14.66417,14.66417,0.00000,0.00000,0.00000,0.00000,0.00000,0.00000
