"Time_Hours","Vel_Indicated_kts","Vel_True_kts","Vel_Ground_kts","Vel_Groupn_mph","Vel_Mach","Vel_Vertical_fpm","GLoad_normal","GLoad_axial","GLoad_side","Flaps_Handle","Flaps_Position","Gear","Pitch_deg","Roll_deg","Heading_True","Heading_Mag","AngleOfAttack","Latitude","Longitude","Altitude_FtMsl","Altitude_FtAgl","RunwayThreshold","Altitude_Indicated","X","Y","Z","vX","vY","vZ","Eng1_Throttle","Eng2_Throttle","Eng1_Power_hp","Eng2_Power_hp","Eng1_Thrust_lb","Eng2_Thrust_lb","Eng1_Torque_lb","Eng2_Torque_lb","Eng1_EngineRPM","Eng2_EngineRPM","Eng1_PropRPM","Eng2_PropRPM","Eng1_PropPitch_deg","Eng2_PropPitch_deg","Eng1_N1","Eng2_N1","Eng1_N2","Eng2_N2","Eng1_FuelFlow","Eng2_FuelFlow","Eng1_ITT","Eng2_ITT","Eng1_EGT","Eng2_EGT","Eng1_CHT","Eng2_CHT","Eng1_OilPress_psi","Eng2_OilPress_psi","MasterCaution","MasterWarn","MasterAccept","FuelQuantity","HydPress","AutoThrottle"
19.70408,-0.00006,154.97708,154.97679,178.34412,0.23672,904.02856,1.17925,0.01992,-0.02876,0.00000,0.00000,0.00000,4.53671,-0.48097,67.56590,68.16307,1.34427,30.29180,-87.49928,2170.84961,2138.16577,0.00000,2166.81714,69.25164,578.94916,-32486.50195,74.22577,4.45080,-28.75956,0.01024,0.01024,445.03384,445.03384,414.21750,414.62192,1174.23511,1174.23511,1999.96936,1999.95972,1999.96936,1999.95972,15.39251,15.39251,84.22223,84.22223,99.61227,99.61227,339.70569,339.70374,498.38763,498.38763,508.35919,508.35919,178.41002,178.41002,15.05826,15.05826,0.00000,0.00000,0.00000,0.00000,0.00000,0.00000
19.70411,150.43791,154.94064,154.94038,178.30222,0.23667,904.58826,0.97306,0.05268,-0.05684,0.00000,0.00000,0.00000,4.11007,-0.65424,67.65192,68.24915,0.89323,30.29183,-87.49921,2172.24585,2139.54297,0.00000,2168.21167,76.06163,579.36115,-32489.14453,74.18548,4.48731,-28.80590,0.04084,0.04084,271.16174,271.20575,563.17493,566.11499,713.88043,714.02570,1992.95496,1992.81311,1992.95496,1992.81311,15.75463,15.74827,79.71062,79.71062,99.83383,99.82972,315.02948,315.02939,492.14526,492.14526,495.52121,495.52121,178.37816,178.37816,15.03644,15.03644,0.00000,0.00000,0.00000,0.00000,0.00000,0.00000
19.70414,150.39482,154.85747,154.85722,178.20653,0.23654,904.81757,0.86869,0.00984,-0.04460,0.00000,0.00000,0.00000,3.81375,-0.79568,67.81474,68.41202,0.66462,30.29185,-87.49914,2173.63281,2141.06274,0.00000,2169.60693,82.91019,579.77020,-32491.80859,74.13268,4.39144,-28.83823,0.07162,0.07162,151.17677,151.32941,353.65683,356.92709,400.26111,400.71863,1981.93054,1981.60950,1981.93054,1981.60950,14.89406,14.87308,75.63369,75.63369,99.26965,99.25642,277.43839,277.44980,486.55814,486.55814,484.28140,484.28140,178.33957,178.33957,14.98803,14.98803,0.00000,0.00000,0.00000,0.00000,0.00000,0.00000
19.70416,150.28441,154.71805,154.71783,178.04611,0.23633,903.05688,0.86034,-0.02450,-0.03063,0.00000,0.00000,0.00000,3.72546,-0.92134,68.02126,68.61860,0.66533,30.29187,-87.49907,2174.96265,2143.07324,0.00000,2170.95898,89.65376,580.16211,-32494.43359,74.05869,4.26208,-28.84976,0.10196,0.10196,65.60620,65.85813,175.61107,178.26042,174.55063,175.25789,1972.99646,1972.54211,1972.99646,1972.54211,14.10845,14.07437,72.00490,72.00490,98.78665,98.76581,240.48485,240.51790,481.70856,481.70856,474.75961,474.75961,178.29413,178.29416,14.91872,14.91872,0.00000,0.00000,0.00000,0.00000,0.00000,0.00000
19.70419,150.12383,154.53038,154.53021,177.83018,0.23604,899.28076,0.89024,-0.05003,-0.01737,0.00000,0.00000,0.00000,3.76831,-1.03997,68.24706,68.84445,0.78203,30.29190,-87.49900,2176.25586,2145.03491,0.00000,2172.22241,96.38396,580.54279,-32497.05664,73.96426,4.15072,-28.84209,0.13228,0.13228,7.77386,8.08951,36.28371,37.91775,20.76122,21.60978,1965.99792,1965.47205,1965.99792,1965.47205,13.45127,13.40820,69.01312,69.01312,98.41444,98.38906,207.54393,207.60223,477.48856,477.48856,466.69647,466.69647,178.23883,178.23892,14.83200,14.83200,0.00000,0.00000,0.00000,0.00000,0.00000,0.00000
19.70422,149.87225,154.25455,154.25439,177.51279,0.23562,892.85620,0.93436,-0.06854,-0.00151,0.00000,0.00000,0.00000,3.87957,-1.19414,68.51733,69.11478,0.95172,30.29193,-87.49891,2177.79517,2147.93921,0.00000,2173.73169,104.57428,580.99561,-32500.25195,73.82891,4.05615,-28.81156,0.16924,0.16924,-20.54403,-20.20766,-69.98737,-69.67983,-55.03451,-54.14822,1961.08435,1960.55750,1961.08435,1960.55750,12.84251,12.79432,67.24194,67.24194,98.11272,98.08591,177.59616,177.64117,473.08829,473.08829,458.56717,458.56717,178.14551,178.14583,14.71453,14.71453,0.00000,0.00000,0.00000,0.00000,0.00000,0.00000
19.70425,149.59944,153.99072,153.99057,177.20920,0.23522,886.34033,0.96111,-0.07408,0.01070,0.00000,0.00000,0.00000,3.95507,-1.35579,68.72743,69.32494,1.05441,30.29195,-87.49884,2179.12939,2149.86035,0.00000,2175.13818,111.76912,581.38788,-32503.06055,73.70164,4.00530,-28.77100,0.20176,0.20176,-26.80103,-26.49683,-106.55562,-107.30752,-71.89508,-71.09668,1959.06445,1958.60669,1959.06445,1958.60669,12.48409,12.43723,66.77183,66.77183,97.97765,97.95337,162.67746,162.70389,469.83517,469.83517,452.81229,452.81229,178.05156,178.05199,14.61236,14.61236,0.00000,0.00000,0.00000,0.00000,0.00000,0.00000
19.70427,149.33482,153.71939,153.71925,176.89696,0.23481,879.56989,0.96754,-0.07518,0.01893,0.00000,0.00000,0.00000,3.98357,-1.54782,68.89546,69.49303,1.10131,30.29198,-87.49876,2180.45459,2152.33423,0.00000,2176.44458,118.97394,581.77728,-32505.87500,73.57220,3.96626,-28.72365,0.23438,0.23438,-23.04983,-22.81058,-116.68233,-118.17927,-61.86635,-61.23621,1958.35876,1958.01746,1958.35876,1958.01746,12.23929,12.19798,66.95541,66.95541,97.92373,97.90453,153.89348,153.90897,467.06329,467.06329,448.13461,448.13461,177.95647,177.95700,14.51782,14.51782,0.00000,0.00000,0.00000,0.00000,0.00000,0.00000
19.70430,149.06801,153.45502,153.45490,176.59276,0.23441,872.84387,0.96131,-0.07302,0.02429,0.00000,0.00000,0.00000,3.96779,-1.77219,69.01037,69.60799,1.10537,30.29200,-87.49869,2181.74194,2154.28442,0.00000,2177.75610,126.02910,582.15558,-32508.62891,73.44709,3.92596,-28.67527,0.26638,0.26638,-12.36164,-12.20845,-107.50638,-109.46986,-33.17947,-32.77245,1958.60510,1958.40430,1958.60510,1958.40430,12.07446,12.04194,67.57726,67.57726,97.92222,97.90981,148.82367,148.83284,464.77335,464.77335,444.48672,444.48672,177.86546,177.86609,14.43638,14.43638,0.00000,0.00000,0.00000,0.00000,0.00000,0.00000
19.70432,148.81725,153.20357,153.20346,176.30341,0.23402,866.08624,0.94868,-0.06881,0.02670,0.00000,0.00000,0.00000,3.92078,-2.03184,69.07223,69.66991,1.08566,30.29202,-87.49862,2182.98975,2156.58789,0.00000,2179.00854,132.93312,582.52197,-32511.32422,73.32841,3.87675,-28.62984,0.29775,0.29775,3.61485,3.67838,-86.36531,-88.54921,9.69873,9.86973,1959.62195,1959.56580,1959.62195,1959.56580,11.97455,11.95211,68.49315,68.49315,97.96023,97.95502,145.86586,145.87134,462.90610,462.90610,441.72220,441.72220,177.78276,177.78349,14.36921,14.36921,0.00000,0.00000,0.00000,0.00000,0.00000,0.00000
19.70435,148.57568,152.96317,152.96307,176.02676,0.23366,858.93591,0.93380,-0.06208,0.02644,0.00000,0.00000,0.00000,3.85246,-2.33347,69.08526,69.68300,1.05542,30.29205,-87.49854,2184.22778,2158.43530,0.00000,2180.25635,139.87187,582.88538,-32514.03320,73.21440,3.81448,-28.58977,0.32933,0.32933,24.59639,24.57298,-51.91401,-54.11116,65.94143,65.87734,1961.34363,1961.42627,1961.34363,1961.42627,11.93701,11.92524,69.64175,69.64175,98.03652,98.03847,145.63739,145.64502,461.37677,461.37677,439.67633,439.67633,177.72023,177.72098,14.31503,14.31503,0.00000,0.00000,0.00000,0.00000,0.00000,0.00000
19.70438,148.36256,152.75179,152.75169,175.78351,0.23333,851.66504,0.92026,-0.05406,0.02472,0.00000,0.00000,0.00000,3.77556,-2.65933,69.05737,69.65515,1.02489,30.29207,-87.49847,2185.37817,2160.42383,0.00000,2181.42480,146.42319,583.22284,-32516.59180,73.11295,3.74359,-28.55965,0.35918,0.35918,48.56321,48.46818,-10.63791,-12.70815,130.06555,129.80045,1963.46716,1963.66333,1963.46716,1963.66333,11.94793,11.94582,70.87192,70.87192,98.13409,98.14210,148.47260,148.47040,460.23761,460.23761,438.37329,438.37329,177.67030,177.67104,14.27645,14.27645,0.00000,0.00000,0.00000,0.00000,0.00000,0.00000
19.70441,148.16315,152.54138,152.54129,175.54140,0.23301,842.98212,0.90738,-0.04401,0.02168,0.00000,0.00000,0.00000,3.68233,-3.06633,68.98911,69.58694,0.99333,30.29210,-87.49841,2186.60986,2162.88477,0.00000,2182.59375,153.57951,583.58386,-32519.38867,73.00980,3.65399,-28.53750,0.39184,0.39184,79.67272,79.52090,41.00911,39.18127,213.10104,212.66672,1966.58020,1966.87305,1966.58020,1966.87305,12.00799,12.01457,72.35117,72.35117,98.26500,98.27806,154.20078,154.18230,459.31079,459.31079,437.58954,437.58954,177.62363,177.62431,14.24769,14.24769,0.00000,0.00000,0.00000,0.00000,0.00000,0.00000
19.70443,148.01778,152.39026,152.39020,175.36752,0.23278,835.30640,0.89871,-0.03351,0.01869,0.00000,0.00000,0.00000,3.60289,-3.43794,68.91129,69.50918,0.97143,30.29212,-87.49834,2187.58398,2164.18457,0.00000,2183.50928,159.36902,583.86908,-32521.65234,72.93343,3.57353,-28.52933,0.41829,0.41829,108.74565,108.56208,94.90079,93.30569,290.46271,289.92502,1969.69531,1970.04224,1969.69531,1970.04224,12.11202,12.12436,73.63581,73.63581,98.40028,98.41636,160.57303,160.54092,458.79364,458.79364,437.41428,437.41428,177.59137,177.59203,14.23418,14.23418,0.00000,0.00000,0.00000,0.00000,0.00000,0.00000
19.70445,147.87140,152.24861,152.24854,175.20450,0.23257,826.14252,0.89095,-0.01932,0.01505,0.00000,0.00000,0.00000,3.51335,-3.88733,68.81077,69.40870,0.95153,30.29214,-87.49828,2188.62695,2166.31104,0.00000,2184.54346,165.71587,584.17413,-32524.13867,72.85862,3.47891,-28.53204,0.44732,0.44732,144.15611,143.95143,167.82211,166.49339,384.35037,383.73331,1973.36975,1973.74976,1973.36975,1973.74976,12.28463,12.30189,75.09087,75.09087,98.57812,98.59645,169.22961,169.18410,458.46268,458.46268,437.67749,437.67749,177.56163,177.56226,14.22918,14.22918,0.00000,0.00000,0.00000,0.00000,0.00000,0.00000
19.70449,147.69942,152.09631,152.09628,175.02928,0.23234,811.86163,0.88319,0.00213,0.00972,0.00000,0.00000,0.00000,3.38463,-4.57884,68.65778,69.25578,0.92940,30.29217,-87.49818,2190.04419,2168.70044,0.00000,2186.02271,174.61629,584.58807,-32527.62891,72.77057,3.33793,-28.55864,0.48808,0.48808,198.68239,198.47214,278.23337,277.23203,528.30157,527.63849,1978.62695,1979.01721,1978.62695,1979.01721,12.57927,12.60064,77.12320,77.12320,98.84444,98.86393,183.98412,183.92491,458.40952,458.40952,438.81924,438.81924,177.52991,177.53049,14.23866,14.23866,0.00000,0.00000,0.00000,0.00000,0.00000,0.00000
19.70452,147.58788,152.00247,152.00243,174.92128,0.23219,796.53833,0.87843,0.02411,0.00553,0.00000,0.00000,0.00000,3.25642,-5.30621,68.51141,69.10949,0.91050,30.29220,-87.49809,2191.35596,2171.14868,0.00000,2187.38745,183.19098,584.97046,-32531.00000,72.70477,3.19596,-28.61018,0.52738,0.52738,256.50839,256.31589,391.88034,391.18784,680.14685,679.50928,1984.09216,1984.45056,1984.09216,1984.45056,12.92752,12.94971,79.05866,79.05866,99.12283,99.14138,200.63521,200.56989,458.79938,458.79938,440.72562,440.72562,177.51004,177.51060,14.26365,14.26365,0.00000,0.00000,0.00000,0.00000,0.00000,0.00000
19.70455,147.53426,151.96373,151.96370,174.87671,0.23214,781.31384,0.87554,0.04352,0.00296,0.00000,0.00000,0.00000,3.13624,-6.01066,68.38887,68.98701,0.89302,30.29223,-87.49802,2192.50146,2173.15698,0.00000,2188.54370,190.98543,585.30377,-32534.07227,72.66183,3.06311,-28.67927,0.56313,0.56313,313.05704,312.89243,492.89386,492.31781,828.01050,827.43774,1989.31689,1989.63000,1989.31689,1989.63000,13.26601,13.28698,80.77073,80.77073,99.37163,99.38814,217.51797,217.45334,459.52414,459.52414,443.11569,443.11569,177.50104,177.50160,14.29797,14.29797,0.00000,0.00000,0.00000,0.00000,0.00000,0.00000
19.70458,147.52635,151.97701,151.97696,174.89198,0.23216,762.97186,0.87296,0.06889,0.00196,0.00000,0.00000,0.00000,2.99708,-6.84725,68.27006,68.86826,0.87002,30.29226,-87.49792,2193.72559,2175.56079,0.00000,2189.77759,199.69554,585.65900,-32537.51953,72.63519,2.91161,-28.78096,0.60310,0.60310,381.93729,381.80807,625.31378,624.76752,1006.98126,1006.50330,1995.60852,1995.86230,1995.60852,1995.86230,13.73691,13.75530,82.67315,82.67315,99.68859,99.70219,238.29326,238.23425,460.73993,460.73993,446.48926,446.48926,177.50092,177.50148,14.34720,14.34720,0.00000,0.00000,0.00000,0.00000,0.00000,0.00000
19.70461,147.57118,152.03941,152.03938,174.96381,0.23225,745.88190,0.87118,0.08967,0.00218,0.00000,0.00000,0.00000,2.87360,-7.60669,68.18251,68.78078,0.84788,30.29229,-87.49784,2194.74365,2177.41968,0.00000,2190.83496,207.28206,585.95374,-32540.53320,72.63145,2.77711,-28.89072,0.62353,0.62353,439.60489,439.50366,734.44934,733.92566,1156.04138,1155.64636,2000.50354,2000.71118,2000.50354,2000.71118,14.14881,14.16473,84.13319,84.13319,99.94566,99.95680,258.96442,258.90640,462.13763,462.13763,449.99289,449.99289,177.50960,177.51016,14.39824,14.39824,0.00000,0.00000,0.00000,0.00000,0.00000,0.00000
19.70465,147.66605,152.15268,152.15266,175.09416,0.23243,726.32233,0.86973,0.10759,0.00358,0.00000,0.00000,0.00000,2.73852,-8.45958,68.10310,68.70142,0.82127,30.29232,-87.49776,2195.79395,2179.46118,0.00000,2191.89771,215.49919,586.25677,-32543.81055,72.64444,2.62935,-29.02939,0.62353,0.62353,479.26428,479.18515,829.38110,828.75464,1257.60229,1257.28210,2004.11133,2004.27942,2004.11133,2004.27942,14.52919,14.54294,85.08643,85.08643,100.16283,100.17178,287.17722,287.11603,463.66013,463.66013,453.68298,453.68298,177.52505,177.52565,14.45786,14.45786,0.00000,0.00000,0.00000,0.00000,0.00000,0.00000
19.70467,147.78720,152.28415,152.28413,175.24545,0.23263,707.46429,0.86854,0.11626,0.00573,0.00000,0.00000,0.00000,2.61599,-9.25778,68.04019,68.63858,0.79698,30.29234,-87.49768,2196.70825,2181.33252,0.00000,2192.83789,223.03375,586.51990,-32546.83203,72.66525,2.49137,-29.17157,0.62353,0.62353,499.88773,499.82294,876.58704,875.94470,1310.36035,1310.09326,2005.77844,2005.91919,2005.77844,2005.91919,14.74973,14.76202,85.56292,85.56292,100.26666,100.27410,310.77200,310.71506,464.96866,464.96866,456.78577,456.78577,177.54221,177.54282,14.51216,14.51216,0.00000,0.00000,0.00000,0.00000,0.00000,0.00000
19.70470,147.92488,152.42961,152.42960,175.41284,0.23285,688.01471,0.86768,0.12087,0.00836,0.00000,0.00000,0.00000,2.49745,-10.05685,67.98229,68.58074,0.77432,30.29237,-87.49760,2197.56592,2183.41187,0.00000,2193.72632,230.48065,586.76575,-32549.83008,72.68935,2.35279,-29.32371,0.62353,0.62353,511.53928,511.48380,902.99677,902.25739,1340.19495,1339.96399,2006.57849,2006.70264,2006.57849,2006.70264,14.90010,14.91155,85.82619,85.82619,100.31960,100.32603,329.07086,329.02002,466.20425,466.20425,459.64792,459.64792,177.56065,177.56126,14.56322,14.56322,0.00000,0.00000,0.00000,0.00000,0.00000,0.00000
19.70473,148.06859,152.58034,152.58031,175.58629,0.23308,668.37823,0.86730,0.12302,0.01100,0.00000,0.00000,0.00000,2.38503,-10.83928,67.92506,68.52357,0.75422,30.29240,-87.49753,2198.35449,2184.89160,0.00000,2194.53223,237.71706,586.99084,-32552.75977,72.71349,2.21615,-29.48152,0.62353,0.62353,518.00818,517.95709,916.62402,915.74695,1356.85986,1356.64526,2006.86743,2006.98584,2006.86743,2006.98584,15.00345,15.01482,85.96939,85.96939,100.34055,100.34650,342.03769,341.99249,467.36124,467.36124,462.26352,462.26352,177.57935,177.57997,14.60943,14.60943,0.00000,0.00000,0.00000,0.00000,0.00000,0.00000
19.70475,148.21477,152.73222,152.73221,175.76109,0.23332,648.70575,0.86719,0.12387,0.01355,0.00000,0.00000,0.00000,2.27819,-11.60093,67.86447,68.46304,0.73647,30.29242,-87.49745,2199.07544,2186.78076,0.00000,2195.27515,244.72409,587.19580,-32555.60938,72.73611,2.08213,-29.64320,0.62353,0.62353,521.64484,521.59363,923.44049,922.39899,1366.32874,1366.11328,2006.87952,2007.00073,2006.87952,2007.00073,15.08024,15.09220,86.04812,86.04812,100.34472,100.35070,350.87061,350.82932,468.44699,468.44699,464.65924,464.65924,177.59784,177.59848,14.65067,14.65067,0.00000,0.00000,0.00000,0.00000,0.00000,0.00000
19.70478,148.35994,152.88458,152.88457,175.93643,0.23355,628.91644,0.86725,0.12410,0.01577,0.00000,0.00000,0.00000,2.17487,-12.34740,67.79704,68.39566,0.72040,30.29245,-87.49738,2199.73779,2187.99634,0.00000,2195.95044,251.56131,587.38318,-32558.40625,72.75662,1.94976,-29.80928,0.62353,0.62353,523.75513,523.70111,927.00525,925.78400,1371.91968,1371.69141,2006.73853,2006.86902,2006.73853,2006.86902,15.14185,15.15495,86.09243,86.09243,100.34007,100.34641,356.82816,356.78882,469.47729,469.47729,466.87894,466.87894,177.61609,177.61673,14.68759,14.68759,0.00000,0.00000,0.00000,0.00000,0.00000,0.00000
19.70481,148.55560,153.08467,153.08467,176.16670,0.23385,602.72589,0.86731,0.12378,0.01824,0.00000,0.00000,0.00000,2.04208,-13.30909,67.69463,68.29332,0.70103,30.29248,-87.49729,2200.52759,2190.12817,0.00000,2196.77539,260.32736,587.60510,-32562.01367,72.77979,1.77755,-30.03443,0.62353,0.62353,525.31421,525.25299,928.27838,926.80597,1376.19678,1375.93738,2006.44067,2006.58997,2006.44067,2006.58997,15.20738,15.22262,86.12324,86.12324,100.32599,100.33320,361.77615,361.73654,470.75974,470.75974,469.56793,469.56793,177.63960,177.64026,14.73036,14.73036,0.00000,0.00000,0.00000,0.00000,0.00000,0.00000
19.70484,148.70044,153.23715,153.23714,176.34215,0.23409,582.60126,0.86741,0.12345,0.01958,0.00000,0.00000,0.00000,1.94160,-14.03072,67.60447,68.20321,0.68717,30.29250,-87.49722,2201.07251,2191.37817,0.00000,2197.32593,266.87100,587.75708,-32564.72461,72.79438,1.64698,-30.21174,0.62353,0.62353,526.00922,525.94128,928.58533,926.93152,1378.20239,1377.91431,2006.15210,2006.31824,2006.15210,2006.31824,15.25058,15.26771,86.13569,86.13569,100.31253,100.32054,364.14252,364.10092,471.69061,471.69061,471.46844,471.46844,177.65720,177.65785,14.75916,14.75916,0.00000,0.00000,0.00000,0.00000,0.00000,0.00000
19.70486,148.84775,153.38963,153.38963,176.51764,0.23432,562.31628,0.86736,0.12299,0.02056,0.00000,0.00000,0.00000,1.84075,-14.74501,67.50342,68.10221,0.67381,30.29253,-87.49715,2201.57129,2192.56299,0.00000,2197.84033,273.31476,587.89520,-32567.41016,72.80620,1.51643,-30.39435,0.62353,0.62353,526.47656,526.40118,928.14905,926.32397,1379.63135,1379.31140,2005.85095,2006.03467,2005.85095,2006.03467,15.28939,15.30859,86.14303,86.14303,100.29765,100.30656,365.73807,365.69354,472.58618,472.58618,473.25604,473.25604,177.67451,177.67519,14.78512,14.78512,0.00000,0.00000,0.00000,0.00000,0.00000,0.00000
19.70489,148.99838,153.54877,153.54877,176.70076,0.23457,541.00488,0.86819,0.12254,0.02151,0.00000,0.00000,0.00000,1.73461,-15.47947,67.38672,67.98557,0.66007,30.29255,-87.49709,2202.04419,2193.85986,0.00000,2198.32202,279.93414,588.02478,-32570.18359,72.81554,1.38039,-30.59045,0.62353,0.62353,526.82324,526.74048,927.46448,925.48022,1380.76355,1380.41199,2005.51965,2005.72131,2005.51965,2005.72131,15.32635,15.34775,86.14754,86.14754,100.28140,100.29119,366.86270,366.81424,473.48526,473.48526,475.01065,475.01065,177.69229,177.69296,14.80952,14.80952,0.00000,0.00000,0.00000,0.00000,0.00000,0.00000
19.70492,149.16017,153.71861,153.71861,176.89622,0.23483,518.12518,0.86905,0.12206,0.02179,0.00000,0.00000,0.00000,1.61974,-16.22270,67.25040,67.84930,0.64487,30.29258,-87.49702,2202.49658,2195.37817,0.00000,2198.78149,286.88559,588.14740,-32573.11914,72.82213,1.23607,-30.80596,0.62353,0.62353,527.10065,527.01074,926.73938,924.61200,1381.73389,1381.35132,2005.15576,2005.37439,2005.15576,2005.37439,15.36265,15.38635,86.15033,86.15033,100.26375,100.27441,367.66870,367.61560,474.40747,474.40747,476.76874,476.76874,177.71092,177.71159,14.83286,14.83286,0.00000,0.00000,0.00000,0.00000,0.00000,0.00000
19.70494,149.32701,153.89275,153.89273,177.09660,0.23509,494.53958,0.86934,0.12153,0.02143,0.00000,0.00000,0.00000,1.50047,-16.93167,67.09950,67.69846,0.62966,30.29261,-87.49694,2202.90674,2196.67822,0.00000,2199.20483,293.89697,588.25690,-32576.09961,72.82526,1.08795,-31.03338,0.62353,0.62353,527.32568,527.22931,925.85638,923.60663,1382.57068,1382.16016,2004.79248,2005.02612,2004.79248,2005.02612,15.39736,15.42332,86.15195,86.15195,100.24584,100.25729,368.22528,368.16745,475.31534,475.31534,478.45801,478.45801,177.72968,177.73035,14.85424,14.85424,0.00000,0.00000,0.00000,0.00000,0.00000,0.00000
19.70497,149.49452,154.06276,154.06276,177.29227,0.23535,471.38660,0.86950,0.12096,0.02077,0.00000,0.00000,0.00000,1.38307,-17.57534,66.94296,67.54196,0.61571,30.29263,-87.49687,2203.25708,2197.77393,0.00000,2199.57788,300.63504,588.34863,-32578.98438,72.82496,0.94291,-31.26126,0.62353,0.62353,527.51312,527.41162,924.56531,922.21259,1383.30249,1382.86963,2004.45984,2004.70496,2004.45984,2004.70496,15.42877,15.45678,86.15284,86.15284,100.22843,100.24050,368.60187,368.53970,476.16711,476.16711,480.00528,480.00528,177.74765,177.74832,14.87290,14.87290,0.00000,0.00000,0.00000,0.00000,0.00000,0.00000
19.70499,149.66617,154.24821,154.24820,177.50568,0.23563,446.03867,0.86996,0.12051,0.01991,0.00000,0.00000,0.00000,1.25433,-18.22598,66.76399,67.36305,0.60132,30.29266,-87.49680,2203.58301,2199.11401,0.00000,2199.90698,307.85928,588.43176,-32582.10156,72.82122,0.78467,-31.51533,0.62353,0.62353,527.68915,527.58374,923.83942,921.42310,1384.01086,1383.56152,2004.07996,2004.33289,2004.07996,2004.33289,15.46191,15.49183,86.15340,86.15340,100.21055,100.22309,368.89609,368.82971,477.05884,477.05884,481.58676,481.58676,177.76688,177.76755,14.89108,14.89108,0.00000,0.00000,0.00000,0.00000,0.00000,0.00000
19.70502,149.85321,154.43657,154.43655,177.72241,0.23592,420.16647,0.87010,0.11987,0.01885,0.00000,0.00000,0.00000,1.12314,-18.83784,66.57575,67.17487,0.58758,30.29269,-87.49672,2203.85718,2199.44678,0.00000,2200.20630,315.07605,588.49890,-32585.24219,72.81391,0.62353,-31.77883,0.62353,0.62353,527.85828,527.75085,922.11432,919.63843,1384.70813,1384.24902,2003.74146,2003.99902,2003.74146,2003.99902,15.49246,15.52408,86.15371,86.15371,100.19220,100.20502,369.11853,369.04886,477.92776,477.92776,483.08957,483.08957,177.78603,177.78670,14.90751,14.90751,0.00000,0.00000,0.00000,0.00000,0.00000,0.00000
19.70505,150.02878,154.61830,154.61829,177.93155,0.23620,394.87076,0.87055,0.11766,0.01785,0.00000,0.00000,0.00000,0.99598,-19.38965,66.38840,66.98758,0.57533,30.29272,-87.49665,2204.07056,2199.23218,0.00000,2200.43457,321.98560,588.54816,-32588.27539,72.80290,0.46648,-32.03954,0.62150,0.62150,521.68011,521.57141,912.12115,909.62250,1368.99487,1368.53296,2002.97498,2003.23389,2002.97498,2003.23389,15.49124,15.52425,86.01523,86.01523,100.15607,100.16899,367.98471,367.91254,478.64374,478.64374,484.26874,484.26874,177.80353,177.80420,14.92115,14.92115,0.00000,0.00000,0.00000,0.00000,0.00000,0.00000
19.70507,150.20586,154.79784,154.79784,178.13817,0.23648,369.45312,0.87092,0.11569,0.01688,0.00000,0.00000,0.00000,0.86956,-19.90161,66.19855,66.79778,0.56397,30.29274,-87.49658,2204.23315,2198.70142,0.00000,2200.61597,328.79150,588.58197,-32591.28711,72.78795,0.30921,-32.30377,0.56250,0.56250,498.84711,498.73596,903.24786,900.75055,1309.49939,1309.03894,2001.53088,2001.78845,2001.53088,2001.78845,15.49196,15.52613,85.51403,85.51403,100.12372,100.13661,366.22107,366.14728,479.32266,479.32266,485.35577,485.35577,177.82033,177.82100,14.93278,14.93278,0.00000,0.00000,0.00000,0.00000,0.00000,0.00000
19.70510,150.36981,154.95752,154.95752,178.32193,0.23672,343.99353,0.87091,0.09802,0.01594,0.00000,0.00000,0.00000,0.74526,-20.37139,66.00793,66.60721,0.55434,30.29277,-87.49651,2204.34619,2198.56494,0.00000,2200.74438,335.47803,588.60077,-32594.27148,72.76131,0.15198,-32.56647,0.50800,0.50800,429.52646,429.40744,813.13544,810.67090,1129.93091,1129.47095,1996.55042,1996.81250,1996.55042,1996.81250,15.20787,15.24336,83.88929,83.88929,99.91089,99.92388,351.82407,351.74789,479.07748,479.07748,484.59344,484.59344,177.82903,177.82970,14.93658,14.93658,0.00000,0.00000,0.00000,0.00000,0.00000,0.00000
19.70512,150.50514,155.09047,155.09048,178.47495,0.23692,317.51303,0.87066,0.08166,0.01493,0.00000,0.00000,0.00000,0.62010,-20.81220,65.80970,66.40904,0.54796,30.29280,-87.49644,2204.41211,2198.06177,0.00000,2200.82617,342.29877,588.60480,-32597.34180,72.71603,-0.01155,-32.83436,0.53926,0.53926,404.60034,404.47665,729.33386,727.12354,1066.47620,1066.00781,1993.60046,1993.86731,1993.60046,1993.86731,14.92484,14.96207,83.24376,83.24376,99.71256,99.72589,327.86951,327.78992,478.77148,478.77148,483.73309,483.73309,177.83284,177.83351,14.93151,14.93151,0.00000,0.00000,0.00000,0.00000,0.00000,0.00000
19.70515,150.62831,155.21530,155.21530,178.61859,0.23711,290.05652,0.87090,0.07769,0.01418,0.00000,0.00000,0.00000,0.49412,-21.22683,65.60531,66.20470,0.54390,30.29283,-87.49637,2204.42725,2197.74854,0.00000,2200.85889,349.23178,588.59296,-32600.49219,72.66115,-0.18043,-33.11031,0.57106,0.57106,411.04630,410.92526,709.25800,707.21039,1084.02502,1083.56250,1993.39856,1993.65955,1993.39856,1993.65955,14.85318,14.89147,83.38971,83.38971,99.66122,99.67441,309.92361,309.84131,478.85907,478.85907,483.67529,483.67529,177.83714,177.83781,14.92456,14.92456,0.00000,0.00000,0.00000,0.00000,0.00000,0.00000
19.70518,150.75395,155.35117,155.35117,178.77495,0.23732,261.46191,0.87154,0.08257,0.01378,0.00000,0.00000,0.00000,0.36454,-21.62388,65.39500,65.99445,0.53921,30.29285,-87.49629,2204.38818,2197.79224,0.00000,2200.83862,356.31174,588.56409,-32603.73828,72.60502,-0.35490,-33.39940,0.60355,0.60355,437.30215,437.18884,734.92346,732.88007,1152.63757,1152.19263,1995.04871,1995.29688,1995.04871,1995.29688,14.94267,14.98142,84.03139,84.03139,99.71573,99.72838,303.21072,303.12817,479.31485,479.31485,484.34979,484.34979,177.84430,177.84497,14.92034,14.92034,0.00000,0.00000,0.00000,0.00000,0.00000,0.00000
19.70520,150.90268,155.51289,155.51289,178.96104,0.23757,231.49886,0.87193,0.09369,0.01366,0.00000,0.00000,0.00000,0.22799,-22.01072,65.17838,65.77788,0.53112,30.29288,-87.49622,2204.28955,2197.79346,0.00000,2200.76001,363.59042,588.51636,-32607.10938,72.55359,-0.53620,-33.70650,0.63699,0.63699,478.20084,478.09842,793.16534,791.00806,1258.81641,1258.39722,1997.95203,1998.18347,1997.95203,1998.18347,15.15391,15.19270,85.00094,85.00094,99.84418,99.85604,308.67569,308.59567,480.13596,480.13596,485.73132,485.73132,177.85617,177.85684,14.92171,14.92171,0.00000,0.00000,0.00000,0.00000,0.00000,0.00000
19.70523,151.07530,155.69719,155.69719,179.17314,0.23785,202.19920,0.87362,0.10792,0.01419,0.00000,0.00000,0.00000,0.09268,-22.35019,64.97036,65.56992,0.51868,30.29291,-87.49615,2204.13940,2197.58740,0.00000,2200.62598,370.58118,588.45343,-32610.37695,72.51402,-0.71134,-34.01220,0.66912,0.66912,526.68225,526.59174,867.85809,865.57788,1384.16187,1383.77246,2001.36670,2001.57886,2001.36670,2001.57886,15.43307,15.47156,86.09544,86.09544,100.00843,100.01939,324.30029,324.22495,481.24219,481.24219,487.66180,487.66180,177.87291,177.87357,14.92964,14.92964,0.00000,0.00000,0.00000,0.00000,0.00000,0.00000
19.70525,151.27859,155.91843,155.91843,179.42773,0.23819,171.96237,0.87087,0.12462,0.01417,0.00000,0.00000,0.00000,-0.04896,-22.63419,64.75877,65.35840,0.50321,30.29294,-87.49607,2203.92969,2197.37061,0.00000,2200.43677,377.67932,588.37201,-32613.72852,72.48652,-0.89215,-34.33327,0.70175,0.70175,583.48566,583.40814,955.75989,953.32532,1530.53699,1530.18237,2005.31738,2005.50830,2005.31738,2005.50830,15.76916,15.80710,87.30707,87.30707,100.19849,100.20839,348.65997,348.59103,482.66623,482.66623,490.17862,490.17862,177.89586,177.89651,14.94455,14.94455,0.00000,0.00000,0.00000,0.00000,0.00000,0.00000
19.70528,151.52100,156.18080,156.18080,179.72968,0.23859,140.89302,0.86852,0.14330,0.01405,0.00000,0.00000,0.00000,-0.19525,-22.85772,64.54369,65.14337,0.48711,30.29297,-87.49599,2203.65845,2196.97803,0.00000,2200.18506,384.85172,588.27142,-32617.14844,72.47392,-1.07903,-34.66845,0.73474,0.73474,647.01532,646.95062,1054.33691,1051.66797,1693.64526,1693.32727,2009.54285,2009.71228,2009.54285,2009.71228,16.15461,16.19180,88.58246,88.58246,100.40767,100.41648,380.44583,380.38446,484.40210,484.40210,493.25739,493.25739,177.92561,177.92627,14.96646,14.96646,0.00000,0.00000,0.00000,0.00000,0.00000,0.00000
19.70531,151.79805,156.47842,156.47844,180.07217,0.23904,109.81331,0.86725,0.16160,0.01391,0.00000,0.00000,0.00000,-0.34067,-23.01977,64.33002,64.92976,0.47194,30.29300,-87.49593,2203.33252,2196.64355,0.00000,2199.87988,391.90561,588.15430,-32620.54492,72.47728,-1.26585,-35.00864,0.73450,0.73450,698.65546,698.60077,1151.20068,1148.30713,1825.17334,1824.88843,2012.99927,2013.14978,2012.99927,2013.14978,16.54626,16.58278,89.56840,89.56840,100.60829,100.61612,417.00214,416.94861,486.35336,486.35336,496.70480,496.70480,177.96135,177.96201,14.99414,14.99414,0.00000,0.00000,0.00000,0.00000,0.00000,0.00000
19.70533,152.11380,156.80896,156.80896,180.45255,0.23955,77.61182,0.86712,0.16941,0.01358,0.00000,0.00000,0.00000,-0.48845,-23.12533,64.10914,64.70893,0.45863,30.29304,-87.49585,2202.93896,2196.27759,0.00000,2199.50757,399.09531,588.01605,-32624.04102,72.49070,-1.45806,-35.36299,0.72700,0.72700,714.70801,714.65930,1194.18665,1191.10498,1865.66357,1865.40552,2013.88684,2014.02527,2013.88684,2014.02527,16.76805,16.80416,89.86727,89.86727,100.68623,100.69331,449.12534,449.07892,488.09619,488.09619,499.65613,499.65613,177.99965,178.00031,15.02427,15.02427,0.00000,0.00000,0.00000,0.00000,0.00000,0.00000
19.70536,152.44421,157.15221,157.15221,180.84755,0.24007,44.49420,0.86848,0.16839,0.01299,0.00000,0.00000,0.00000,-0.63453,-23.16767,63.88115,64.48100,0.44977,30.29307,-87.49577,2202.47754,2196.06787,0.00000,2199.07227,406.37549,587.85657,-32627.61523,72.50559,-1.65302,-35.72528,0.69950,0.69950,700.49481,700.44794,1191.43811,1188.29578,1829.02051,1828.77649,2012.66223,2012.79480,2012.66223,2012.79480,16.83734,16.87357,89.60774,89.60774,100.66098,100.66768,469.48795,469.44699,489.61212,489.61212,502.09033,502.09033,178.03773,178.03839,15.05260,15.05260,0.00000,0.00000,0.00000,0.00000,0.00000,0.00000
19.70539,152.77985,157.49086,157.49088,181.23727,0.24059,10.88272,0.87154,0.16300,0.01209,0.00000,0.00000,0.00000,-0.77443,-23.14333,63.64785,64.24776,0.44729,30.29310,-87.49570,2201.95190,2195.46851,0.00000,2198.56201,413.66278,587.67743,-32631.23047,72.51556,-1.84671,-36.08841,0.69950,0.69950,689.30225,689.25604,1165.80090,1162.69324,1801.14600,1800.90796,2011.32715,2011.45728,2011.32715,2011.45728,16.82435,16.86102,89.39387,89.39387,100.58554,100.59210,476.89618,476.85873,490.93140,490.93140,504.09030,504.09030,178.07367,178.07433,15.07637,15.07637,0.00000,0.00000,0.00000,0.00000,0.00000,0.00000
19.70541,153.09781,157.81255,157.81255,181.60745,0.24108,-21.86292,0.87603,0.15784,0.01114,0.00000,0.00000,0.00000,-0.90189,-23.06085,63.41831,64.01827,0.45102,30.29313,-87.49562,2201.38696,2194.79028,0.00000,2198.01074,420.68396,587.48676,-32634.74609,72.52059,-2.03021,-36.43864,0.67600,0.67600,668.01648,667.97028,1140.88403,1137.82019,1746.79053,1746.55859,2009.56311,2009.69019,2009.56311,2009.69019,16.80503,16.84209,88.99060,88.99060,100.51274,100.51914,477.27887,477.24347,492.09097,492.09097,505.76303,505.76303,178.10674,178.10739,15.09548,15.09548,0.00000,0.00000,0.00000,0.00000,0.00000,0.00000
19.70544,153.40666,158.12689,158.12689,181.96919,0.24156,-55.37094,0.88169,0.14733,0.01006,0.00000,0.00000,0.00000,-1.02355,-22.91829,63.18115,63.78117,0.46016,30.29317,-87.49555,2200.75488,2194.15918,0.00000,2197.40503,427.81287,587.27527,-32638.35156,72.51773,-2.21187,-36.79270,0.65650,0.65650,632.48859,632.44141,1087.91479,1084.93774,1656.09998,1655.87219,2006.71997,2006.84656,2006.71997,2006.84656,16.68393,16.72151,88.29816,88.29816,100.37856,100.38488,468.84140,468.80716,492.91855,492.91855,506.74240,506.74240,178.13628,178.13693,15.10939,15.10939,0.00000,0.00000,0.00000,0.00000,0.00000,0.00000
19.70546,153.70393,158.42642,158.42644,182.31389,0.24202,-89.01301,0.88833,0.13908,0.00881,0.00000,0.00000,0.00000,-1.13722,-22.71850,62.94092,63.54100,0.47372,30.29320,-87.49548,2200.06665,2193.55615,0.00000,2196.73267,434.93927,587.04633,-32641.99023,72.50595,-2.38757,-37.14428,0.65650,0.65650,614.14227,614.09460,1046.21960,1043.39001,1609.79199,1609.56628,2004.90564,2005.02991,2004.90564,2005.02991,16.58997,16.62810,87.92540,87.92540,100.27069,100.27697,455.74432,455.71051,493.68155,493.68155,507.58774,507.58774,178.16313,178.16379,15.11822,15.11822,0.00000,0.00000,0.00000,0.00000,0.00000,0.00000
19.70549,153.98799,158.71440,158.71440,182.64528,0.24245,-122.17530,0.89537,0.13448,0.00768,0.00000,0.00000,0.00000,-1.24207,-22.47171,62.70247,63.30261,0.48982,30.29323,-87.49540,2199.33496,2192.66211,0.00000,2196.01611,441.95999,586.80432,-32645.61133,72.48927,-2.55403,-37.48952,0.65650,0.65650,604.45471,604.40869,1023.09955,1020.37976,1585.42493,1585.20886,2003.79565,2003.91418,2003.79565,2003.91418,16.55198,16.59033,87.72436,87.72436,100.20580,100.21184,443.97079,443.93729,494.43265,494.43265,508.41531,508.41531,178.18837,178.18901,15.12410,15.12410,0.00000,0.00000,0.00000,0.00000,0.00000,0.00000
19.70552,154.28076,159.01843,159.01843,182.99515,0.24292,-157.52617,0.90289,0.13027,0.00651,0.00000,0.00000,0.00000,-1.34735,-22.15604,62.44704,63.04724,0.50837,30.29327,-87.49532,2198.49536,2192.00098,0.00000,2195.20972,449.46909,586.52783,-32649.51953,72.46802,-2.72432,-37.85778,0.63300,0.63300,585.46918,585.42542,1001.87219,999.23999,1536.55066,1536.34961,2002.25281,2002.36279,2002.25281,2002.36279,16.51948,16.55782,87.33524,87.33524,100.14561,100.15124,433.48846,433.45575,495.16248,495.16248,509.14935,509.14935,178.21410,178.21474,15.12833,15.12833,0.00000,0.00000,0.00000,0.00000,0.00000,0.00000
19.70554,154.56880,159.30612,159.30612,183.32623,0.24336,-192.06006,0.91045,0.12102,0.00530,0.00000,0.00000,0.00000,-1.44392,-21.79641,62.19629,62.79654,0.52758,30.29330,-87.49525,2197.61475,2191.14771,0.00000,2194.33911,456.86020,586.23901,-32653.40625,72.44064,-2.88357,-38.21679,0.60550,0.60550,551.12262,551.08026,954.48328,951.97968,1448.07800,1447.89050,1999.70581,1999.80933,1999.70581,1999.80933,16.39331,16.43167,86.61147,86.61147,100.03018,100.03545,419.75815,419.72653,495.54608,495.54608,509.20740,509.20740,178.23561,178.23625,15.12842,15.12842,0.00000,0.00000,0.00000,0.00000,0.00000,0.00000
19.70557,154.84375,159.58783,159.58783,183.65041,0.24379,-227.63954,0.91806,0.11083,0.00406,0.00000,0.00000,0.00000,-1.53611,-21.36946,61.93647,62.53679,0.54938,30.29334,-87.49517,2196.64209,2190.37183,0.00000,2193.40649,464.56415,585.92108,-32657.49805,72.40305,-3.04045,-38.58514,0.60550,0.60550,525.99493,525.95416,901.91516,899.62384,1383.79126,1383.61499,1997.49060,1997.58691,1997.49060,1997.58691,16.24027,16.27872,86.05801,86.05801,99.90467,99.90965,401.34100,401.31042,495.73721,495.73721,508.87256,508.87256,178.25397,178.25459,15.12339,15.12339,0.00000,0.00000,0.00000,0.00000,0.00000,0.00000
19.70560,155.11150,159.85176,159.85178,183.95415,0.24419,-261.90427,0.92615,0.10495,0.00283,0.00000,0.00000,0.00000,-1.61765,-20.90580,61.68464,62.28502,0.57218,30.29337,-87.49509,2195.63965,2189.04224,0.00000,2192.39526,472.10327,585.59424,-32661.54297,72.36063,-3.18441,-38.94060,0.60550,0.60550,513.25928,513.22272,871.37109,869.25720,1351.28003,1351.12402,1996.33386,1996.41821,1996.33386,1996.41821,16.15507,16.19316,85.76956,85.76956,99.83118,99.83560,385.24686,385.21759,495.94727,495.94727,508.61679,508.61679,178.27013,178.27075,15.11579,15.11579,0.00000,0.00000,0.00000,0.00000,0.00000,0.00000
19.70563,155.35793,160.11392,160.11392,184.25581,0.24459,-295.65701,0.93362,0.10402,0.00191,0.00000,0.00000,0.00000,-1.69142,-20.40017,61.43509,62.03553,0.59571,30.29341,-87.49501,2194.58496,2188.00635,0.00000,2191.39502,479.68042,585.25116,-32665.64648,72.31684,-3.31934,-39.29411,0.62150,0.62150,518.72101,518.69000,866.45758,864.46332,1365.86597,1365.73267,1996.42615,1996.49609,1996.42615,1996.49609,16.15368,16.19124,85.88483,85.88483,99.81609,99.81986,374.42206,374.39502,496.28455,496.28455,508.63455,508.63455,178.28627,178.28690,15.10788,15.10788,0.00000,0.00000,0.00000,0.00000,0.00000,0.00000
19.70565,155.54396,160.31033,160.31035,184.48187,0.24489,-320.06439,0.93932,0.10509,0.00122,0.00000,0.00000,0.00000,-1.74113,-20.00258,61.25391,61.85440,0.61282,30.29344,-87.49495,2193.77734,2187.40039,0.00000,2190.61890,485.27249,584.98895,-32668.70117,72.28629,-3.41270,-39.55342,0.62150,0.62150,521.82385,521.79773,871.85211,869.90552,1373.89856,1373.78601,1996.59729,1996.65503,1996.59729,1996.65503,16.18503,16.22196,85.95324,85.95324,99.82608,99.82927,370.70172,370.67688,496.58771,496.58771,508.76489,508.76489,178.29874,178.29936,15.10310,15.10310,0.00000,0.00000,0.00000,0.00000,0.00000,0.00000
19.70568,155.83466,160.60457,160.60457,184.82045,0.24534,-355.21613,0.94812,0.10598,0.00027,0.00000,0.00000,0.00000,-1.80733,-19.38302,60.99124,61.59179,0.63730,30.29348,-87.49487,2192.54321,2186.04883,0.00000,2189.38110,493.53577,584.58887,-32673.25391,72.24413,-3.54038,-39.93330,0.62150,0.62150,524.48309,524.46442,876.41101,874.53369,1380.78137,1380.70056,1996.72131,1996.76147,1996.72131,1996.76147,16.22308,16.25896,86.01144,86.01144,99.83467,99.83696,368.53149,368.51068,497.02039,497.02039,508.93896,508.93896,178.31737,178.31799,15.09724,15.09724,0.00000,0.00000,0.00000,0.00000,0.00000,0.00000
19.70571,156.02843,160.81490,160.81490,185.06248,0.24566,-379.37943,0.95366,0.10629,-0.00025,0.00000,0.00000,0.00000,-1.84867,-18.92145,60.80921,61.40981,0.65445,30.29351,-87.49480,2191.64209,2185.34668,0.00000,2188.54419,499.38504,584.29706,-32676.50391,72.21635,-3.62345,-40.19922,0.62150,0.62150,525.56036,525.54633,878.02606,876.20282,1383.58569,1383.52478,1996.74719,1996.77539,1996.74719,1996.77539,16.24469,16.27986,86.03460,86.03460,99.83696,99.83868,368.10922,368.09155,497.31744,497.31744,509.05231,509.05231,178.33063,178.33125,15.09372,15.09372,0.00000,0.00000,0.00000,0.00000,0.00000,0.00000
19.70574,156.34309,161.13467,161.13469,185.43051,0.24614,-414.62488,0.96324,0.10639,-0.00120,0.00000,0.00000,0.00000,-1.90193,-18.19066,60.54045,61.14112,0.68026,30.29355,-87.49471,2190.24146,2183.96362,0.00000,2187.14722,508.22308,583.84406,-32681.45703,72.17755,-3.73678,-40.59549,0.62150,0.62150,526.48724,526.48053,878.53943,876.80261,1386.01367,1385.98438,1996.75281,1996.76379,1996.75281,1996.76379,16.27358,16.30755,86.05402,86.05402,99.83784,99.83866,368.14331,368.13058,497.75357,497.75357,509.21188,509.21188,178.35066,178.35129,15.08912,15.08912,0.00000,0.00000,0.00000,0.00000,0.00000,0.00000
19.70576,156.55444,161.35472,161.35472,185.68370,0.24648,-437.81802,0.96973,0.10634,-0.00180,0.00000,0.00000,0.00000,-1.93187,-17.66821,60.36094,60.96166,0.69797,30.29358,-87.49465,2189.25757,2182.72974,0.00000,2186.18726,514.27710,583.52618,-32684.88086,72.15331,-3.80578,-40.86258,0.62150,0.62150,526.84467,526.84247,878.32062,876.64832,1386.96094,1386.95154,1996.73962,1996.73938,1996.73962,1996.73938,16.29179,16.32495,86.06118,86.06118,99.83737,99.83765,368.32190,368.31253,498.04419,498.04419,509.31442,509.31442,178.36436,178.36497,15.08636,15.08636,0.00000,0.00000,0.00000,0.00000,0.00000,0.00000
19.70578,156.77132,161.57382,161.57382,185.93584,0.24681,-460.03537,0.97650,0.10622,-0.00242,0.00000,0.00000,0.00000,-1.95643,-17.13294,60.18645,60.78722,0.71538,30.29361,-87.49459,2188.26270,2181.82788,0.00000,2185.19189,520.29291,583.20490,-32688.30469,72.13122,-3.86711,-41.12412,0.62150,0.62150,527.07245,527.07483,877.73413,876.12469,1387.57043,1387.58069,1996.72644,1996.71521,1996.72644,1996.71521,16.30947,16.34178,86.06550,86.06550,99.83667,99.83638,368.51566,368.50958,498.32678,498.32678,509.41162,509.41162,178.37793,178.37854,15.08387,15.08387,0.00000,0.00000,0.00000,0.00000,0.00000,0.00000
19.70580,156.98375,161.79341,161.79340,186.18852,0.24715,-481.40048,0.98304,0.10610,-0.00299,0.00000,0.00000,0.00000,-1.97596,-16.58191,60.01587,60.61669,0.73251,30.29365,-87.49452,2187.25171,2180.83252,0.00000,2184.19995,526.31512,582.87854,-32691.75391,72.11122,-3.92127,-41.38173,0.62150,0.62150,527.22089,527.22754,877.13751,875.59412,1387.97034,1387.99927,1996.70923,1996.68750,1996.70923,1996.68750,16.32717,16.35864,86.06813,86.06813,99.83601,99.83519,368.69037,368.68753,498.60376,498.60376,509.50467,509.50467,178.39146,178.39207,15.08161,15.08161,0.00000,0.00000,0.00000,0.00000,0.00000,0.00000
19.70584,157.30806,162.11450,162.11450,186.55806,0.24764,-510.96051,0.99323,0.10581,-0.00395,0.00000,0.00000,0.00000,-1.99560,-15.75100,59.77417,60.37506,0.75673,30.29369,-87.49443,2185.75000,2179.45581,0.00000,2182.66016,535.12146,582.39404,-32696.83984,72.08606,-3.98717,-41.75022,0.62150,0.62150,527.35992,527.37274,875.67175,874.22760,1388.35205,1388.40820,1996.69531,1996.65894,1996.69531,1996.65894,16.35269,16.38282,86.07024,86.07024,99.83487,99.83328,368.89136,368.89307,498.99844,498.99844,509.63373,509.63373,178.41116,178.41176,15.07866,15.07866,0.00000,0.00000,0.00000,0.00000,0.00000,0.00000
19.70587,157.60373,162.41119,162.41118,186.89944,0.24809,-536.40735,1.00213,0.10556,-0.00477,0.00000,0.00000,0.00000,-2.00470,-14.95963,59.55921,60.16017,0.77802,30.29373,-87.49435,2184.34155,2178.19482,0.00000,2181.23535,543.26813,581.93970,-32701.58398,72.06751,-4.03411,-42.08157,0.62150,0.62150,527.43805,527.45660,874.48853,873.14001,1388.56506,1388.64563,1996.68384,1996.63403,1996.68384,1996.63403,16.37704,16.40593,86.07120,86.07120,99.83436,99.83208,369.02292,369.02875,499.35297,499.35297,509.74625,509.74625,178.42928,178.42986,15.07625,15.07625,0.00000,0.00000,0.00000,0.00000,0.00000,0.00000
19.70590,157.88077,162.69035,162.69035,187.22073,0.24851,-558.65851,1.01033,0.10530,-0.00557,0.00000,0.00000,0.00000,-2.00534,-14.19420,59.36457,59.96559,0.79723,30.29377,-87.49427,2183.00024,2176.91528,0.00000,2179.87842,550.95282,581.50714,-32706.09375,72.05450,-4.06625,-42.38506,0.62150,0.62150,527.49084,527.51453,873.31323,872.05176,1388.70935,1388.81213,1996.67554,1996.61353,1996.67554,1996.61353,16.40012,16.42776,86.07167,86.07167,99.83397,99.83106,369.11105,369.12064,499.67831,499.67831,509.84680,509.84680,178.44624,178.44681,15.07423,15.07423,0.00000,0.00000,0.00000,0.00000,0.00000,0.00000
19.70593,158.15323,162.96619,162.96617,187.53813,0.24893,-578.98651,1.01830,0.10504,-0.00637,0.00000,0.00000,0.00000,-1.99832,-13.41752,59.17990,59.78098,0.81567,30.29381,-87.49419,2181.66284,2175.37695,0.00000,2178.53638,558.57025,581.07568,-32710.59570,72.04617,-4.08674,-42.67667,0.62150,0.62150,527.53436,527.56281,872.07300,870.90442,1388.83105,1388.95471,1996.66699,1996.59290,1996.66699,1996.59290,16.42277,16.44917,86.07193,86.07193,99.83347,99.82996,369.17477,369.18799,499.99249,499.99249,509.94147,509.94147,178.46295,178.46352,15.07243,15.07243,0.00000,0.00000,0.00000,0.00000,0.00000,0.00000
19.70596,158.41702,163.23532,163.23532,187.84787,0.24934,-597.18787,1.02596,0.10478,-0.00714,0.00000,0.00000,0.00000,-1.98411,-12.64031,59.00727,59.60841,0.83317,30.29385,-87.49411,2180.34790,2173.89087,0.00000,2177.22119,566.03680,580.65143,-32715.03711,72.04267,-4.09591,-42.95304,0.62150,0.62150,527.56995,527.60315,870.90430,869.82880,1388.92896,1389.07324,1996.66016,1996.57471,1996.66016,1996.57471,16.44520,16.47034,86.07207,86.07207,99.83315,99.82907,369.22195,369.23865,500.29257,500.29257,510.02969,510.02969,178.47923,178.47980,15.07085,15.07085,0.00000,0.00000,0.00000,0.00000,0.00000,0.00000
19.70599,158.68367,163.50624,163.50624,188.15964,0.24976,-613.83527,1.03370,0.10450,-0.00794,0.00000,0.00000,0.00000,-1.96239,-11.83824,58.84148,59.44269,0.85040,30.29390,-87.49403,2179.01709,2172.62280,0.00000,2175.88574,573.59216,580.22186,-32719.56055,72.04409,-4.09436,-43.22266,0.62150,0.62150,527.60339,527.64124,869.64423,868.66113,1389.02234,1389.18665,1996.65417,1996.55750,1996.65417,1996.55750,16.46777,16.49158,86.07214,86.07214,99.83277,99.82812,369.25967,369.27972,500.58847,500.58847,510.11462,510.11462,178.49562,178.49617,15.06941,15.06941,0.00000,0.00000,0.00000,0.00000,0.00000,0.00000
19.70602,158.94904,163.77832,163.77832,188.47273,0.25017,-628.81525,1.04125,0.10424,-0.00870,0.00000,0.00000,0.00000,-1.93313,-11.01292,58.68340,59.28467,0.86727,30.29394,-87.49395,2177.67529,2171.36719,0.00000,2174.55591,581.22888,579.78870,-32724.16016,72.05086,-4.08188,-43.48439,0.62150,0.62150,527.63483,527.67719,868.46362,867.57458,1389.10950,1389.29309,1996.64709,1996.53955,1996.64709,1996.53955,16.49066,16.51312,86.07219,86.07219,99.83247,99.82727,369.29102,369.31442,500.87988,500.87988,510.19629,510.19629,178.51207,178.51260,15.06811,15.06811,0.00000,0.00000,0.00000,0.00000,0.00000,0.00000
19.70604,159.13739,163.97752,163.97752,188.70198,0.25047,-638.66840,1.04660,0.10404,-0.00925,0.00000,0.00000,0.00000,-1.90681,-10.39458,58.57336,59.17467,0.87961,30.29397,-87.49390,2176.69189,2170.39673,0.00000,2173.60962,586.85461,579.47095,-32727.56641,72.05939,-4.06596,-43.67004,0.62150,0.62150,527.65942,527.70477,867.58240,866.75946,1389.18213,1389.37903,1996.63647,1996.52112,1996.63647,1996.52112,16.50697,16.52844,86.07220,86.07220,99.83190,99.82633,369.31122,369.33701,501.08978,501.08978,510.25391,510.25391,178.52412,178.52466,15.06723,15.06723,0.00000,0.00000,0.00000,0.00000,0.00000,0.00000
19.70606,159.33771,164.19708,164.19708,188.95464,0.25081,-648.41797,1.05224,0.10385,-0.00980,0.00000,0.00000,0.00000,-1.87294,-9.69848,58.45786,59.05922,0.89325,30.29400,-87.49383,2175.60767,2169.51172,0.00000,2172.59351,593.09332,579.12048,-32731.35938,72.07246,-4.04172,-43.86857,0.62150,0.62150,527.68475,527.73328,866.80054,866.04596,1389.25586,1389.46680,1996.62036,1996.49670,1996.62036,1996.49670,16.52518,16.54556,86.07222,86.07222,99.83138,99.82542,369.33234,369.36069,501.31793,501.31793,510.31540,510.31540,178.53741,178.53795,15.06633,15.06633,0.00000,0.00000,0.00000,0.00000,0.00000,0.00000
19.70610,159.67349,164.53236,164.53236,189.34047,0.25132,-660.95331,1.06226,0.10347,-0.01081,0.00000,0.00000,0.00000,-1.81186,-8.60830,58.29339,58.89484,0.91316,30.29405,-87.49373,2173.95459,2167.85767,0.00000,2170.90747,602.71454,578.58551,-32737.24023,72.10050,-3.99021,-44.15872,0.62150,0.62150,527.72437,527.77808,864.97510,864.34528,1389.36816,1389.60156,1996.61975,1996.48364,1996.61975,1996.48364,16.55349,16.57205,86.07224,86.07224,99.83080,99.82420,369.36337,369.39545,501.66034,501.66034,510.40540,510.40540,178.55777,178.55829,15.06510,15.06510,0.00000,0.00000,0.00000,0.00000,0.00000,0.00000
19.70613,159.88208,164.74939,164.74937,189.59019,0.25165,-667.48010,1.06789,0.10327,-0.01135,0.00000,0.00000,0.00000,-1.76672,-7.88704,58.19498,58.79648,0.92518,30.29409,-87.49367,2172.88818,2167.00146,0.00000,2169.85620,609.00854,578.23999,-32741.10547,72.12432,-3.94765,-44.33743,0.62150,0.62150,527.74542,527.80237,864.18805,863.62805,1389.42285,1389.67004,1996.61377,1996.46997,1996.61377,1996.46997,16.57268,16.59004,86.07224,86.07224,99.83087,99.82388,369.38177,369.41623,501.87817,501.87817,510.46127,510.46127,178.57098,178.57150,15.06438,15.06438,0.00000,0.00000,0.00000,0.00000,0.00000,0.00000
19.70616,160.19969,165.06485,165.06483,189.95322,0.25213,-674.67169,1.07667,0.10291,-0.01229,0.00000,0.00000,0.00000,-1.69307,-6.81551,58.06380,58.66537,0.94164,30.29414,-87.49357,2171.34644,2165.83374,0.00000,2168.27319,618.26465,577.73981,-32746.81445,72.16747,-3.87284,-44.58365,0.62150,0.62150,527.77887,527.84052,862.62238,862.18402,1389.51331,1389.78076,1996.61377,1996.45886,1996.61377,1996.45886,16.60043,16.61599,86.07224,86.07224,99.83070,99.82313,369.40735,369.44525,502.19000,502.19000,510.53934,510.53934,178.59029,178.59081,15.06343,15.06343,0.00000,0.00000,0.00000,0.00000,0.00000,0.00000
19.70620,160.50700,165.37659,165.37659,190.31200,0.25261,-679.03040,1.08482,0.10256,-0.01319,0.00000,0.00000,0.00000,-1.61114,-5.72857,57.94896,58.55061,0.95672,30.29419,-87.49347,2169.83667,2164.80566,0.00000,2166.75073,627.55005,577.24927,-32752.56836,72.22076,-3.78411,-44.81015,0.62150,0.62150,527.81348,527.87939,861.16418,860.84363,1389.61023,1389.89648,1996.60632,1996.44092,1996.60632,1996.44092,16.62786,16.64161,86.07225,86.07225,99.83028,99.82218,369.43149,369.47266,502.49283,502.49283,510.61301,510.61301,178.60950,178.61000,15.06259,15.06259,0.00000,0.00000,0.00000,0.00000,0.00000,0.00000
19.70623,160.79437,165.66203,165.66203,190.64047,0.25304,-680.51257,1.09208,0.10223,-0.01403,0.00000,0.00000,0.00000,-1.52883,-4.70973,57.85752,58.45924,0.96872,30.29424,-87.49339,2168.46997,2163.94678,0.00000,2165.33960,636.18927,576.80426,-32757.94141,72.27972,-3.68976,-45.00159,0.62150,0.62150,527.84253,527.91254,859.85645,859.64575,1389.68713,1389.99109,1996.60413,1996.42896,1996.60413,1996.42896,16.65388,16.66587,86.07225,86.07225,99.83025,99.82165,369.45374,369.49780,502.76575,502.76575,510.67761,510.67761,178.62721,178.62772,15.06191,15.06191,0.00000,0.00000,0.00000,0.00000,0.00000,0.00000
19.70625,160.97733,165.85255,165.85255,190.85973,0.25333,-680.15088,1.09627,0.10202,-0.01453,0.00000,0.00000,0.00000,-1.47007,-4.01593,57.80439,58.40616,0.97602,30.29427,-87.49332,2167.56885,2163.34790,0.00000,2164.45337,642.03278,576.51025,-32761.58594,72.32481,-3.62026,-45.12036,0.62150,0.62150,527.86316,527.93567,859.14355,858.99866,1389.74561,1390.06067,1996.59277,1996.41162,1996.59277,1996.41162,16.67103,16.68184,86.07225,86.07225,99.82995,99.82104,369.46817,369.51419,502.94574,502.94574,510.71930,510.71930,178.63911,178.63962,15.06150,15.06150,0.00000,0.00000,0.00000,0.00000,0.00000,0.00000
19.70627,161.16331,166.04327,166.04329,191.07922,0.25362,-678.68518,1.10057,0.10179,-0.01508,0.00000,0.00000,0.00000,-1.40817,-3.30938,57.75787,58.35968,0.98276,30.29431,-87.49326,2166.67676,2162.38818,0.00000,2163.55908,647.95099,576.21875,-32765.28125,72.37480,-3.54542,-45.23166,0.62150,0.62150,527.88586,527.96069,858.30200,858.23297,1389.81152,1390.13708,1996.58264,1996.39551,1996.58264,1996.39551,16.68812,16.69774,86.07226,86.07226,99.82950,99.82029,369.48322,369.53113,503.12427,503.12427,510.75992,510.75992,178.65109,178.65160,15.06111,15.06111,0.00000,0.00000,0.00000,0.00000,0.00000,0.00000
19.70630,161.44550,166.32339,166.32338,191.40154,0.25405,-674.48328,1.10708,0.10139,-0.01593,0.00000,0.00000,0.00000,-1.31210,-2.24980,57.70224,58.30413,0.99125,30.29436,-87.49316,2165.38721,2161.30884,0.00000,2162.22290,656.77557,575.79639,-32770.80469,72.45762,-3.42597,-45.38038,0.62150,0.62150,527.91974,527.99829,856.80902,856.86047,1389.91174,1390.25305,1996.57361,1996.37744,1996.57361,1996.37744,16.71334,16.72113,86.07226,86.07226,99.82871,99.81906,369.50613,369.55670,503.38367,503.38367,510.81760,510.81760,178.66884,178.66934,15.06059,15.06059,0.00000,0.00000,0.00000,0.00000,0.00000,0.00000
19.70634,161.70473,166.58147,166.58148,191.69856,0.25444,-668.38556,1.11224,0.10104,-0.01666,0.00000,0.00000,0.00000,-1.21894,-1.25116,57.66504,58.26700,0.99708,30.29440,-87.49308,2164.22314,2160.08276,0.00000,2161.02515,665.06055,575.41406,-32776.00000,72.54462,-3.30620,-45.50064,0.62150,0.62150,527.94843,528.03040,855.65808,855.81293,1389.99390,1390.34973,1996.56189,1996.35791,1996.56189,1996.35791,16.73733,16.74337,86.07226,86.07226,99.82825,99.81818,369.52725,369.58032,503.61981,503.61981,510.86880,510.86880,178.68538,178.68585,15.06015,15.06015,0.00000,0.00000,0.00000,0.00000,0.00000,0.00000
19.70637,161.94353,166.82529,166.82527,191.97910,0.25481,-660.64264,1.11640,0.10071,-0.01730,0.00000,0.00000,0.00000,-1.12703,-0.28720,57.64317,58.24519,1.00107,30.29445,-87.49300,2163.14844,2158.85205,0.00000,2159.94287,673.03040,575.05994,-32781.00000,72.63686,-3.18513,-45.59840,0.62150,0.62150,527.97650,528.06128,854.70776,854.95325,1390.07642,1390.44507,1996.54358,1996.33264,1996.54358,1996.33264,16.76006,16.76442,86.07227,86.07227,99.82761,99.81718,369.54715,369.60254,503.84048,503.84048,510.91550,510.91550,178.70116,178.70161,15.05978,15.05978,0.00000,0.00000,0.00000,0.00000,0.00000,0.00000
19.70640,162.18997,167.07713,167.07713,192.26894,0.25520,-650.63007,1.12065,0.10033,-0.01800,0.00000,0.00000,0.00000,-1.02792,0.73305,57.63507,58.23716,1.00419,30.29449,-87.49291,2162.06738,2157.97559,0.00000,2158.85303,681.42133,574.70251,-32786.26953,72.74297,-3.05245,-45.68231,0.62150,0.62150,528.00989,528.09753,853.50671,853.85645,1390.18225,1390.56311,1996.51965,1996.30176,1996.51965,1996.30176,16.78289,16.78551,86.07227,86.07227,99.82634,99.81556,369.56857,369.62616,504.06619,504.06619,510.96210,510.96210,178.71762,178.71808,15.05944,15.05944,0.00000,0.00000,0.00000,0.00000,0.00000,0.00000
19.70643,162.42726,167.31659,167.31659,192.54451,0.25556,-639.16876,1.12429,0.09996,-0.01863,0.00000,0.00000,0.00000,-0.93049,1.72558,57.64169,58.24385,1.00556,30.29454,-87.49283,2161.06958,2156.97925,0.00000,2157.83252,689.56110,574.37122,-32791.38281,72.85490,-2.91921,-45.74455,0.62150,0.62150,528.03943,528.12982,852.47162,852.91370,1390.27295,1390.66565,1996.49866,1996.27454,1996.49866,1996.27454,16.80536,16.80625,86.07227,86.07227,99.82541,99.81430,369.58990,369.64960,504.27872,504.27872,511.00494,511.00494,178.73349,178.73392,15.05914,15.05914,0.00000,0.00000,0.00000,0.00000,0.00000,0.00000
19.70647,162.65942,167.54987,167.54987,192.81294,0.25592,-626.18481,1.12745,0.09958,-0.01926,0.00000,0.00000,0.00000,-0.83304,2.71462,57.66235,58.26458,1.00537,30.29459,-87.49274,2160.12866,2155.84814,0.00000,2156.86890,697.65173,574.05737,-32796.46094,72.97494,-2.78340,-45.78762,0.62150,0.62150,528.06995,528.16266,851.38666,851.92993,1390.37000,1390.77283,1996.47510,1996.24524,1996.47510,1996.24524,16.82711,16.82631,86.07227,86.07227,99.82421,99.81281,369.61102,369.67267,504.48389,504.48389,511.04532,511.04532,178.74911,178.74954,15.05887,15.05887,0.00000,0.00000,0.00000,0.00000,0.00000,0.00000
19.70650,162.88966,167.78416,167.78418,193.08260,0.25627,-611.34991,1.13020,0.09917,-0.01990,0.00000,0.00000,0.00000,-0.73293,3.73158,57.69808,58.30038,1.00381,30.29463,-87.49265,2159.21753,2154.99902,0.00000,2155.94189,705.94849,573.75201,-32801.66016,73.10709,-2.64163,-45.81227,0.62150,0.62150,528.10236,528.19727,850.28070,850.92126,1390.47632,1390.88867,1996.44617,1996.21106,1996.44617,1996.21106,16.84882,16.84630,86.07227,86.07227,99.82271,99.81104,369.63272,369.69614,504.68823,504.68823,511.08459,511.08459,178.76501,178.76543,15.05863,15.05863,0.00000,0.00000,0.00000,0.00000,0.00000,0.00000
19.70653,163.11798,168.01350,168.01350,193.34650,0.25662,-595.09692,1.13252,0.09875,-0.02052,0.00000,0.00000,0.00000,-0.63332,4.75025,57.74832,58.35068,1.00073,30.29468,-87.49257,2158.36133,2154.46826,0.00000,2155.06250,714.24500,573.46344,-32806.85547,73.24844,-2.49815,-45.81699,0.62150,0.62150,528.13428,528.23114,849.18689,849.92657,1390.58142,1391.00232,1996.41736,1996.17737,1996.41736,1996.17737,16.87030,16.86607,86.07228,86.07228,99.82120,99.80929,369.65466,369.71973,504.88657,504.88657,511.12180,511.12180,178.78078,178.78119,15.05841,15.05841,0.00000,0.00000,0.00000,0.00000,0.00000,0.00000
19.70656,163.32693,168.22408,168.22408,193.58882,0.25694,-578.66742,1.13397,0.09838,-0.02105,0.00000,0.00000,0.00000,-0.54108,5.70544,57.80838,58.41080,0.99627,30.29472,-87.49249,2157.60791,2153.58228,0.00000,2154.29053,722.02795,573.20795,-32811.71484,73.38940,-2.36287,-45.80307,0.62150,0.62150,528.16040,528.25909,848.39874,849.21631,1390.66504,1391.09424,1996.38977,1996.14563,1996.38977,1996.14563,16.89078,16.88492,86.07228,86.07228,99.82012,99.80798,369.67511,369.74161,505.06720,505.06720,511.15488,511.15488,178.79544,178.79584,15.05823,15.05823,0.00000,0.00000,0.00000,0.00000,0.00000,0.00000
19.70660,163.54037,168.44292,168.44292,193.84065,0.25728,-560.14001,1.13526,0.09795,-0.02164,0.00000,0.00000,0.00000,-0.44446,6.72084,57.88591,58.48840,0.99059,30.29477,-87.49240,2156.86182,2152.56323,0.00000,2153.53442,730.28735,572.95312,-32816.85938,73.54762,-2.21963,-45.76930,0.62150,0.62150,528.19287,528.29309,847.37921,848.29266,1390.77673,1391.21252,1996.35315,1996.10510,1996.35315,1996.10510,16.91119,16.90367,86.07228,86.07228,99.81824,99.80592,369.69647,369.76434,505.25345,505.25345,511.18820,511.18820,178.81088,178.81128,15.05806,15.05806,0.00000,0.00000,0.00000,0.00000,0.00000,0.00000
19.70663,163.75354,168.65994,168.65994,194.09041,0.25761,-540.34094,1.13619,0.09751,-0.02223,0.00000,0.00000,0.00000,-0.34851,7.75079,57.97873,58.58129,0.98361,30.29482,-87.49232,2156.16089,2151.88892,0.00000,2152.81958,738.66119,572.71173,-32822.05859,73.71705,-2.07544,-45.71497,0.62150,0.62150,528.22552,528.32727,846.36987,847.37689,1390.88928,1391.33167,1996.31567,1996.06421,1996.31567,1996.06421,16.93160,16.92239,86.07229,86.07229,99.81634,99.80383,369.71838,369.78754,505.43668,505.43668,511.22015,511.22015,178.82642,178.82680,15.05791,15.05791,0.00000,0.00000,0.00000,0.00000,0.00000,0.00000
19.70665,163.89680,168.81476,168.81476,194.26857,0.25784,-525.39978,1.13637,0.09724,-0.02258,0.00000,0.00000,0.00000,-0.28022,8.50069,58.05516,58.65777,0.97799,30.29485,-87.49226,2155.68628,2151.60913,0.00000,2152.36035,744.74841,572.54700,-32825.82812,73.84577,-1.97185,-45.66301,0.62150,0.62150,528.24725,528.34985,845.92804,846.98584,1390.96521,1391.41138,1996.27893,1996.02551,1996.27893,1996.02551,16.94634,16.93593,86.07229,86.07229,99.81500,99.80238,369.73450,369.80444,505.56647,505.56647,511.24231,511.24231,178.83762,178.83800,15.05781,15.05781,0.00000,0.00000,0.00000,0.00000,0.00000,0.00000
19.70667,164.04944,168.96922,168.96921,194.44629,0.25808,-509.83386,1.13683,0.09692,-0.02305,0.00000,0.00000,0.00000,-0.21255,9.26062,58.14017,58.74283,0.97150,30.29488,-87.49219,2155.23438,2150.90747,0.00000,2151.89404,750.92206,572.38885,-32829.63281,73.98109,-1.86797,-45.59948,0.62150,0.62150,528.27106,528.37457,845.16864,846.29358,1391.04907,1391.49939,1996.25061,1995.99500,1996.25061,1995.99500,16.96087,16.94921,86.07229,86.07229,99.81347,99.80072,369.75110,369.82181,505.69516,505.69516,511.26392,511.26392,178.84891,178.84929,15.05771,15.05771,0.00000,0.00000,0.00000,0.00000,0.00000,0.00000
19.70670,164.27142,169.18669,169.18669,194.69658,0.25841,-486.85135,1.13838,0.09649,-0.02388,0.00000,0.00000,0.00000,-0.11914,10.31439,58.27508,58.87782,0.95968,30.29493,-87.49210,2154.63525,2150.62061,0.00000,2151.25537,759.78735,572.17725,-32835.08203,74.18374,-1.72022,-45.48933,0.62150,0.62150,528.30139,528.40613,843.89740,845.12036,1391.15405,1391.60986,1996.22473,1995.96594,1996.22473,1995.96594,16.98207,16.96864,86.07229,86.07229,99.81167,99.79877,369.77448,369.84616,505.87494,505.87494,511.29346,511.29346,178.86499,178.86537,15.05759,15.05759,0.00000,0.00000,0.00000,0.00000,0.00000,0.00000
19.70673,164.40950,169.32961,169.32961,194.86104,0.25863,-471.10956,1.13835,0.09620,-0.02398,0.00000,0.00000,0.00000,-0.05904,10.98595,58.37395,58.97673,0.95096,30.29497,-87.49203,2154.26685,2150.19434,0.00000,2150.87988,765.72620,572.04553,-32838.71094,74.32472,-1.62329,-45.40343,0.62150,0.62150,528.31915,528.42456,843.30182,844.58484,1391.21448,1391.67285,1996.20288,1995.94275,1996.20288,1995.94275,16.99649,16.98193,86.07230,86.07230,99.81070,99.79773,369.78876,369.86108,505.99213,505.99213,511.31229,511.31229,178.87569,178.87607,15.05752,15.05752,0.00000,0.00000,0.00000,0.00000,0.00000,0.00000
19.70676,164.61996,169.53906,169.53908,195.10210,0.25895,-447.20459,1.13823,0.09572,-0.02402,0.00000,0.00000,0.00000,0.02723,11.93713,58.53405,59.13691,0.93739,30.29501,-87.49194,2153.76416,2149.48438,0.00000,2150.35156,774.59644,571.86346,-32844.10938,74.54250,-1.48201,-45.25787,0.62150,0.62150,528.34595,528.45215,842.21741,843.59650,1391.30725,1391.76917,1996.17493,1995.91272,1996.17493,1995.91272,17.01760,17.00133,86.07230,86.07230,99.80910,99.79603,369.80905,369.88220,506.16254,506.16254,511.33905,511.33905,178.89154,178.89192,15.05742,15.05742,0.00000,0.00000,0.00000,0.00000,0.00000,0.00000
19.70678,164.74832,169.66702,169.66702,195.24933,0.25914,-432.15012,1.13795,0.09544,-0.02396,0.00000,0.00000,0.00000,0.07866,12.49785,58.64082,59.24373,0.92860,30.29504,-87.49188,2153.47900,2149.33643,0.00000,2150.05029,780.11646,571.75861,-32847.44922,74.68211,-1.39640,-45.15722,0.62150,0.62150,528.35968,528.46637,841.70483,843.13330,1391.35303,1391.81726,1996.15796,1995.89478,1996.15796,1995.89478,17.03108,17.01374,86.07230,86.07230,99.80841,99.79527,369.82111,369.89468,506.26578,506.26578,511.35492,511.35492,178.90134,178.90172,15.05736,15.05736,0.00000,0.00000,0.00000,0.00000,0.00000,0.00000
