"Time_Hours","Vel_Indicated_kts","Vel_True_kts","Vel_Ground_kts","Vel_Groupn_mph","Vel_Mach","Vel_Vertical_fpm","GLoad_normal","GLoad_axial","GLoad_side","Flaps_Handle","Flaps_Position","Gear","Pitch_deg","Roll_deg","Heading_True","Heading_Mag","AngleOfAttack","Latitude","Longitude","Altitude_FtMsl","Altitude_FtAgl","RunwayThreshold","Altitude_Indicated","X","Y","Z","vX","vY","vZ","Eng1_Throttle","Eng2_Throttle","Eng1_Power_hp","Eng2_Power_hp","Eng1_Thrust_lb","Eng2_Thrust_lb","Eng1_Torque_lb","Eng2_Torque_lb","Eng1_EngineRPM","Eng2_EngineRPM","Eng1_PropRPM","Eng2_PropRPM","Eng1_PropPitch_deg","Eng2_PropPitch_deg","Eng1_N1","Eng2_N1","Eng1_N2","Eng2_N2","Eng1_FuelFlow","Eng2_FuelFlow","Eng1_ITT","Eng2_ITT","Eng1_EGT","Eng2_EGT","Eng1_CHT","Eng2_CHT","Eng1_OilPress_psi","Eng2_OilPress_psi","MasterCaution","MasterWarn","MasterAccept","FuelQuantity","HydPress","AutoThrottle"
19.70410,150.44051,154.95380,154.95355,178.31737,0.23669,901.82538,1.01651,0.06169,-0.06010,0.00000,0.00000,0.00000,4.18733,-0.59522,67.62429,68.22150,0.96288,30.29182,-87.49922,2171.93164,2139.30078,0.00000,2167.84937,74.52238,579.26843,-32488.54688,74.19589,4.49729,-28.79626,0.03392,0.03392,304.55630,304.57791,605.64355,608.14252,801.25836,801.33191,1994.25647,1994.15625,1994.25647,1994.15625,15.93705,15.93384,80.67846,80.67846,99.90099,99.89893,321.00974,321.00879,493.53571,493.53571,498.34805,498.34805,178.38432,178.38432,15.04439,15.04439,0.00000,0.00000,0.00000,0.00000,0.00000,0.00000
19.70413,150.40862,154.87204,154.87184,178.22333,0.23656,902.61920,0.87050,0.01436,-0.04675,0.00000,0.00000,0.00000,3.81611,-0.77224,67.79332,68.39060,0.65918,30.29185,-87.49915,2173.47998,2140.84326,0.00000,2169.39355,82.14562,579.72516,-32491.50977,74.14100,4.40276,-28.83587,0.06818,0.06818,162.68195,162.81819,376.89261,380.23410,430.64566,431.05811,1981.73364,1981.42798,1981.73364,1981.42798,15.00493,14.98608,76.05111,76.05111,99.28738,99.27547,280.89136,280.90012,487.16595,487.16595,485.47714,485.47714,178.34274,178.34274,14.99552,14.99552,0.00000,0.00000,0.00000,0.00000,0.00000,0.00000
19.70415,150.28958,154.71719,154.71701,178.04517,0.23633,900.95691,0.85721,-0.02514,-0.03097,0.00000,0.00000,0.00000,3.71399,-0.93189,68.02406,68.62140,0.65978,30.29187,-87.49907,2174.97290,2143.06812,0.00000,2170.91895,89.71882,580.16504,-32494.45898,74.05862,4.25413,-28.84990,0.10226,0.10226,64.92399,65.17692,172.85120,175.53636,172.82201,173.53214,1971.72607,1971.26379,1971.72607,1971.26379,14.10800,14.07373,71.94843,71.94843,98.73724,98.71626,239.60757,239.63988,481.65945,481.65945,474.64532,474.64532,178.29236,178.29236,14.91907,14.91907,0.00000,0.00000,0.00000,0.00000,0.00000,0.00000
19.70418,150.10223,154.50256,154.50238,177.79817,0.23600,896.69702,0.89524,-0.05359,-0.01553,0.00000,0.00000,0.00000,3.77659,-1.08172,68.27839,68.87579,0.80416,30.29190,-87.49899,2176.41479,2145.53906,0.00000,2172.36597,97.25192,580.58954,-32497.39648,73.95083,4.13054,-28.83998,0.13620,0.13620,3.38421,3.70914,16.75378,18.23646,9.04673,9.91797,1964.29956,1963.76050,1964.29956,1963.76050,13.36337,13.31882,68.71894,68.71894,98.31974,98.29359,203.32755,203.38860,476.96143,476.96143,465.68246,465.68246,178.22969,178.22978,14.82097,14.82097,0.00000,0.00000,0.00000,0.00000,0.00000,0.00000
19.70421,149.85495,154.24200,154.24185,177.49837,0.23560,890.62927,0.93775,-0.06885,-0.00045,0.00000,0.00000,0.00000,3.88474,-1.24140,68.53047,69.12793,0.96300,30.29193,-87.49891,2177.84839,2148.11743,0.00000,2173.80615,104.90090,581.01117,-32500.38086,73.82303,4.04726,-28.81012,0.17071,0.17071,-20.80461,-20.46429,-72.32853,-72.10207,-55.76188,-54.86495,1960.15063,1959.61780,1960.15063,1959.61780,12.82253,12.77360,67.18898,67.18898,98.06114,98.03394,176.64833,176.69632,472.91779,472.91779,458.24109,458.24109,178.14091,178.14122,14.71059,14.71059,0.00000,0.00000,0.00000,0.00000,0.00000,0.00000
19.70423,149.58124,153.96439,153.96425,177.17889,0.23518,883.84827,0.96308,-0.07434,0.01084,0.00000,0.00000,0.00000,3.96124,-1.42924,68.74876,69.34628,1.06605,30.29195,-87.49883,2179.24536,2150.22632,0.00000,2175.21826,112.44913,581.42188,-32503.32617,73.68887,3.99627,-28.76768,0.20484,0.20484,-26.46183,-26.15746,-108.60521,-109.45150,-71.01703,-70.21765,1958.21204,1957.75745,1958.21204,1957.75745,12.46317,12.41587,66.75915,66.75915,97.93369,97.90934,161.53526,161.56264,469.53918,469.53918,452.28186,452.28186,178.04230,178.04272,14.60360,14.60360,0.00000,0.00000,0.00000,0.00000,0.00000,0.00000
19.70426,149.29836,153.67870,153.67857,176.85014,0.23475,876.80298,0.96782,-0.07499,0.02161,0.00000,0.00000,0.00000,3.98393,-1.65122,68.91628,69.51385,1.10717,30.29198,-87.49875,2180.63647,2152.46777,0.00000,2176.60645,120.02921,581.83069,-32506.28711,73.55302,3.95629,-28.71656,0.23917,0.23917,-21.40612,-21.17494,-115.97752,-117.73080,-57.47651,-56.86660,1957.67371,1957.35205,1957.67371,1957.35205,12.21558,12.17476,67.02526,67.02526,97.88638,97.86777,152.86723,152.88280,466.67682,466.67682,447.48141,447.48141,177.94250,177.94305,14.50526,14.50526,0.00000,0.00000,0.00000,0.00000,0.00000,0.00000
19.70428,149.01579,153.39465,153.39456,176.52332,0.23431,869.61328,0.95900,-0.07219,0.02402,0.00000,0.00000,0.00000,3.95752,-1.91937,69.02541,69.62305,1.10319,30.29201,-87.49867,2182.02222,2154.58521,0.00000,2177.99561,127.64333,582.23773,-32509.25977,73.41801,3.91133,-28.66627,0.27372,0.27372,-8.51085,-8.38004,-103.67863,-105.69650,-22.84972,-22.50097,1958.20837,1958.04761,1958.20837,1958.04761,12.05205,12.02181,67.77829,67.77829,97.89643,97.88580,147.91182,147.92062,464.28168,464.28168,443.71170,443.71170,177.84531,177.84595,14.41971,14.41971,0.00000,0.00000,0.00000,0.00000,0.00000,0.00000
19.70431,148.74403,153.12183,153.12172,176.20934,0.23390,862.17743,0.94387,-0.06663,0.02657,0.00000,0.00000,0.00000,3.89693,-2.23613,69.07703,69.67472,1.07563,30.29203,-87.49860,2183.38867,2157.14233,0.00000,2179.36914,135.23955,582.63898,-32512.22461,73.28840,3.85321,-28.61973,0.30825,0.30825,10.78475,10.82033,-75.49977,-77.61504,28.93756,29.03392,1959.64233,1959.63330,1959.64233,1959.63330,11.96447,11.94522,68.87373,68.87373,97.95413,97.95119,145.32939,145.33839,462.33240,462.33240,440.89532,440.89532,177.76103,177.76178,14.34974,14.34974,0.00000,0.00000,0.00000,0.00000,0.00000,0.00000
19.70434,148.49013,152.86903,152.86894,175.91844,0.23351,854.32233,0.92763,-0.05875,0.02589,0.00000,0.00000,0.00000,3.81628,-2.59670,69.07307,69.67082,1.04084,30.29206,-87.49851,2184.71729,2159.49316,0.00000,2180.70288,142.73946,583.02887,-32515.15430,73.16744,3.78008,-28.58132,0.34239,0.34239,35.50888,35.45756,-34.76450,-36.88477,95.18458,95.04285,1961.81531,1961.94641,1961.81531,1961.94641,11.94384,11.93563,70.19428,70.19428,98.04945,98.05374,146.60173,146.60718,460.81064,460.81064,438.95856,438.95856,177.69814,177.69888,14.29663,14.29663,0.00000,0.00000,0.00000,0.00000,0.00000,0.00000
19.70436,148.25677,152.63965,152.63957,175.65450,0.23316,845.75739,0.91331,-0.04803,0.02418,0.00000,0.00000,0.00000,3.72332,-3.00694,69.02201,69.61983,1.00638,30.29209,-87.49844,2186.01245,2161.87549,0.00000,2182.02466,150.19450,583.40857,-32518.06836,73.05576,3.69285,-28.55397,0.37639,0.37639,65.28862,65.16431,20.37811,18.43423,174.77382,174.42221,1964.62610,1964.87244,1964.62610,1964.87244,11.99347,11.99560,71.67127,71.67127,98.18291,98.19352,151.32001,151.31114,459.67349,459.67349,437.80045,437.80045,177.64558,177.64629,14.25959,14.25959,0.00000,0.00000,0.00000,0.00000,0.00000,0.00000
19.70439,148.05283,152.43892,152.43886,175.42351,0.23286,836.35638,0.90151,-0.03560,0.02075,0.00000,0.00000,0.00000,3.62793,-3.43991,68.93246,69.53033,0.98067,30.29211,-87.49836,2187.26318,2163.77783,0.00000,2183.27979,157.56497,583.77490,-32520.95117,72.95533,3.59444,-28.53951,0.41005,0.41005,99.69878,99.52255,84.09965,82.31902,266.45947,265.94690,1968.00342,1968.33667,1968.00342,1968.33667,12.09623,12.10690,73.23765,73.23765,98.34075,98.35612,158.67538,158.64874,458.90100,458.90100,437.35553,437.35553,177.60207,177.60274,14.23791,14.23791,0.00000,0.00000,0.00000,0.00000,0.00000,0.00000
19.70441,147.87491,152.26428,152.26424,175.22255,0.23259,825.64111,0.90301,-0.02035,0.01835,0.00000,0.00000,0.00000,3.52622,-3.84521,68.81120,69.40913,0.95637,30.29214,-87.49828,2188.51367,2166.01074,0.00000,2184.52930,165.13123,584.14075,-32523.91211,72.86368,3.49014,-28.53990,0.44465,0.44465,140.03047,139.82196,161.37096,159.91951,373.52466,372.89789,1972.05005,1972.43701,1972.05005,1972.43701,12.26436,12.28179,74.91663,74.91663,98.53217,98.55082,168.57562,168.53162,458.45874,458.45874,437.57895,437.57895,177.56563,177.56627,14.23013,14.23013,0.00000,0.00000,0.00000,0.00000,0.00000,0.00000
19.70444,147.72752,152.12648,152.12643,175.06400,0.23238,813.96649,0.89028,-0.00336,0.00784,0.00000,0.00000,0.00000,3.41766,-4.14869,68.67538,69.27338,0.93285,30.29216,-87.49821,2189.72314,2168.19727,0.00000,2185.75757,172.66124,584.49414,-32526.86523,72.78516,3.37921,-28.55911,0.47913,0.47913,184.78078,184.56178,249.66962,248.61806,491.81540,491.13226,1976.47339,1976.87744,1976.47339,1976.87744,12.49154,12.51328,76.61543,76.61543,98.74827,98.76842,180.52509,180.46770,458.36319,458.36319,438.45193,438.45193,177.53749,177.53812,14.23591,14.23591,0.00000,0.00000,0.00000,0.00000,0.00000,0.00000
19.70447,147.61862,152.02951,152.02946,174.95239,0.23224,801.49243,0.88292,0.01454,0.00303,0.00000,0.00000,0.00000,3.31257,-4.49130,68.54341,69.14146,0.91852,30.29219,-87.49813,2190.86816,2170.29980,0.00000,2186.92212,180.02222,584.82819,-32529.75781,72.72285,3.26174,-28.59484,0.51286,0.51286,232.65242,232.44577,342.19702,341.51260,617.79999,617.12878,1981.12720,1981.50940,1981.12720,1981.50940,12.76263,12.78560,78.27398,78.27398,98.97705,98.99668,194.01134,193.94617,458.59485,458.59485,439.90311,439.90311,177.51776,177.51834,14.25332,14.25332,0.00000,0.00000,0.00000,0.00000,0.00000,0.00000
19.70450,147.54657,151.96974,151.96971,174.88364,0.23214,787.38629,0.87693,0.03399,-0.00150,0.00000,0.00000,0.00000,3.20619,-4.93354,68.41679,69.01490,0.90985,30.29222,-87.49805,2192.01807,2172.31982,0.00000,2188.06738,187.68268,585.16315,-32532.77539,72.67412,3.13546,-28.64875,0.54799,0.54799,286.96509,286.78760,443.63269,443.17807,760.08075,759.47668,1986.39893,1986.73096,1986.39893,1986.73096,13.09304,13.11474,79.99197,79.99197,99.23026,99.24776,209.77463,209.70781,459.16904,459.16904,442.01050,442.01050,177.50526,177.50581,14.28229,14.28229,0.00000,0.00000,0.00000,0.00000,0.00000,0.00000
19.70452,147.51579,151.95528,151.95526,174.86699,0.23212,772.26752,0.87571,0.05520,-0.00099,0.00000,0.00000,0.00000,3.10542,-5.50597,68.30766,68.90584,0.90797,30.29224,-87.49797,2193.11694,2174.22754,0.00000,2189.18896,195.28983,585.48248,-32535.77930,72.64378,3.00718,-28.71903,0.58289,0.58289,344.69373,344.55093,552.89417,552.52478,910.52313,910.01184,1991.74792,1992.02161,1991.74792,1992.02161,13.47431,13.49340,81.66293,81.66293,99.49866,99.51331,227.07213,227.00931,460.07220,460.07220,444.68518,444.68518,177.50102,177.50157,14.32075,14.32075,0.00000,0.00000,0.00000,0.00000,0.00000,0.00000
19.70455,147.52898,151.98598,151.98595,174.90231,0.23217,756.40741,0.87963,0.07634,-0.00299,0.00000,0.00000,0.00000,3.02150,-6.07622,68.21640,68.81463,0.91702,30.29227,-87.49789,2194.15820,2176.26733,0.00000,2190.24072,202.78511,585.78448,-32538.74805,72.63156,2.88561,-28.80529,0.61729,0.61729,405.16913,405.05951,663.27960,662.93683,1067.44446,1067.02966,1997.07739,1997.29456,1997.07739,1997.29456,13.87610,13.89217,83.26757,83.26757,99.76217,99.77395,245.56401,245.50867,461.28101,461.28101,447.86362,447.86362,177.50482,177.50537,14.36672,14.36672,0.00000,0.00000,0.00000,0.00000,0.00000,0.00000
19.70458,147.58524,152.06067,152.06065,174.98828,0.23229,739.75854,0.88890,0.09698,-0.00091,0.00000,0.00000,0.00000,2.93830,-6.81802,68.14270,68.74099,0.92317,30.29230,-87.49781,2195.15796,2178.36646,0.00000,2191.26025,210.27420,586.07373,-32541.72656,72.63602,2.76654,-28.90986,0.62353,0.62353,455.29138,455.20874,770.63135,770.23950,1196.45813,1196.13098,2001.62231,2001.79236,2001.62231,2001.79236,14.28929,14.30253,84.51241,84.51241,100.01537,100.02457,268.26520,268.20386,462.71008,462.71008,451.37726,451.37726,177.51590,177.51645,14.41899,14.41899,0.00000,0.00000,0.00000,0.00000,0.00000,0.00000
19.70460,147.67923,152.16887,152.16885,175.11279,0.23245,722.68994,0.88990,0.11069,0.00249,0.00000,0.00000,0.00000,2.82981,-7.67152,68.08871,68.68706,0.89569,30.29232,-87.49773,2196.10938,2180.40674,0.00000,2192.22827,217.68753,586.34851,-32544.68359,72.65274,2.65494,-29.02875,0.62353,0.62353,485.48843,485.42447,842.49365,842.13385,1273.70398,1273.44373,2004.35657,2004.48999,2004.35657,2004.48999,14.59077,14.60192,85.22888,85.22888,100.18096,100.18823,293.63699,293.57938,464.05103,464.05103,454.60464,454.60464,177.53096,177.53151,14.47291,14.47291,0.00000,0.00000,0.00000,0.00000,0.00000,0.00000
19.70463,147.80035,152.30064,152.30064,175.26445,0.23265,704.95807,0.88364,0.11828,0.00566,0.00000,0.00000,0.00000,2.70495,-8.56409,68.04868,68.64709,0.85298,30.29235,-87.49766,2197.03125,2182.08691,0.00000,2193.16138,225.17244,586.61389,-32547.68359,72.67670,2.53673,-29.16195,0.62353,0.62353,503.38498,503.33621,884.47327,884.10797,1319.44958,1319.24756,2005.82629,2005.93054,2005.82629,2005.93054,14.79352,14.80285,85.64046,85.64046,100.27260,100.27822,315.84915,315.79889,465.33340,465.33340,457.62546,457.62546,177.54846,177.54903,14.52619,14.52619,0.00000,0.00000,0.00000,0.00000,0.00000,0.00000
19.70465,147.93716,152.44641,152.44641,175.43221,0.23288,686.67358,0.87761,0.12207,0.00919,0.00000,0.00000,0.00000,2.57953,-9.44350,68.01492,68.61339,0.81139,30.29238,-87.49758,2197.91040,2183.93604,0.00000,2194.05103,232.64767,586.86621,-32550.69141,72.70383,2.41140,-29.30616,0.62353,0.62353,513.59766,513.55829,907.42914,906.95355,1345.62622,1345.46191,2006.49451,2006.58154,2006.49451,2006.58154,14.93094,14.93916,85.87013,85.87013,100.31674,100.32130,332.88684,332.84473,466.56003,466.56003,460.44720,460.44720,177.56723,177.56781,14.57649,14.57649,0.00000,0.00000,0.00000,0.00000,0.00000,0.00000
19.70468,148.08611,152.60257,152.60255,175.61189,0.23312,667.57416,0.87414,0.12381,0.01249,0.00000,0.00000,0.00000,2.45895,-10.29431,67.97871,68.57724,0.77674,30.29241,-87.49751,2198.75269,2185.63623,0.00000,2194.90576,240.18706,587.10718,-32553.74023,72.73187,2.27942,-29.46181,0.62353,0.62353,519.41864,519.38293,919.67883,919.02728,1360.65027,1360.49976,2006.69958,2006.78369,2006.69958,2006.78369,15.03040,15.03850,85.99841,85.99841,100.33347,100.33766,345.18857,345.15338,467.75333,467.75333,463.12457,463.12457,177.58687,177.58745,14.62349,14.62349,0.00000,0.00000,0.00000,0.00000,0.00000,0.00000
19.70471,148.24452,152.77008,152.77008,175.80467,0.23337,647.12158,0.87242,0.12440,0.01277,0.00000,0.00000,0.00000,2.34265,-11.15601,67.93529,68.53387,0.75055,30.29243,-87.49742,2199.57373,2187.61621,0.00000,2195.73828,247.97011,587.34094,-32556.90430,72.75913,2.13758,-29.63440,0.62353,0.62353,522.78925,522.75146,925.55493,924.81512,1369.47534,1369.31580,2006.63782,2006.72742,2006.63782,2006.72742,15.10814,15.11708,86.07069,86.07069,100.33379,100.33822,353.82773,353.79694,468.94592,468.94592,465.73169,465.73169,177.60751,177.60811,14.66787,14.66787,0.00000,0.00000,0.00000,0.00000,0.00000,0.00000
19.70474,148.40714,152.93997,152.93996,176.00017,0.23363,626.25354,0.88013,0.12455,0.01219,0.00000,0.00000,0.00000,2.24536,-11.84212,67.89695,68.49560,0.73513,30.29246,-87.49734,2200.33447,2189.31934,0.00000,2196.51855,255.63722,587.55652,-32560.03906,72.78238,2.00103,-29.81818,0.62353,0.62353,524.65094,524.61560,928.51025,928.13928,1374.46863,1374.31897,2006.41382,2006.48914,2006.41382,2006.48914,15.17089,15.17987,86.10899,86.10899,100.32529,100.32944,359.39938,359.37051,470.08560,470.08560,468.15735,468.15735,177.62804,177.62866,14.70750,14.70750,0.00000,0.00000,0.00000,0.00000,0.00000,0.00000
19.70476,148.51718,153.06343,153.06340,176.14221,0.23382,610.97168,0.87981,0.12425,0.01123,0.00000,0.00000,0.00000,2.18744,-12.21673,67.87512,68.47381,0.73267,30.29248,-87.49728,2200.84961,2190.35962,0.00000,2197.01514,261.12378,587.70178,-32562.29492,72.79700,1.90350,-29.95619,0.62353,0.62353,525.49194,525.46436,929.64813,929.40424,1376.81152,1376.69458,2006.16443,2006.22009,2006.16443,2006.22009,15.20880,15.21669,86.12515,86.12515,100.31512,100.31837,362.14218,362.11517,470.88159,470.88159,469.81375,469.81375,177.64278,177.64342,14.73354,14.73354,0.00000,0.00000,0.00000,0.00000,0.00000,0.00000
19.70480,148.70044,153.25476,153.25476,176.36244,0.23412,586.99414,0.88327,0.12347,0.01594,0.00000,0.00000,0.00000,2.10693,-12.78558,67.84820,68.44695,0.73214,30.29251,-87.49719,2201.59351,2192.11841,0.00000,2197.78540,269.54269,587.91040,-32565.77539,72.81767,1.75479,-30.17319,0.62353,0.62353,526.31506,526.29858,928.43304,928.15918,1379.22241,1379.15259,2005.81470,2005.84924,2005.81470,2005.84924,15.26085,15.26703,86.13947,86.13947,100.29662,100.29856,364.96176,364.93994,472.07269,472.07269,472.23355,472.23355,177.66542,177.66609,14.76993,14.76993,0.00000,0.00000,0.00000,0.00000,0.00000,0.00000
19.70483,148.87823,153.43950,153.43948,176.57500,0.23440,563.62427,0.88715,0.12279,0.02400,0.00000,0.00000,0.00000,2.02894,-13.33963,67.82154,68.42036,0.72468,30.29254,-87.49712,2202.25220,2193.88062,0.00000,2198.47412,277.57474,588.09375,-32569.11914,72.83638,1.61708,-30.38344,0.62353,0.62353,526.78656,526.77374,927.61499,927.10907,1380.70056,1380.64624,2005.46204,2005.49500,2005.46204,2005.49500,15.30861,15.31433,86.14645,86.14645,100.27900,100.28051,366.60202,366.58551,473.17584,473.17584,474.41092,474.41092,177.68701,177.68770,14.80093,14.80093,0.00000,0.00000,0.00000,0.00000,0.00000,0.00000
19.70486,149.04886,153.61574,153.61572,176.77782,0.23467,541.23627,0.88846,0.12204,0.03401,0.00000,0.00000,0.00000,1.94729,-13.83152,67.76991,68.36878,0.71299,30.29257,-87.49703,2202.82983,2195.24805,0.00000,2199.07690,285.16052,588.25330,-32572.29492,72.85522,1.48969,-30.57984,0.62353,0.62353,527.10150,527.07928,927.23145,925.82587,1381.77966,1381.68518,2005.08374,2005.15576,2005.08374,2005.15576,15.34918,15.35679,86.14993,86.14993,100.26059,100.26323,367.57565,367.56189,474.18912,474.18912,476.35666,476.35666,177.70737,177.70807,14.82718,14.82718,0.00000,0.00000,0.00000,0.00000,0.00000,0.00000
19.70488,149.21667,153.79254,153.79254,176.98131,0.23494,518.78693,0.88875,0.12134,0.03734,0.00000,0.00000,0.00000,1.85539,-14.29086,67.67876,68.27771,0.69908,30.29260,-87.49696,2203.36035,2196.84253,0.00000,2199.62061,292.68542,588.39844,-32575.46680,72.87265,1.36301,-30.77877,0.62353,0.62353,527.35522,527.30676,926.48285,924.54059,1382.72119,1382.51428,2004.67871,2004.81580,2004.67871,2004.81580,15.38472,15.39753,86.15182,86.15182,100.24056,100.24634,368.20905,368.19165,475.16788,475.16788,478.18738,478.18738,177.72751,177.72823,14.85062,14.85062,0.00000,0.00000,0.00000,0.00000,0.00000,0.00000
19.70491,149.38605,153.96637,153.96637,177.18134,0.23520,496.76825,0.88854,0.12075,0.03643,0.00000,0.00000,0.00000,1.75507,-14.71570,67.54888,68.14788,0.68487,30.29263,-87.49688,2203.83447,2198.21094,0.00000,2200.11377,299.99243,588.52679,-32578.56641,72.88786,1.23863,-30.97737,0.62353,0.62353,527.56488,527.48767,925.55328,923.05743,1383.54150,1383.21216,2004.29285,2004.49878,2004.29285,2004.49878,15.41697,15.43571,86.15282,86.15282,100.22094,100.23013,368.62970,368.60223,476.09390,476.09390,479.87509,479.87509,177.74701,177.74773,14.87114,14.87114,0.00000,0.00000,0.00000,0.00000,0.00000,0.00000
19.70494,149.55696,154.14423,154.14421,177.38600,0.23548,474.31500,0.88783,0.12016,0.03336,0.00000,0.00000,0.00000,1.63956,-15.16791,67.38056,67.97962,0.66680,30.29266,-87.49680,2204.27100,2199.73242,0.00000,2200.56201,307.36588,588.64343,-32581.71289,72.90060,1.10989,-31.18565,0.62353,0.62353,527.75269,527.64899,924.26495,921.41833,1384.30249,1383.85938,2003.91406,2004.18079,2003.91406,2004.18079,15.44809,15.47275,86.15340,86.15340,100.20151,100.21388,368.93384,368.89206,477.00473,477.00473,481.49344,481.49344,177.76665,177.76736,14.88983,14.88983,0.00000,0.00000,0.00000,0.00000,0.00000,0.00000
19.70496,149.73114,154.32565,154.32564,177.59477,0.23575,451.52466,0.86216,0.11993,0.02178,0.00000,0.00000,0.00000,1.54358,-15.31015,67.20171,67.80083,0.68929,30.29268,-87.49673,2204.66064,2200.07471,0.00000,2200.96460,314.73279,588.74561,-32584.87891,72.91106,0.95754,-31.40296,0.62353,0.62353,527.91071,527.79156,925.25647,923.42676,1384.95532,1384.44641,2003.50842,2003.78052,2003.50842,2003.78052,15.48059,15.50941,86.15371,86.15371,100.18427,100.19849,369.16141,369.10403,477.89178,477.89178,483.02963,483.02963,177.78619,177.78691,14.90669,14.90669,0.00000,0.00000,0.00000,0.00000,0.00000,0.00000
19.70499,149.91031,154.51146,154.51146,177.80862,0.23604,427.69077,0.89312,0.11974,0.01526,0.00000,0.00000,0.00000,1.50748,-14.95736,67.03914,67.63831,0.75982,30.29271,-87.49665,2205.00562,2200.04468,0.00000,2201.32886,322.20807,588.83392,-32588.11523,72.91467,0.81621,-31.63951,0.62353,0.62353,528.12109,528.02802,922.25879,921.57819,1385.84290,1385.44434,2003.08362,2003.27612,2003.08362,2003.27612,15.50114,15.52664,86.15388,86.15388,100.16000,100.17115,369.34824,369.28177,478.76910,478.76910,484.51041,484.51041,177.80598,177.80669,14.92211,14.92211,0.00000,1.00000,1.00000,0.00000,0.00000,0.00000
19.70501,150.08495,154.69611,154.69611,178.02112,0.23632,403.93863,0.91997,0.12014,0.01612,0.00000,0.00000,0.00000,1.50532,-14.51015,66.88765,67.48689,0.84203,30.29274,-87.49657,2205.30664,2199.92993,0.00000,2201.64111,329.60080,588.90881,-32591.33789,72.91847,0.70405,-31.87136,0.62353,0.62353,528.27014,528.20581,920.84814,919.71753,1386.47278,1386.19727,2002.74792,2002.89099,2002.74792,2002.89099,15.52960,15.55082,86.15398,86.15398,100.14274,100.15045,369.50861,369.44650,479.61472,479.61472,485.90112,485.90112,177.82549,177.82619,14.93586,14.93586,0.00000,1.00000,1.00000,0.00000,0.00000,0.00000
19.70504,150.26196,154.87999,154.87999,178.23273,0.23660,380.61533,0.94563,0.12049,0.02947,0.00000,0.00000,0.00000,1.50432,-14.03915,66.71329,67.31259,0.91192,30.29277,-87.49650,2205.57764,2199.85620,0.00000,2201.92236,336.98462,588.97449,-32594.58008,72.92623,0.62301,-32.09090,0.62353,0.62353,528.40912,528.34906,920.14337,917.89227,1387.06360,1386.80603,2002.41882,2002.57849,2002.41882,2002.57849,15.55776,15.57894,86.15404,86.15404,100.12643,100.13364,369.64316,369.58975,480.43796,480.43796,487.22079,487.22079,177.84489,177.84560,14.94824,14.94824,0.00000,1.00000,1.00000,0.00000,0.00000,0.00000
19.70506,150.44051,155.06676,155.06676,178.44765,0.23689,357.83667,0.96065,0.12077,0.02064,0.00000,0.00000,0.00000,1.48352,-13.55554,66.50446,67.10381,0.95678,30.29280,-87.49641,2205.83032,2199.44434,0.00000,2202.17969,344.48553,589.03418,-32597.89648,72.93274,0.56031,-32.31517,0.62353,0.62353,528.55499,528.47180,919.17700,916.54639,1387.68555,1387.32825,2002.07703,2002.29187,2002.07703,2002.29187,15.58360,15.60991,86.15407,86.15407,100.10918,100.11919,369.76425,369.71332,481.25305,481.25305,488.49414,488.49414,177.86456,177.86526,14.95959,14.95959,0.00000,1.00000,1.00000,0.00000,0.00000,0.00000
19.70509,150.62141,155.25357,155.25357,178.66263,0.23717,336.20340,0.97215,0.12089,0.01223,0.00000,0.00000,0.00000,1.46492,-13.08606,66.28449,66.88391,0.99792,30.29283,-87.49634,2206.06396,2199.48560,0.00000,2202.41870,351.97839,589.08795,-32601.23242,72.93737,0.50717,-32.54219,0.62353,0.62353,528.68719,528.59174,917.85242,915.70807,1388.24927,1387.83948,2001.77588,2002.00256,2001.77588,2002.00256,15.61014,15.63980,86.15409,86.15409,100.09355,100.10505,369.87589,369.82007,482.04639,482.04639,489.70166,489.70166,177.88416,177.88483,14.96979,14.96979,0.00000,1.00000,1.00000,0.00000,0.00000,0.00000
19.70512,150.80124,155.43814,155.43814,178.87502,0.23746,316.01135,0.98486,0.12102,0.01312,0.00000,0.00000,0.00000,1.44896,-12.63477,66.07337,66.67284,1.02840,30.29286,-87.49626,2206.28149,2199.65820,0.00000,2202.64136,359.39270,589.13684,-32604.55469,72.94153,0.46893,-32.76585,0.62353,0.62353,528.80243,528.71460,916.63727,914.84900,1388.74207,1388.36475,2001.50903,2001.71082,2001.50903,2001.71082,15.63755,15.66697,86.15409,86.15409,100.07985,100.09043,369.97665,369.91681,482.81146,482.81146,490.83633,490.83633,177.90347,177.90413,14.97889,14.97889,0.00000,1.00000,1.00000,0.00000,0.00000,0.00000
19.70514,150.98172,155.62384,155.62384,179.08873,0.23774,296.87463,0.96940,0.11939,0.01931,0.00000,0.00000,0.00000,1.43782,-12.00008,65.85525,66.45478,1.06796,30.29289,-87.49619,2206.48975,2199.82520,0.00000,2202.85254,366.90781,589.18250,-32607.94531,72.94995,0.42918,-32.98023,0.62353,0.62353,528.91974,528.83911,916.45459,914.42322,1389.24402,1388.89709,2001.20813,2001.39966,2001.20813,2001.39966,15.66385,15.69302,86.15409,86.15409,100.06589,100.07562,370.06931,370.00992,483.56723,483.56723,491.92856,491.92856,177.92297,177.92363,14.98721,14.98721,0.00000,1.00000,1.00000,0.00000,0.00000,0.00000
19.70517,151.15427,155.80247,155.80247,179.29430,0.23801,278.85025,0.94455,0.11668,0.01421,0.00000,0.00000,0.00000,1.46844,-10.48529,65.61913,66.21872,1.17304,30.29292,-87.49611,2206.67920,2199.94824,0.00000,2203.04858,374.38419,589.22253,-32611.33789,72.96410,0.36787,-33.17234,0.62353,0.62353,529.08826,529.01202,918.37823,916.31366,1389.96655,1389.63818,2000.73267,2000.91382,2000.73267,2000.91382,15.67879,15.70816,86.15409,86.15409,100.04573,100.05495,370.16116,370.10355,484.29977,484.29977,492.96002,492.96002,177.94229,177.94295,14.99465,14.99465,0.00000,1.00000,1.00000,0.00000,0.00000,0.00000
19.70520,151.32146,155.98167,155.98167,179.50052,0.23829,261.34198,1.01353,0.11999,-0.00615,0.00000,0.00000,0.00000,1.60591,-8.25110,65.35006,65.94971,1.35711,30.29295,-87.49603,2206.85693,2200.20654,0.00000,2203.22998,381.95639,589.25854,-32614.79297,72.97970,0.34555,-33.36060,0.62353,0.62353,529.30096,529.22772,916.56525,914.44971,1390.88074,1390.56445,2000.26892,2000.44336,2000.26892,2000.44336,15.68364,15.71343,86.15409,86.15409,100.02018,100.02908,370.27368,370.21838,485.02261,485.02261,493.95163,493.95163,177.96179,177.96245,15.00144,15.00144,0.00000,1.00000,1.00000,0.00000,0.00000,0.00000
19.70522,151.47992,156.15303,156.15303,179.69771,0.23855,245.99736,1.07212,0.12299,-0.02163,0.00000,0.00000,0.00000,1.76727,-5.85007,65.09099,65.69070,1.50663,30.29298,-87.49595,2207.03784,2200.61133,0.00000,2203.40796,389.33987,589.29590,-32618.17969,72.99893,0.38864,-33.52977,0.62353,0.62353,529.45056,529.38397,914.32507,912.49164,1391.52307,1391.23560,1999.96045,2000.11340,1999.96045,2000.11340,15.69676,15.72622,86.15409,86.15409,100.00225,100.01035,370.39215,370.33905,485.70929,485.70929,494.86938,494.86938,177.98076,177.98138,15.00740,15.00740,0.00000,1.00000,1.00000,0.00000,0.00000,0.00000
19.70525,151.64078,156.32997,156.32997,179.90132,0.23882,233.16765,1.15695,0.12820,-0.04037,0.00000,0.00000,0.00000,1.87356,-3.89268,64.85231,65.45208,1.52868,30.29301,-87.49587,2207.25708,2200.69702,0.00000,2203.60791,396.93591,589.34442,-32621.67969,73.02520,0.51561,-33.68868,0.62353,0.62353,529.53876,529.48419,911.06207,909.37781,1391.90173,1391.66589,1999.81323,1999.93701,1999.81323,1999.93701,15.72073,15.74875,86.15409,86.15409,99.99171,99.99835,370.50116,370.45224,486.39761,486.39761,495.76581,495.76581,178.00020,178.00081,15.01293,15.01293,0.00000,1.00000,1.00000,0.00000,0.00000,0.00000
19.70528,151.81514,156.50092,156.50092,180.09805,0.23908,224.51393,1.13215,0.12409,-0.03895,0.00000,0.00000,0.00000,1.82503,-3.13256,64.66165,65.26148,1.37783,30.29305,-87.49579,2207.52808,2200.93628,0.00000,2203.86377,404.52393,589.40857,-32625.18750,73.05815,0.66351,-33.82443,0.62353,0.62353,529.52704,529.48285,907.57477,906.30951,1391.84937,1391.65845,1999.90247,1999.99658,1999.90247,1999.99658,15.76247,15.78919,86.15409,86.15409,99.99326,99.99863,370.57874,370.53571,487.06717,487.06717,496.61514,496.61514,178.01953,178.02011,15.01789,15.01789,0.00000,1.00000,1.00000,0.00000,0.00000,0.00000
19.70531,151.99013,156.67241,156.67241,180.29539,0.23934,219.30780,1.07708,0.12099,-0.02955,0.00000,0.00000,0.00000,1.67115,-3.14740,64.52919,65.12909,1.15822,30.29308,-87.49571,2207.84229,2201.13770,0.00000,2204.16431,412.19745,589.48560,-32628.74805,73.09954,0.76260,-33.94281,0.62353,0.62353,529.49622,529.47510,907.73126,907.45093,1391.71594,1391.62488,1999.92688,1999.94995,1999.92688,1999.94995,15.80842,15.83131,86.15409,86.15409,99.99702,99.99958,370.61343,370.57794,487.72644,487.72644,497.42960,497.42960,178.03900,178.03955,15.02241,15.02241,0.00000,1.00000,1.00000,0.00000,0.00000,0.00000
19.70534,152.17432,156.85394,156.85394,180.50430,0.23962,216.08589,1.01129,0.11858,-0.02644,0.00000,0.00000,0.00000,1.48975,-3.36847,64.45628,65.05624,0.95608,30.29311,-87.49563,2208.18799,2201.78931,0.00000,2204.50391,420.15002,589.57159,-32632.44727,73.14733,0.79683,-34.06077,0.62353,0.62353,529.53247,529.55005,907.50763,908.00317,1391.87329,1391.94922,1999.80334,1999.72778,1999.80334,1999.72778,15.84332,15.85911,86.15409,86.15409,99.99257,99.99043,370.63162,370.60980,488.39124,488.39124,498.22903,498.22903,178.05907,178.05960,15.02660,15.02660,0.00000,1.00000,1.00000,0.00000,0.00000,0.00000
19.70537,152.35571,157.03401,157.03403,180.71155,0.23989,213.54218,0.95516,0.11688,-0.01866,0.00000,0.00000,0.00000,1.37255,-3.52254,64.43610,65.03612,0.85838,30.29314,-87.49555,2208.52100,2201.85034,0.00000,2204.84399,427.86752,589.65411,-32636.04688,73.19794,0.76936,-34.17208,0.62353,0.62353,529.59729,529.65308,906.94165,907.83972,1392.15381,1392.39526,1999.62988,1999.46790,1999.62988,1999.46790,15.87102,15.87926,86.15409,86.15409,99.98465,99.97785,370.65668,370.65442,489.01871,489.01871,498.96329,498.96329,178.07845,178.07898,15.03025,15.03025,0.00000,1.00000,1.00000,0.00000,0.00000,0.00000
19.70540,152.53180,157.21735,157.21735,180.92250,0.24018,210.38802,0.93588,0.11545,-0.01506,0.00000,0.00000,0.00000,1.35232,-3.14700,64.44801,65.04808,0.87647,30.29318,-87.49547,2208.83887,2202.09448,0.00000,2205.16406,435.67780,589.73181,-32639.69922,73.25351,0.70674,-34.27728,0.62353,0.62353,529.70142,529.78619,907.75342,908.80261,1392.60413,1392.97107,1999.32227,1999.09692,1999.32227,1999.09692,15.89088,15.89282,86.15409,86.15409,99.97198,99.96163,370.69440,370.71414,489.63660,489.63660,499.66718,499.66718,178.09796,178.09850,15.03356,15.03356,0.00000,1.00000,1.00000,0.00000,0.00000,0.00000
19.70543,152.71107,157.40248,157.40248,181.13554,0.24046,206.27649,0.96536,0.11607,-0.02004,0.00000,0.00000,0.00000,1.41723,-2.19501,64.48010,65.08025,0.96487,30.29321,-87.49538,2209.14185,2202.71826,0.00000,2205.47412,443.60968,589.80463,-32643.41602,73.31216,0.65977,-34.37754,0.62353,0.62353,529.84644,529.94989,906.57910,907.66779,1393.23145,1393.67969,1998.98694,1998.72363,1998.98694,1998.72363,15.90205,15.89925,86.15409,86.15409,99.95432,99.94167,370.75500,370.79507,490.24692,490.24692,500.34378,500.34378,178.11771,178.11824,15.03657,15.03657,0.00000,1.00000,1.00000,0.00000,0.00000,0.00000
19.70547,152.88252,157.58232,157.58231,181.34248,0.24073,202.00537,1.00708,0.11742,-0.02005,0.00000,0.00000,0.00000,1.51670,-1.12546,64.52509,65.12530,1.06036,30.29324,-87.49531,2209.43164,2202.82178,0.00000,2205.76611,451.37561,589.87372,-32647.06250,73.37489,0.65415,-34.46176,0.62353,0.62353,529.95422,530.06671,904.74902,905.69666,1393.69763,1394.18567,1998.75964,1998.48279,1998.75964,1998.48279,15.91763,15.91170,86.15409,86.15409,99.94121,99.92744,370.82919,370.88486,490.82803,490.82803,500.97067,500.97067,178.13695,178.13748,15.03921,15.03921,0.00000,1.00000,1.00000,0.00000,0.00000,0.00000
19.70550,153.05461,157.76271,157.76271,181.55008,0.24101,198.30865,1.04190,0.11838,-0.01774,0.00000,0.00000,0.00000,1.60935,-0.23994,64.57639,65.17666,1.12365,30.29328,-87.49522,2209.73389,2203.12476,0.00000,2206.06226,459.27295,589.94635,-32650.77344,73.44570,0.68941,-34.52858,0.62353,0.62353,530.02496,530.13568,903.21759,903.93677,1394.00366,1394.48401,1998.60779,1998.34265,1998.60779,1998.34265,15.93948,15.93239,86.15409,86.15409,99.93261,99.91905,370.90033,370.96634,491.40283,491.40283,501.57425,501.57425,178.15643,178.15694,15.04161,15.04161,0.00000,1.00000,1.00000,0.00000,0.00000,0.00000
19.70553,153.22820,157.94447,157.94447,181.75926,0.24129,195.84563,1.05102,0.11820,-0.01070,0.00000,0.00000,0.00000,1.67885,0.42872,64.62817,65.22851,1.15203,30.29331,-87.49514,2210.06299,2203.56323,0.00000,2206.38208,467.38971,590.02649,-32654.58984,73.52600,0.74506,-34.57643,0.62353,0.62353,530.07745,530.17896,902.49152,903.05371,1394.23120,1394.67188,1998.47400,1998.23376,1998.47400,1998.23376,15.96476,15.95793,86.15409,86.15409,99.92620,99.91375,370.96024,371.03049,491.97711,491.97711,502.16089,502.16089,178.17635,178.17685,15.04383,15.04383,0.00000,1.00000,1.00000,0.00000,0.00000,0.00000
19.70556,153.39737,158.11656,158.11656,181.95729,0.24155,194.89236,1.05473,0.11808,-0.00820,0.00000,0.00000,0.00000,1.72543,1.01889,64.67254,65.27293,1.15597,30.29334,-87.49506,2210.39941,2203.89233,0.00000,2206.71558,475.19281,590.10968,-32658.25977,73.60871,0.80447,-34.60726,0.62353,0.62353,530.14032,530.23138,902.04480,902.48853,1394.50439,1394.89990,1998.31140,1998.09705,1998.31140,1998.09705,15.98592,15.97977,86.15409,86.15409,99.91846,99.90730,371.00885,371.07825,492.51367,492.51367,502.69400,502.69400,178.19539,178.19589,15.04573,15.04573,0.00000,1.00000,1.00000,0.00000,0.00000,0.00000
19.70560,153.56551,158.29137,158.29137,182.15845,0.24182,195.27284,1.05316,0.11788,-0.00578,0.00000,0.00000,0.00000,1.77166,1.58147,64.70846,65.30892,1.15881,30.29338,-87.49497,2210.76660,2204.40796,0.00000,2207.07202,483.21078,590.20172,-32662.02734,73.69849,0.86543,-34.62618,0.62353,0.62353,530.21082,530.29065,901.33276,901.55762,1394.81152,1395.15820,1998.13538,1997.95142,1998.13538,1997.95142,16.00553,16.00032,86.15409,86.15409,99.90974,99.89996,371.05783,371.12335,493.04971,493.04971,503.21234,503.21234,178.21487,178.21536,15.04748,15.04748,0.00000,1.00000,1.00000,0.00000,0.00000,0.00000
19.70563,153.73177,158.46248,158.46249,182.35538,0.24208,196.85051,1.06090,0.11785,-0.00631,0.00000,0.00000,0.00000,1.84982,2.11427,64.73121,65.33173,1.19176,30.29341,-87.49489,2211.15283,2204.65625,0.00000,2207.45337,491.18005,590.29962,-32665.76953,73.79143,0.92849,-34.63376,0.62353,0.62353,530.28156,530.34625,900.67700,900.73096,1395.12048,1395.40186,1997.96069,1997.81299,1997.96069,1997.81299,16.02383,16.02045,86.15409,86.15409,99.90094,99.89299,371.10651,371.16592,493.56747,493.56747,503.69940,503.69940,178.23413,178.23460,15.04904,15.04904,0.00000,1.00000,1.00000,0.00000,0.00000,0.00000
19.70566,153.89111,158.62750,158.62750,182.54529,0.24233,199.61418,1.07511,0.11796,-0.00681,0.00000,0.00000,0.00000,1.94213,2.62737,64.74307,65.34366,1.22812,30.29344,-87.49481,2211.55835,2205.10010,0.00000,2207.85181,499.03235,590.40375,-32669.45117,73.88525,1.00570,-34.63150,0.62353,0.62353,530.35052,530.40271,899.91003,899.86261,1395.42273,1395.64966,1997.79272,1997.67444,1997.79272,1997.67444,16.04094,16.03914,86.15409,86.15409,99.89230,99.88589,371.15475,371.20636,494.06342,494.06342,504.15332,504.15332,178.25299,178.25346,15.05041,15.05041,0.00000,1.00000,1.00000,0.00000,0.00000,0.00000
19.70569,154.04356,158.78534,158.78534,182.72691,0.24257,203.64055,1.08929,0.11823,-0.01101,0.00000,0.00000,0.00000,2.03077,3.11912,64.74641,65.34705,1.25200,30.29348,-87.49473,2211.98315,2205.56738,0.00000,2208.26880,506.71677,590.51422,-32673.04883,73.97849,1.09405,-34.62120,0.62353,0.62353,530.41394,530.45526,899.34381,899.28857,1395.70154,1395.88110,1997.63220,1997.53711,1997.63220,1997.53711,16.05748,16.05711,86.15409,86.15409,99.88429,99.87921,371.20151,371.24518,494.53540,494.53540,504.57388,504.57388,178.27138,178.27184,15.05161,15.05161,0.00000,1.00000,1.00000,0.00000,0.00000,0.00000
19.70572,154.19417,158.94244,158.94244,182.90770,0.24281,209.18683,1.09795,0.11814,-0.01397,0.00000,0.00000,0.00000,2.11247,3.52945,64.74773,65.34845,1.25982,30.29351,-87.49464,2212.44897,2206.14746,0.00000,2208.72144,514.53998,590.63684,-32676.70703,74.07413,1.19467,-34.60417,0.62353,0.62353,530.47150,530.50604,898.25543,898.27338,1395.95630,1396.10669,1997.49646,1997.41443,1997.49646,1997.41443,16.07459,16.07500,86.15409,86.15409,99.87690,99.87265,371.24744,371.28372,495.00287,495.00287,504.97946,504.97946,178.28999,178.29045,15.05271,15.05271,0.00000,1.00000,1.00000,0.00000,0.00000,0.00000
19.70575,154.34212,159.09569,159.09570,183.08408,0.24305,216.26643,1.10843,0.11776,-0.01415,0.00000,0.00000,0.00000,2.18466,3.65073,64.75225,65.35303,1.25049,30.29354,-87.49457,2212.95166,2206.40454,0.00000,2209.20776,522.35736,590.77069,-32680.35352,74.16943,1.30797,-34.58229,0.62353,0.62353,530.51135,530.54352,896.73102,896.77856,1396.13489,1396.27478,1997.41418,1997.33728,1997.41418,1997.33728,16.09419,16.09460,86.15409,86.15409,99.87162,99.86767,371.28909,371.31967,495.45709,495.45709,505.36319,505.36319,178.30850,178.30894,15.05370,15.05370,0.00000,1.00000,1.00000,0.00000,0.00000,0.00000
19.70578,154.49245,159.25076,159.25075,183.26250,0.24329,225.28221,1.10817,0.11709,-0.01220,0.00000,0.00000,0.00000,2.21027,3.52122,64.75769,65.35853,1.18962,30.29358,-87.49448,2213.51514,2207.17456,0.00000,2209.75073,530.46118,590.92249,-32684.12695,74.26789,1.43049,-34.55502,0.62353,0.62353,530.53497,530.56396,896.40356,896.49908,1396.24426,1396.37048,1997.33069,1997.25989,1997.33069,1997.25989,16.11720,16.11779,86.15409,86.15409,99.86824,99.86467,371.32266,371.34918,495.91486,495.91486,505.73950,505.73950,178.32759,178.32802,15.05462,15.05462,0.00000,1.00000,1.00000,0.00000,0.00000,0.00000
19.70581,154.64680,159.40573,159.40573,183.44084,0.24352,235.81062,1.08184,0.11583,-0.01273,0.00000,0.00000,0.00000,2.17923,3.31686,64.76841,65.36932,1.08974,30.29361,-87.49440,2214.12134,2207.88940,0.00000,2210.34692,538.62695,591.08716,-32687.92188,74.36460,1.52980,-34.53188,0.62353,0.62353,530.57410,530.60425,895.72656,896.01910,1396.42261,1396.55396,1997.21960,1997.14185,1997.21960,1997.14185,16.13687,16.13683,86.15409,86.15409,99.86286,99.85915,371.35083,371.37451,496.36298,496.36298,506.09775,506.09775,178.34673,178.34714,15.05544,15.05544,0.00000,1.00000,1.00000,0.00000,0.00000,0.00000
19.70584,154.80354,159.56432,159.56432,183.62334,0.24377,247.35275,1.04968,0.11442,-0.01267,0.00000,0.00000,0.00000,2.11701,3.07986,64.78954,65.39051,0.98027,30.29365,-87.49431,2214.77100,2208.22656,0.00000,2210.98120,546.98822,591.26459,-32691.79883,74.46123,1.60009,-34.51430,0.62353,0.62353,530.61639,530.65125,894.97864,895.41724,1396.61572,1396.76770,1997.09985,1997.00903,1997.09985,1997.00903,16.15581,16.15444,86.15409,86.15409,99.85702,99.85271,371.37958,371.40262,496.80862,496.80862,506.44406,506.44406,178.36621,178.36662,15.05620,15.05620,0.00000,1.00000,1.00000,0.00000,0.00000,0.00000
19.70588,154.96010,159.72171,159.72171,183.80446,0.24401,258.72128,1.02025,0.11337,-0.01159,0.00000,0.00000,0.00000,2.07863,2.85480,64.82290,65.42393,0.92078,30.29368,-87.49422,2215.42871,2209.07397,0.00000,2211.64185,555.24780,591.44470,-32695.62305,74.55506,1.63417,-34.50280,0.62353,0.62353,530.65881,530.69916,894.23169,894.75073,1396.80969,1396.98560,1996.98254,1996.87927,1996.98254,1996.87927,16.17365,16.17074,86.15409,86.15409,99.85112,99.84614,371.40854,371.43286,497.23605,497.23605,506.76688,506.76688,178.38536,178.38576,15.05686,15.05686,0.00000,1.00000,1.00000,0.00000,0.00000,0.00000
19.70591,155.10983,159.87601,159.87601,183.98204,0.24424,269.24875,1.01514,0.11302,-0.00943,0.00000,0.00000,0.00000,2.10487,2.72465,64.86606,65.46716,0.93578,30.29371,-87.49414,2216.08179,2209.78564,0.00000,2212.29321,563.36279,591.62384,-32699.37500,74.64610,1.65387,-34.49416,0.62353,0.62353,530.70490,530.74890,893.83557,894.36420,1397.01990,1397.21179,1996.84680,1996.73645,1996.84680,1996.73645,16.18964,16.18547,86.15409,86.15409,99.84476,99.83932,371.43753,371.46414,497.64401,497.64401,507.06638,507.06638,178.40407,178.40446,15.05744,15.05744,0.00000,1.00000,1.00000,0.00000,0.00000,0.00000
19.70594,155.25690,160.02968,160.02968,184.15886,0.24448,279.21014,1.03268,0.11314,-0.01124,0.00000,0.00000,0.00000,2.16925,2.77202,64.91373,65.51490,0.97979,30.29375,-87.49406,2216.74976,2210.52588,0.00000,2212.96021,571.55634,591.80737,-32703.15820,74.73645,1.68530,-34.48559,0.62353,0.62353,530.76459,530.80969,893.31409,893.80048,1397.29016,1397.48682,1996.68372,1996.57288,1996.68372,1996.57288,16.20245,16.19747,86.15409,86.15409,99.83669,99.83112,371.46973,371.49847,498.04419,498.04419,507.35214,507.35214,178.42288,178.42328,15.05797,15.05797,0.00000,1.00000,1.00000,0.00000,0.00000,0.00000
19.70597,155.39883,160.17781,160.17781,184.32935,0.24471,288.72806,1.04440,0.11335,-0.01144,0.00000,0.00000,0.00000,2.24774,2.87660,64.96060,65.56184,1.02686,30.29378,-87.49397,2217.42065,2211.05713,0.00000,2213.62549,579.60797,591.99207,-32706.86914,74.82410,1.73207,-34.47522,0.62353,0.62353,530.81482,530.85815,892.43658,892.84662,1397.51904,1397.70825,1996.55432,1996.44971,1996.55432,1996.44971,16.21573,16.21048,86.15409,86.15409,99.82977,99.82441,371.50537,371.53519,498.42633,498.42633,507.61749,507.61749,178.44125,178.44165,15.05843,15.05843,0.00000,1.00000,1.00000,0.00000,0.00000,0.00000
19.70600,155.53395,160.31786,160.31786,184.49049,0.24492,297.95959,1.06185,0.11366,-0.01036,0.00000,0.00000,0.00000,2.34932,3.02147,65.00488,65.60617,1.08827,30.29381,-87.49389,2218.08667,2211.67480,0.00000,2214.29663,587.39032,592.17596,-32710.45117,74.90853,1.79081,-34.46113,0.62353,0.62353,530.85651,530.89642,891.84320,892.19550,1397.71155,1397.88574,1996.43921,1996.34375,1996.43921,1996.34375,16.22907,16.22394,86.15409,86.15409,99.82388,99.81894,371.53842,371.56812,498.78543,498.78543,507.86014,507.86014,178.45894,178.45934,15.05883,15.05883,0.00000,1.00000,1.00000,0.00000,0.00000,0.00000
19.70604,155.66563,160.45779,160.45778,184.65152,0.24513,307.85324,1.07942,0.11392,-0.01124,0.00000,0.00000,0.00000,2.43795,3.23691,65.04614,65.64750,1.11905,30.29385,-87.49380,2218.79688,2212.67627,0.00000,2214.98608,595.38599,592.37280,-32714.12500,74.99458,1.87405,-34.44191,0.62353,0.62353,530.90118,530.93683,891.28973,891.60022,1397.91736,1398.07324,1996.31140,1996.22656,1996.31140,1996.22656,16.24174,16.23689,86.15409,86.15409,99.81757,99.81315,371.57068,371.59909,499.14435,499.14435,508.09619,508.09619,178.47702,178.47742,15.05920,15.05920,0.00000,1.00000,1.00000,0.00000,0.00000,0.00000
19.70607,155.79970,160.59763,160.59763,184.81245,0.24535,318.70877,1.08275,0.11382,-0.01256,0.00000,0.00000,0.00000,2.50269,3.50744,65.08405,65.68548,1.11998,30.29388,-87.49372,2219.55420,2213.10132,0.00000,2215.72949,603.56873,592.58374,-32717.87891,75.08254,1.96501,-34.41768,0.62353,0.62353,530.94263,530.97424,890.61108,890.90564,1398.11084,1398.24890,1996.19373,1996.11841,1996.19373,1996.11841,16.25466,16.25012,86.15409,86.15409,99.81155,99.80763,371.60287,371.62921,499.50140,499.50140,508.32465,508.32465,178.49542,178.49582,15.05954,15.05954,0.00000,1.00000,1.00000,0.00000,0.00000,0.00000
19.70610,155.93115,160.73334,160.73334,184.96863,0.24556,330.17685,1.08063,0.11347,-0.01354,0.00000,0.00000,0.00000,2.55278,3.78809,65.11953,65.72102,1.10715,30.29391,-87.49364,2220.33545,2214.11426,0.00000,2216.50488,611.67017,592.80206,-32721.58789,75.17002,2.05421,-34.38918,0.62353,0.62353,530.97736,531.00574,889.85382,890.15735,1398.27576,1398.39978,1996.09460,1996.02612,1996.09460,1996.02612,16.26789,16.26355,86.15409,86.15409,99.80630,99.80278,371.63269,371.65668,499.84494,499.84494,508.53836,508.53836,178.51358,178.51398,15.05984,15.05984,0.00000,1.00000,1.00000,0.00000,0.00000,0.00000
19.70613,156.06166,160.86826,160.86826,185.12389,0.24576,342.39020,1.07746,0.11309,-0.01445,0.00000,0.00000,0.00000,2.59949,4.07301,65.15596,65.75751,1.09242,30.29395,-87.49355,2221.15674,2215.72900,0.00000,2217.30933,619.87091,593.03229,-32725.33398,75.25922,2.14093,-34.35572,0.62353,0.62353,531.00732,531.03381,889.23309,889.56995,1398.42102,1398.53687,1995.99988,1995.93506,1995.99988,1995.93506,16.28159,16.27724,86.15409,86.15409,99.80157,99.79828,371.65958,371.68146,500.18289,500.18289,508.74283,508.74283,178.53186,178.53226,15.06011,15.06011,0.00000,1.00000,1.00000,0.00000,0.00000,0.00000
19.70617,156.18958,161.00000,160.99998,185.27550,0.24597,355.01871,1.08049,0.11265,-0.01532,0.00000,0.00000,0.00000,2.64053,4.35512,65.19444,65.79606,1.07269,30.29398,-87.49347,2222.00317,2216.70850,0.00000,2218.15137,628.03320,593.27045,-32729.05469,75.34865,2.22658,-34.31758,0.62353,0.62353,531.03510,531.06097,888.53284,888.92365,1398.55774,1398.67102,1995.91284,1995.84839,1995.91284,1995.84839,16.29498,16.29038,86.15409,86.15409,99.79704,99.79382,371.68344,371.70374,500.50970,500.50970,508.93506,508.93506,178.54997,178.55037,15.06035,15.06035,0.00000,1.00000,1.00000,0.00000,0.00000,0.00000
19.70620,156.31572,161.12915,161.12914,185.42410,0.24616,368.00995,1.06884,0.11205,-0.01606,0.00000,0.00000,0.00000,2.65707,4.63434,65.23523,65.83691,1.03271,30.29401,-87.49339,2222.87476,2218.07617,0.00000,2219.01562,636.16345,593.51636,-32732.75195,75.43853,2.30608,-34.27525,0.62353,0.62353,531.05890,531.08551,887.84760,888.30621,1398.67798,1398.79419,1995.83325,1995.76611,1995.83325,1995.76611,16.30845,16.30338,86.15409,86.15409,99.79293,99.78963,371.70480,371.72415,500.82605,500.82605,509.11600,509.11600,178.56792,178.56831,15.06056,15.06056,0.00000,1.00000,1.00000,0.00000,0.00000,0.00000
19.70623,156.43929,161.25598,161.25598,185.57007,0.24636,381.06854,1.05807,0.11141,-0.01660,0.00000,0.00000,0.00000,2.66898,4.91013,65.28091,65.88266,0.99731,30.29405,-87.49330,2223.76318,2219.31689,0.00000,2219.90161,644.23157,593.76758,-32736.41016,75.52886,2.37253,-34.22961,0.62353,0.62353,531.08038,531.10864,887.18976,887.71606,1398.78821,1398.91199,1995.75830,1995.68628,1995.75830,1995.68628,16.32172,16.31596,86.15409,86.15409,99.78909,99.78558,371.72354,371.74277,501.13116,501.13116,509.28574,509.28574,178.58566,178.58606,15.06075,15.06075,0.00000,1.00000,1.00000,0.00000,0.00000,0.00000
19.70626,156.56024,161.38232,161.38232,185.71547,0.24655,394.13034,1.05182,0.11093,-0.01694,0.00000,0.00000,0.00000,2.68815,5.18702,65.33366,65.93548,0.97516,30.29408,-87.49322,2224.67798,2220.42017,0.00000,2220.79761,652.35315,594.02673,-32740.08594,75.62101,2.43072,-34.17963,0.62353,0.62353,531.10022,531.13074,886.64124,887.22717,1398.89221,1399.02563,1995.68213,1995.60461,1995.68213,1995.60461,16.33493,16.32837,86.15409,86.15409,99.78541,99.78162,371.74045,371.76019,501.42972,501.42972,509.44724,509.44724,178.60342,178.60382,15.06092,15.06092,0.00000,1.00000,1.00000,0.00000,0.00000,0.00000
19.70629,156.68031,161.50478,161.50479,185.85640,0.24674,406.75272,1.05044,0.11056,-0.01678,0.00000,0.00000,0.00000,2.71582,5.41288,65.39240,65.99428,0.96432,30.29411,-87.49313,2225.59375,2221.38062,0.00000,2221.72217,660.32214,594.28656,-32743.67969,75.71239,2.48585,-34.12642,0.62353,0.62353,531.11639,531.14886,885.84149,886.47321,1398.98071,1399.12305,1995.62378,1995.54150,1995.62378,1995.54150,16.34801,16.34063,86.15409,86.15409,99.78214,99.77809,371.75583,371.77655,501.71448,501.71448,509.59702,509.59702,178.62077,178.62117,15.06108,15.06108,0.00000,1.00000,1.00000,0.00000,0.00000,0.00000
19.70632,156.79697,161.62735,161.62735,185.99744,0.24693,419.35989,1.05368,0.11035,-0.01690,0.00000,0.00000,0.00000,2.75084,5.57719,65.45876,66.06070,0.96027,30.29414,-87.49305,2226.54175,2222.36743,0.00000,2222.65405,668.40948,594.55597,-32747.31836,75.80586,2.54307,-34.06821,0.62353,0.62353,531.13068,531.16486,885.12463,885.79889,1399.06140,1399.21106,1995.56567,1995.47925,1995.56567,1995.47925,16.36132,16.35318,86.15409,86.15409,99.77906,99.77481,371.76889,371.79074,501.99545,501.99545,509.74078,509.74078,178.63831,178.63870,15.06121,15.06121,0.00000,1.00000,1.00000,0.00000,0.00000,0.00000
19.70635,156.91270,161.74651,161.74652,186.13458,0.24711,431.66360,1.06058,0.11019,-0.01659,0.00000,0.00000,0.00000,2.78668,5.68458,65.52978,66.13178,0.95656,30.29418,-87.49297,2227.49658,2223.45142,0.00000,2223.61060,676.39850,594.82782,-32750.90234,75.89874,2.60207,-34.00660,0.62353,0.62353,531.14062,531.17615,884.68372,885.39313,1399.12354,1399.27905,1995.51001,1995.42065,1995.51001,1995.42065,16.37485,16.36601,86.15409,86.15409,99.77650,99.77208,371.77979,371.80273,502.26529,502.26529,509.87506,509.87506,178.65555,178.65594,15.06133,15.06133,0.00000,1.00000,1.00000,0.00000,0.00000,0.00000
19.70638,157.02670,161.86595,161.86595,186.27202,0.24729,444.18216,1.06232,0.10971,-0.01603,0.00000,0.00000,0.00000,2.79612,5.65569,65.60448,66.20656,0.92219,30.29421,-87.49288,2228.49194,2224.34106,0.00000,2224.58252,684.54175,595.11157,-32754.54297,75.99287,2.66924,-33.94150,0.62353,0.62353,531.14905,531.18536,883.70129,884.41235,1399.18005,1399.33887,1995.47192,1995.38184,1995.47192,1995.38184,16.38861,16.37914,86.15409,86.15409,99.77406,99.76955,371.78946,371.81345,502.53268,502.53268,510.00446,510.00446,178.67303,178.67343,15.06145,15.06145,0.00000,1.00000,1.00000,0.00000,0.00000,0.00000
19.70642,157.14558,161.98834,161.98836,186.41289,0.24748,457.11594,1.04681,0.10903,-0.01329,0.00000,0.00000,0.00000,2.76932,5.50325,65.68279,66.28492,0.85899,30.29424,-87.49279,2229.54126,2225.36719,0.00000,2225.62378,692.95337,595.41125,-32758.29102,76.08996,2.72743,-33.87384,0.62353,0.62353,531.14893,531.18506,883.22308,883.96698,1399.20007,1399.35852,1995.43677,1995.34668,1995.43677,1995.34668,16.40421,16.39426,86.15409,86.15409,99.77260,99.76810,371.79620,371.82080,502.80106,502.80106,510.13068,510.13068,178.69101,178.69141,15.06155,15.06155,0.00000,0.00000,0.00000,0.00000,0.00000,0.00000
19.70645,157.26437,162.11137,162.11136,186.55443,0.24767,469.75928,1.02723,0.10832,-0.01331,0.00000,0.00000,0.00000,2.73229,5.30309,65.76733,66.36953,0.80134,30.29428,-87.49271,2230.60840,2226.42529,0.00000,2226.67456,701.39307,595.71643,-32762.04102,76.18594,2.76436,-33.81079,0.62353,0.62353,531.15540,531.19226,882.69135,883.54108,1399.24976,1399.41113,1995.38635,1995.29272,1995.38635,1995.29272,16.41832,16.40775,86.15409,86.15409,99.77027,99.76569,371.80060,371.82550,503.06253,503.06253,510.25006,510.25006,178.70895,178.70935,15.06164,15.06164,0.00000,0.00000,0.00000,0.00000,0.00000,0.00000
19.70648,157.38306,162.22992,162.22990,186.69084,0.24785,481.25037,1.01822,0.10775,-0.01087,0.00000,0.00000,0.00000,2.70515,5.10487,65.85740,66.45967,0.76452,30.29431,-87.49262,2231.64355,2227.56885,0.00000,2227.73608,709.51593,596.01251,-32765.63867,76.27734,2.78630,-33.75333,0.62353,0.62353,531.16376,531.20386,882.04797,882.98383,1399.30786,1399.48352,1995.33691,1995.23523,1995.33691,1995.23523,16.43111,16.41941,86.15409,86.15409,99.76770,99.76271,371.80530,371.83096,503.30695,503.30695,510.35846,510.35846,178.72614,178.72653,15.06172,15.06172,0.00000,0.00000,0.00000,0.00000,0.00000,0.00000
19.70651,157.49673,162.34808,162.34808,186.82684,0.24803,491.95108,1.01277,0.10717,-0.00713,0.00000,0.00000,0.00000,2.65967,4.91208,65.94701,66.54934,0.71170,30.29434,-87.49254,2232.68262,2228.65405,0.00000,2228.76465,717.62695,596.30994,-32769.22266,76.36829,2.80458,-33.69649,0.62353,0.62353,531.17389,531.21503,881.55054,882.34302,1399.37292,1399.55310,1995.27917,1995.17969,1995.27917,1995.17969,16.44333,16.43088,86.15409,86.15409,99.76496,99.75984,371.81055,371.83755,503.54419,503.54419,510.46072,510.46072,178.74321,178.74361,15.06179,15.06179,0.00000,0.00000,0.00000,0.00000,0.00000,0.00000
19.70654,157.61443,162.47009,162.47009,186.96725,0.24822,502.03650,0.99218,0.10648,-0.00460,0.00000,0.00000,0.00000,2.59131,4.72133,66.02898,66.63138,0.64787,30.29437,-87.49245,2233.74854,2229.42163,0.00000,2229.82251,725.93829,596.61505,-32772.88281,76.46160,2.80440,-33.64049,0.62353,0.62353,531.18610,531.22211,881.04572,881.59570,1399.44788,1399.60571,1995.21643,1995.13452,1995.21643,1995.13452,16.45514,16.44313,86.15409,86.15409,99.76192,99.75742,371.81702,371.84433,503.78046,503.78046,510.55969,510.55969,178.76064,178.76103,15.06186,15.06186,0.00000,0.00000,0.00000,0.00000,0.00000,0.00000
19.70657,157.73286,162.59142,162.59140,187.10684,0.24841,510.74249,0.97317,0.10600,-0.00369,0.00000,0.00000,0.00000,2.54681,4.54802,66.09863,66.70109,0.62193,30.29440,-87.49236,2234.78955,2230.63525,0.00000,2230.88428,734.10602,596.91296,-32776.46875,76.55309,2.78219,-33.58932,0.62353,0.62353,531.19940,531.22534,880.54279,880.92981,1399.52771,1399.64136,1995.15344,1995.09705,1995.15344,1995.09705,16.46610,16.45559,86.15409,86.15409,99.75873,99.75549,371.82446,371.84973,504.00607,504.00607,510.65149,510.65149,178.77768,178.77808,15.06191,15.06191,0.00000,0.00000,0.00000,0.00000,0.00000,0.00000
19.70660,157.84792,162.71321,162.71323,187.24704,0.24859,518.06470,0.98726,0.10578,-0.00598,0.00000,0.00000,0.00000,2.54237,4.39626,66.16154,66.76407,0.63390,30.29444,-87.49228,2235.82397,2231.67065,0.00000,2231.90747,742.29852,597.20892,-32780.05859,76.64305,2.76222,-33.54192,0.62353,0.62353,531.21515,531.23096,880.00256,880.41815,1399.61731,1399.68652,1995.08557,1995.05029,1995.08557,1995.05029,16.47637,16.46750,86.15409,86.15409,99.75529,99.75333,371.83292,371.85382,504.22598,504.22598,510.73843,510.73843,178.79469,178.79509,15.06196,15.06196,0.00000,0.00000,0.00000,0.00000,0.00000,0.00000
19.70663,157.96371,162.83542,162.83540,187.38763,0.24878,524.35272,0.98756,0.10556,-0.00401,0.00000,0.00000,0.00000,2.52406,4.24189,66.21642,66.81902,0.62559,30.29447,-87.49220,2236.86011,2232.79834,0.00000,2232.94556,750.54999,597.50525,-32783.66016,76.73262,2.75080,-33.49496,0.62353,0.62353,531.22479,531.23627,879.40668,879.65582,1399.68042,1399.73083,1995.03357,1995.01184,1995.03357,1995.01184,16.48753,16.47929,86.15409,86.15409,99.75260,99.75117,371.84219,371.85812,504.44128,504.44128,510.82111,510.82111,178.81175,178.81215,15.06201,15.06201,0.00000,0.00000,0.00000,0.00000,0.00000,0.00000
19.70667,158.08188,162.95802,162.95802,187.52876,0.24897,529.72028,0.97720,0.10539,-0.00685,0.00000,0.00000,0.00000,2.51349,4.07401,66.26093,66.86359,0.62968,30.29450,-87.49210,2237.89111,2233.68164,0.00000,2233.98584,758.81366,597.79999,-32787.26172,76.82098,2.73178,-33.45179,0.62353,0.62353,531.23346,531.23633,878.81116,878.94525,1399.73950,1399.75183,1994.98462,1994.98401,1994.98462,1994.98401,16.49858,16.49189,86.15409,86.15409,99.75004,99.74969,371.85013,371.86151,504.65082,504.65082,510.89923,510.89923,178.82875,178.82915,15.06205,15.06205,0.00000,0.00000,0.00000,0.00000,0.00000,0.00000
19.70670,158.19669,163.07915,163.07915,187.66814,0.24916,534.09796,0.99227,0.10544,-0.00892,0.00000,0.00000,0.00000,2.54843,3.89550,66.30744,66.91017,0.67506,30.29453,-87.49202,2238.90674,2234.63257,0.00000,2235.00220,767.01093,598.09027,-32790.82812,76.90598,2.71948,-33.41367,0.62353,0.62353,531.24017,531.23944,878.17084,878.48755,1399.78943,1399.78601,1994.94141,1994.94360,1994.94141,1994.94360,16.50965,16.50363,86.15408,86.15408,99.74773,99.74783,371.85687,371.86340,504.85278,504.85278,510.97238,510.97238,178.84554,178.84593,15.06209,15.06209,0.00000,0.00000,0.00000,0.00000,0.00000,0.00000
19.70673,158.30977,163.19939,163.19939,187.80652,0.24934,537.93750,1.01149,0.10565,-0.00989,0.00000,0.00000,0.00000,2.59759,3.70084,66.36523,66.96802,0.72176,30.29457,-87.49194,2239.92920,2235.88110,0.00000,2236.02319,775.27026,598.38251,-32794.41016,76.98826,2.72750,-33.37890,0.62353,0.62353,531.24310,531.24579,877.39929,878.05603,1399.82288,1399.83447,1994.90967,1994.89612,1994.90967,1994.89612,16.52130,16.51464,86.15408,86.15408,99.74590,99.74557,371.86234,371.86581,505.05060,505.05060,511.04196,511.04196,178.86235,178.86275,15.06212,15.06212,0.00000,0.00000,0.00000,0.00000,0.00000,0.00000
19.70676,158.41949,163.31412,163.31412,187.93854,0.24952,541.54327,1.02310,0.10579,-0.00702,0.00000,0.00000,0.00000,2.63703,3.50545,66.42976,67.03262,0.74926,30.29460,-87.49185,2240.92529,2236.81445,0.00000,2237.02930,783.27417,598.66736,-32797.87500,77.06652,2.75003,-33.34494,0.62353,0.62353,531.24176,531.25220,876.85217,877.49957,1399.83728,1399.88306,1994.88269,1994.85315,1994.88269,1994.85315,16.53318,16.52495,86.15408,86.15408,99.74462,99.74332,371.86557,371.86926,505.23697,505.23697,511.10562,511.10562,178.87859,178.87898,15.06215,15.06215,0.00000,0.00000,0.00000,0.00000,0.00000,0.00000
19.70679,158.52832,163.42656,163.42656,188.06795,0.24969,545.26105,1.02965,0.10577,-0.00474,0.00000,0.00000,0.00000,2.66421,3.31512,66.49362,67.09654,0.75907,30.29463,-87.49177,2241.92310,2237.85938,0.00000,2238.02734,791.22235,598.95282,-32801.30859,77.14315,2.78030,-33.31100,0.62353,0.62353,531.24377,531.25653,876.38031,876.89026,1399.86633,1399.92212,1994.84656,1994.81604,1994.84656,1994.81604,16.54417,16.53536,86.15408,86.15408,99.74293,99.74134,371.86731,371.87296,505.41705,505.41705,511.16537,511.16537,178.89464,178.89503,15.06218,15.06218,0.00000,0.00000,0.00000,0.00000,0.00000,0.00000
19.70681,158.63217,163.53714,163.53714,188.19519,0.24986,549.20270,1.03177,0.10560,-0.00258,0.00000,0.00000,0.00000,2.67713,3.12980,66.55270,67.15568,0.75220,30.29466,-87.49168,2242.92554,2238.66992,0.00000,2239.01562,799.12811,599.23981,-32804.71875,77.21803,2.81364,-33.27832,0.62353,0.62353,531.24713,531.25787,875.92938,876.35217,1399.90100,1399.94824,1994.80725,1994.78320,1994.80725,1994.78320,16.55465,16.54605,86.15408,86.15408,99.74107,99.73973,371.86908,371.87598,505.59131,505.59131,511.22156,511.22156,178.91052,178.91092,15.06220,15.06220,0.00000,0.00000,0.00000,0.00000,0.00000,0.00000
19.70684,158.74086,163.64891,163.64891,188.32382,0.25003,553.56299,1.03314,0.10472,0.00151,0.00000,0.00000,0.00000,2.61413,2.96613,66.59569,67.19874,0.66306,30.29469,-87.49160,2243.96338,2239.38452,0.00000,2240.04932,807.21484,599.53723,-32808.19922,77.29426,2.85489,-33.24324,0.62353,0.62353,531.25201,531.25726,875.46704,875.49939,1399.94470,1399.96777,1994.76221,1994.75964,1994.76221,1994.75964,16.56469,16.55702,86.15408,86.15408,99.73888,99.73822,371.87125,371.87796,505.76477,505.76477,511.27588,511.27588,178.92671,178.92711,15.06222,15.06222,0.00000,0.00000,0.00000,0.00000,0.00000,0.00000
19.70687,158.85435,163.76440,163.76440,188.45671,0.25021,558.19110,0.98076,0.10337,-0.00010,0.00000,0.00000,0.00000,2.44226,2.82703,66.61484,67.21795,0.48962,30.29472,-87.49152,2245.02295,2239.63232,0.00000,2241.10327,815.42639,599.84106,-32811.72656,77.37173,2.85864,-33.21320,0.62353,0.62353,531.25830,531.25043,874.84625,874.71869,1399.99414,1399.95947,1994.71851,1994.74768,1994.71851,1994.74768,16.57446,16.56930,86.15408,86.15408,99.73655,99.73753,371.87433,371.87817,505.93600,505.93600,511.32794,511.32794,178.94308,178.94348,15.06224,15.06224,0.00000,0.00000,0.00000,0.00000,0.00000,0.00000
19.70691,158.97107,163.88557,163.88559,188.59618,0.25039,561.99615,0.92139,0.10222,-0.00183,0.00000,0.00000,0.00000,2.26796,2.68960,66.62068,67.22385,0.35773,30.29475,-87.49143,2246.07617,2239.80933,0.00000,2242.15771,823.70221,600.14276,-32815.27344,77.45111,2.79721,-33.19160,0.62353,0.62353,531.25995,531.24213,874.27313,874.12103,1400.02307,1399.94470,1994.68445,1994.73499,1994.68445,1994.73499,16.58500,16.58191,86.15408,86.15408,99.73480,99.73703,371.87750,371.87589,506.10376,506.10376,511.37741,511.37741,178.95949,178.95988,15.06226,15.06226,0.00000,0.00000,0.00000,0.00000,0.00000,0.00000
19.70693,159.09012,164.00900,164.00900,188.73819,0.25058,563.85730,0.90713,0.10147,-0.00583,0.00000,0.00000,0.00000,2.16710,2.54672,66.62727,67.23052,0.31948,30.29478,-87.49135,2247.08765,2240.18823,0.00000,2243.19019,831.88928,600.43195,-32818.78125,77.52895,2.70650,-33.17872,0.62353,0.62353,531.26019,531.23792,873.54883,873.59729,1400.04456,1399.94702,1994.65967,1994.71375,1994.65967,1994.71375,16.59559,16.59360,86.15408,86.15408,99.73331,99.73608,371.87964,371.87253,506.26508,506.26508,511.42355,511.42355,178.97565,178.97604,15.06227,15.06227,0.00000,0.00000,0.00000,0.00000,0.00000,0.00000
