"Time_Hours","Vel_Indicated_kts","Vel_True_kts","Vel_Ground_kts","Vel_Groupn_mph","Vel_Mach","Vel_Vertical_fpm","GLoad_normal","GLoad_axial","GLoad_side","Flaps_Handle","Flaps_Position","Gear","Pitch_deg","Roll_deg","Heading_True","Heading_Mag","AngleOfAttack","Latitude","Longitude","Altitude_FtMsl","Altitude_FtAgl","RunwayThreshold","Altitude_Indicated","X","Y","Z","vX","vY","vZ","Eng1_Throttle","Eng2_Throttle","Eng1_Power_hp","Eng2_Power_hp","Eng1_Thrust_lb","Eng2_Thrust_lb","Eng1_Torque_lb","Eng2_Torque_lb","Eng1_EngineRPM","Eng2_EngineRPM","Eng1_PropRPM","Eng2_PropRPM","Eng1_PropPitch_deg","Eng2_PropPitch_deg","Eng1_N1","Eng2_N1","Eng1_N2","Eng2_N2","Eng1_FuelFlow","Eng2_FuelFlow","Eng1_ITT","Eng2_ITT","Eng1_EGT","Eng2_EGT","Eng1_CHT","Eng2_CHT","Eng1_OilPress_psi","Eng2_OilPress_psi","MasterCaution","MasterWarn","MasterAccept","FuelQuantity","HydPress","AutoThrottle"
19.70409,-0.00006,145.30637,155.03720,178.41362,0.22198,890.82599,0.98626,0.10608,0.02203,0.00000,0.00000,0.00000,4.44570,-0.42268,67.56033,68.15750,1.07496,30.29181,-87.49927,2171.05493,2138.39380,0.00000,2166.81714,70.30403,579.00958,-32486.91016,74.26412,4.39398,-28.75544,0.01496,0.01496,413.89444,413.89444,826.28821,826.14050,1092.07288,1092.07288,1987.35303,1987.35718,1987.35303,1987.35718,15.81716,15.81716,83.47507,83.47507,99.61227,99.61227,324.70895,324.70709,497.64493,497.64493,506.79056,506.79056,178.39969,178.39969,15.05800,15.05800,0.00000,0.00000,0.00000,0.00000,0.00000,0.00000
19.70413,141.11394,145.29816,155.02426,178.39874,0.22196,889.92786,0.77449,0.04314,0.00023,0.00000,0.00000,0.00000,3.86961,-0.49837,67.56761,68.16487,0.65601,30.29184,-87.49917,2172.94897,2140.43774,0.00000,2168.80176,79.99812,579.56763,-32490.66406,74.26752,4.18744,-28.75902,0.05847,0.05847,203.97847,203.97676,482.16714,482.20731,542.89337,542.88794,1970.17896,1970.18054,1970.17896,1970.18054,14.45475,14.45501,77.26435,77.26435,98.75171,98.75187,288.90939,288.90829,489.00085,489.00085,489.11160,489.11160,178.35571,178.35571,15.01496,15.01496,0.00000,0.00000,0.00000,0.00000,0.00000,0.00000
19.70416,141.02385,145.18040,154.90936,178.26651,0.22179,884.07532,0.75144,-0.00505,-0.00024,0.00000,0.00000,0.00000,3.67121,-0.58545,67.57191,68.16924,0.65902,30.29187,-87.49908,2174.46167,2142.35254,0.00000,2170.42139,88.23782,580.01239,-32493.85352,74.22466,3.91644,-28.74401,0.09546,0.09546,89.22414,89.22381,236.95341,236.93388,239.02168,239.02071,1958.98352,1958.98474,1958.98352,1958.98474,13.35014,13.35021,72.68582,72.68582,98.11150,98.11153,246.49127,246.49051,482.78049,482.78049,476.78317,476.78317,178.30788,178.30788,14.93849,14.93849,0.00000,0.00000,0.00000,0.00000,0.00000,0.00000
19.70418,140.86380,145.00433,154.73431,178.06508,0.22152,874.17151,0.78645,-0.03785,-0.00079,0.00000,0.00000,0.00000,3.66666,-0.69350,67.57169,68.16907,0.81485,30.29189,-87.49900,2175.77344,2144.45117,0.00000,2171.77710,95.82761,580.39709,-32496.79297,74.14996,3.68557,-28.71778,0.12957,0.12957,19.31479,19.31238,62.38675,62.27069,51.97690,51.97032,1951.11255,1951.11914,1951.11255,1951.11914,12.50089,12.50123,69.14254,69.14254,97.66847,97.66868,210.34148,210.34093,477.90121,477.90121,467.41190,467.41190,178.25258,178.25259,14.84309,14.84309,0.00000,0.00000,0.00000,0.00000,0.00000,0.00000
19.70421,140.64827,144.77396,154.50471,177.80086,0.22117,860.67200,0.83020,-0.05754,-0.00089,0.00000,0.00000,0.00000,3.72152,-0.84091,67.56709,68.16454,1.00200,30.29192,-87.49892,2177.04663,2146.89673,0.00000,2173.04590,103.59737,580.76978,-32499.80273,74.04625,3.49176,-28.68243,0.16453,0.16453,-10.11726,-10.12451,-47.93399,-48.08596,-27.30335,-27.32273,1946.68323,1946.69836,1946.68323,1946.69836,11.86095,11.86195,67.33331,67.33331,97.39170,97.39230,181.24904,181.24844,473.67178,473.67178,459.56976,459.56976,178.17715,178.17717,14.73160,14.73160,0.00000,0.00000,0.00000,0.00000,0.00000,0.00000
19.70425,140.38347,144.50153,154.23296,177.48813,0.22075,843.89050,0.86332,-0.06572,-0.00019,0.00000,0.00000,0.00000,3.75714,-1.06197,67.55890,68.15641,1.14922,30.29195,-87.49883,2178.33813,2149.05518,0.00000,2174.34546,111.85604,581.14697,-32503.00195,73.91986,3.32518,-28.64111,0.20175,0.20175,-18.38608,-18.39869,-99.38375,-99.54330,-49.68383,-49.71737,1944.92932,1944.95288,1944.92932,1944.95288,11.40970,11.41147,66.75002,66.75002,97.26327,97.26431,162.89952,162.89920,469.88690,469.88690,452.84555,452.84555,178.07719,178.07721,14.61364,14.61364,0.00000,0.00000,0.00000,0.00000,0.00000,0.00000
19.70428,140.11168,144.23735,153.96928,177.18471,0.22035,826.60699,0.87590,-0.06660,0.00020,0.00000,0.00000,0.00000,3.73631,-1.32558,67.55001,68.14758,1.22001,30.29198,-87.49876,2179.50781,2151.25244,0.00000,2175.56909,119.64467,581.48798,-32506.02148,73.79485,3.18758,-28.60368,0.23691,0.23691,-14.23986,-14.25642,-110.66332,-110.79343,-38.48896,-38.53319,1944.93237,1944.96143,1944.93237,1944.96143,11.12452,11.12692,66.98230,66.98230,97.23981,97.24120,153.44688,153.44672,466.90829,466.90829,447.82556,447.82556,177.98123,177.98125,14.51180,14.51180,0.00000,0.00000,0.00000,0.00000,0.00000,0.00000
19.70430,139.86441,143.98831,153.72069,176.89862,0.21997,809.15009,0.87362,-0.06439,0.00069,0.00000,0.00000,0.00000,3.66718,-1.62479,67.54189,68.13952,1.23822,30.29200,-87.49868,2180.58398,2153.24683,0.00000,2176.65576,127.08853,581.80115,-32508.90820,73.67535,3.05799,-28.57196,0.27057,0.27057,-2.69631,-2.71435,-102.84187,-102.94694,-7.28494,-7.33357,1946.09277,1946.12354,1946.09277,1946.12354,10.94564,10.94840,67.68435,67.68435,97.27880,97.28033,148.33859,148.33849,464.53723,464.53723,444.07214,444.07214,177.89279,177.89281,14.42727,14.42727,0.00000,0.00000,0.00000,0.00000,0.00000,0.00000
19.70433,139.62227,143.74387,153.47662,176.61775,0.21960,790.32928,0.86374,-0.05890,0.00120,0.00000,0.00000,0.00000,3.55782,-1.98041,67.53454,68.13223,1.22579,30.29203,-87.49860,2181.64502,2155.51733,0.00000,2177.72607,134.73570,582.10925,-32511.87500,73.55657,2.91712,-28.54549,0.30521,0.30521,15.58834,15.57021,-76.35168,-76.44849,42.07614,42.02653,1948.29309,1948.32385,1948.29309,1948.32385,10.85074,10.85369,68.76001,68.76001,97.37309,97.37463,145.99612,145.99403,462.53943,462.53943,441.15753,441.15753,177.81865,177.81863,14.35553,14.35553,0.00000,0.00000,0.00000,0.00000,0.00000,0.00000
19.70436,139.39272,143.51624,153.24936,176.35623,0.21925,770.33270,0.85072,-0.05056,0.00210,0.00000,0.00000,0.00000,3.42234,-2.38372,67.52796,68.12572,1.19876,30.29206,-87.49852,2182.66504,2157.50171,0.00000,2178.76392,142.44833,582.40472,-32514.86914,73.44426,2.76278,-28.52690,0.34020,0.34020,39.95195,39.93451,-33.74545,-33.85940,107.68421,107.63554,1951.33606,1951.36621,1951.33606,1951.36621,10.83439,10.83745,70.10229,70.10229,97.51260,97.51411,147.71188,147.70798,460.94467,460.94467,439.10004,439.10004,177.75923,177.75922,14.29972,14.29972,0.00000,0.00000,0.00000,0.00000,0.00000,0.00000
19.70439,139.18144,143.30222,153.03568,176.11032,0.21892,747.87628,0.83724,-0.03915,0.00331,0.00000,0.00000,0.00000,3.26317,-2.86459,67.52084,68.11865,1.16659,30.29209,-87.49844,2183.68555,2159.57373,0.00000,2179.77979,150.62106,582.69940,-32518.04688,73.33642,2.58518,-28.51738,0.37733,0.37733,72.11754,72.10036,25.27459,25.10690,194.00877,193.95953,1955.47571,1955.50659,1955.47571,1955.50659,10.89499,10.89823,71.72861,71.72861,97.69995,97.70147,153.12320,153.11830,459.68634,459.68634,437.80258,437.80258,177.70647,177.70645,14.25871,14.25871,0.00000,0.00000,0.00000,0.00000,0.00000,0.00000
19.70442,138.98941,143.12146,152.85518,175.90260,0.21865,723.58600,0.82593,-0.02356,0.00480,0.00000,0.00000,0.00000,3.09662,-3.40705,67.51162,68.10950,1.14015,30.29211,-87.49834,2184.65283,2161.23999,0.00000,2180.78149,158.91591,582.97754,-32521.27539,73.24210,2.39197,-28.52042,0.41506,0.41506,110.81129,110.79282,106.04295,105.80374,297.37772,297.32315,1960.30835,1960.34290,1960.30835,1960.34290,11.05266,11.05630,73.50858,73.50858,97.93780,97.93946,161.74728,161.74184,458.84586,458.84586,437.35461,437.35461,177.66280,177.66278,14.23571,14.23571,0.00000,0.00000,0.00000,0.00000,0.00000,0.00000
19.70445,138.84756,142.99283,152.72659,175.75464,0.21845,699.79944,0.81904,-0.00750,0.00626,0.00000,0.00000,0.00000,2.94350,-3.95040,67.49957,68.09752,1.12307,30.29214,-87.49827,2185.47949,2163.29199,0.00000,2181.65259,166.55122,583.21417,-32524.25000,73.17079,2.20618,-28.53613,0.44983,0.44983,151.26218,151.24182,189.28758,188.93483,404.94565,404.88342,1965.10437,1965.14478,1965.10437,1965.14478,11.25267,11.25683,75.19212,75.19212,98.17670,98.17857,172.05533,172.04935,458.44888,458.44888,437.67047,437.67047,177.63115,177.63115,14.23022,14.23022,0.00000,0.00000,0.00000,0.00000,0.00000,0.00000
19.70448,138.74947,142.90244,152.63594,175.65031,0.21831,674.50153,0.81500,0.00959,0.00759,0.00000,0.00000,0.00000,2.78910,-4.53929,67.48231,68.08031,1.10990,30.29217,-87.49818,2186.24731,2165.04688,0.00000,2182.41919,174.23822,583.43268,-32527.25195,73.11478,2.01456,-28.56547,0.48487,0.48487,196.97577,196.95123,277.90863,277.45703,525.97070,525.89270,1970.59497,1970.64539,1970.59497,1970.64539,11.49881,11.50387,76.91706,76.91706,98.42967,98.43201,184.40218,184.39543,458.39999,458.39999,438.64792,438.64792,177.60735,177.60735,14.23823,14.23823,0.00000,0.00000,0.00000,0.00000,0.00000,0.00000
19.70450,138.68872,142.85814,152.59117,175.59879,0.21825,649.30438,0.81248,0.02920,0.00903,0.00000,0.00000,0.00000,2.64093,-5.13466,67.46006,68.05812,1.09820,30.29219,-87.49811,2186.91479,2166.61841,0.00000,2183.13672,181.52887,583.62140,-32530.10352,73.07848,1.83035,-28.60744,0.51812,0.51812,243.91840,243.88838,379.70764,379.16473,649.48090,649.38177,1975.89270,1975.95605,1975.89270,1975.95605,11.81729,11.82352,78.54081,78.54081,98.70814,98.71107,197.83830,197.83046,458.67679,458.67679,440.16687,440.16687,177.59229,177.59230,14.25726,14.25726,0.00000,0.00000,0.00000,0.00000,0.00000,0.00000
19.70453,138.67189,142.85373,152.58600,175.59285,0.21824,624.47955,0.81125,0.04714,0.01022,0.00000,0.00000,0.00000,2.49862,-5.72749,67.43289,68.03101,1.08629,30.29222,-87.49804,2187.49097,2167.86694,0.00000,2183.73315,188.42162,583.78302,-32532.80664,73.05908,1.65496,-28.66032,0.54957,0.54957,291.72226,291.68683,473.18625,472.55035,774.73877,774.61670,1981.17029,1981.24622,1981.17029,1981.24622,12.13615,12.14367,80.05372,80.05372,98.96669,98.97027,211.89526,211.88606,459.21985,459.21985,442.10489,442.10489,177.58473,177.58476,14.28424,14.28424,0.00000,0.00000,0.00000,0.00000,0.00000,0.00000
19.70456,138.69153,142.88750,152.61870,175.63048,0.21829,598.95831,0.81055,0.06643,0.01138,0.00000,0.00000,0.00000,2.35459,-6.34440,67.39930,67.99747,1.07250,30.29224,-87.49797,2188.00928,2169.16675,0.00000,2184.27344,195.26369,583.92712,-32535.49414,73.05499,1.48021,-28.72633,0.58078,0.58078,342.34137,342.30212,573.97272,573.30115,906.68634,906.54498,1986.58179,1986.66638,1986.58179,1986.66638,12.49936,12.50803,81.53371,81.53371,99.23779,99.24189,227.08369,227.07295,460.02567,460.02567,444.49399,444.49399,177.58362,177.58366,14.31855,14.31855,0.00000,0.00000,0.00000,0.00000,0.00000,0.00000
19.70459,138.75601,142.97491,152.70444,175.72914,0.21843,568.74683,0.81032,0.08920,0.01253,0.00000,0.00000,0.00000,2.18528,-7.08797,67.35181,67.95004,1.05307,30.29227,-87.49789,2188.53613,2170.71606,0.00000,2184.79492,203.10701,584.07166,-32538.58398,73.06957,1.27958,-28.81930,0.61657,0.61657,405.41016,405.36768,693.37567,692.46307,1070.37378,1070.21167,1993.21545,1993.31348,1993.21545,1993.31348,12.94669,12.95665,83.22552,83.22552,99.54832,99.55296,245.97661,245.96437,461.26566,461.26566,447.77209,447.77209,177.59007,177.59013,14.36580,14.36580,0.00000,0.00000,0.00000,0.00000,0.00000,0.00000
19.70462,138.88490,143.12836,152.85559,175.90308,0.21866,535.48395,0.81042,0.11369,0.01378,0.00000,0.00000,0.00000,2.00028,-7.92149,67.29016,67.88846,1.02842,30.29230,-87.49780,2189.01929,2172.39331,0.00000,2185.30103,211.47729,584.20184,-32541.89453,73.10886,1.06526,-28.94019,0.62353,0.62353,460.37228,460.32404,822.26819,821.20776,1211.51831,1211.32507,1999.04993,1999.16418,1999.04993,1999.16418,13.45364,13.46544,84.60066,84.60066,99.87435,99.87982,271.42932,271.40817,462.84839,462.84839,451.66556,451.66556,177.60553,177.60559,14.42385,14.42385,0.00000,0.00000,0.00000,0.00000,0.00000,0.00000
19.70465,139.05469,143.30814,153.03279,176.10699,0.21894,504.56845,0.81086,0.12737,0.01476,0.00000,0.00000,0.00000,1.83180,-8.70040,67.22446,67.82281,1.00531,30.29233,-87.49772,2189.38843,2173.70850,0.00000,2185.70654,219.04762,584.29871,-32544.89844,73.15915,0.87097,-29.06717,0.62353,0.62353,489.15762,489.10452,895.58807,894.37329,1284.84851,1284.63025,2002.06140,2002.18799,2002.06140,2002.18799,13.77700,13.79041,85.28752,85.28752,100.06258,100.06871,297.10199,297.07483,464.19843,464.19843,454.91101,454.91101,177.62384,177.62393,14.47858,14.47858,0.00000,0.00000,0.00000,0.00000,0.00000,0.00000
19.70468,139.30154,143.56194,153.28265,176.39455,0.21933,465.38165,0.81220,0.13586,0.01569,0.00000,0.00000,0.00000,1.62531,-9.68562,67.12941,67.72784,0.97868,30.29236,-87.49763,2189.75391,2175.02637,0.00000,2186.10742,228.40663,584.39081,-32548.62891,73.22968,0.63024,-29.24370,0.62353,0.62353,508.50064,508.44208,942.83551,941.42554,1334.01343,1333.76855,2004.06116,2004.20117,2004.06116,2004.20117,14.03009,14.04540,85.73531,85.73531,100.18579,100.19263,323.13922,323.10620,465.76950,465.76950,458.59512,458.59512,177.64934,177.64944,14.54398,14.54398,0.00000,0.00000,0.00000,0.00000,0.00000,0.00000
19.70471,139.48663,143.75748,153.47484,176.61569,0.21962,436.66931,0.81374,0.13867,0.01617,0.00000,0.00000,0.00000,1.47953,-10.40355,67.05145,67.64993,0.96186,30.29238,-87.49755,2189.95459,2176.25146,0.00000,2186.32373,235.12325,584.43805,-32551.31836,73.28191,0.45733,-29.38248,0.62353,0.62353,516.02319,515.96112,959.77264,958.26422,1353.15637,1352.89526,2004.79211,2004.94055,2004.79211,2004.94055,14.15124,14.16787,85.90596,85.90596,100.22961,100.23689,336.84509,336.80859,466.84772,466.84772,461.05896,461.05896,177.66864,177.66878,14.58785,14.58785,0.00000,0.00000,0.00000,0.00000,0.00000,0.00000
19.70473,139.68353,143.96214,153.67564,176.84679,0.21994,407.27615,0.81556,0.14005,0.01661,0.00000,0.00000,0.00000,1.33465,-11.13536,66.96453,67.56307,0.94675,30.29241,-87.49748,2190.10449,2177.25439,0.00000,2186.49121,241.89537,584.46954,-32554.04102,73.33402,0.28302,-29.53207,0.62353,0.62353,520.57166,520.50623,969.18665,967.56451,1364.75342,1364.47705,2005.17407,2005.33093,2005.17407,2005.33093,14.24626,14.26422,86.00800,86.00800,100.25387,100.26157,346.97302,346.93347,467.90161,467.90161,463.41376,463.41376,177.68854,177.68871,14.62903,14.62903,0.00000,0.00000,0.00000,0.00000,0.00000,0.00000
19.70476,139.88202,144.16776,153.87704,177.07855,0.22025,378.12967,0.81756,0.14053,0.01698,0.00000,0.00000,0.00000,1.19491,-11.85716,66.87158,67.47018,0.93367,30.29243,-87.49741,2190.20044,2178.14380,0.00000,2186.60449,248.51996,584.48480,-32556.71680,73.38342,0.11255,-29.68764,0.62353,0.62353,523.24280,523.17407,973.84070,972.11511,1371.60510,1371.31409,2005.33105,2005.49573,2005.33105,2005.49573,14.32150,14.34077,86.06705,86.06705,100.26491,100.27301,354.01208,353.96976,468.90387,468.90387,465.60278,465.60278,177.70822,177.70844,14.66623,14.66623,0.00000,0.00000,0.00000,0.00000,0.00000,0.00000
19.70479,140.08948,144.38159,154.08611,177.31914,0.22058,348.08124,0.81972,0.14048,0.01733,0.00000,0.00000,0.00000,1.05417,-12.59794,66.76898,67.36763,0.92158,30.29246,-87.49734,2190.24609,2178.93579,0.00000,2186.66772,255.26781,584.48456,-32559.45508,73.43152,-0.06101,-29.85536,0.62353,0.62353,524.89825,524.82635,975.63623,973.81073,1375.90613,1375.60132,2005.35071,2005.52295,2005.35071,2005.52295,14.38591,14.40653,86.10280,86.10280,100.26771,100.27620,359.01306,358.96811,469.89844,469.89844,467.72610,467.72610,177.72839,177.72862,14.70108,14.70108,0.00000,0.00000,0.00000,0.00000,0.00000,0.00000
19.70481,140.29941,144.59976,154.29895,177.56407,0.22091,317.62689,0.82191,0.14018,0.01764,0.00000,0.00000,0.00000,0.91431,-13.34522,66.65836,67.25706,0.91035,30.29248,-87.49728,2190.23975,2180.07153,0.00000,2186.67847,262.03210,584.46826,-32562.21484,73.47705,-0.23506,-30.03287,0.62353,0.62353,525.91272,525.83783,976.06073,974.14679,1378.59509,1378.27710,2005.27991,2005.45923,2005.27991,2005.45923,14.44291,14.46488,86.12392,86.12392,100.26555,100.27441,362.43744,362.39011,470.87045,470.87045,469.75366,469.75366,177.74864,177.74890,14.73307,14.73307,0.00000,0.00000,0.00000,0.00000,0.00000,0.00000
19.70484,140.51086,144.81575,154.50926,177.80609,0.22124,287.63696,0.82399,0.13969,0.01796,0.00000,0.00000,0.00000,0.77874,-14.07750,66.54325,67.14201,0.89996,30.29251,-87.49721,2190.18359,2180.73755,0.00000,2186.63843,268.62753,584.43701,-32564.92188,73.51859,-0.40500,-30.21502,0.62353,0.62353,526.53436,526.45691,975.39795,973.39508,1380.29700,1379.96765,2005.16174,2005.34741,2005.16174,2005.34741,14.49332,14.51660,86.13609,86.13609,100.26028,100.26946,364.69965,364.65009,471.79526,471.79526,471.63882,471.63882,177.76840,177.76866,14.76159,14.76159,0.00000,0.00000,0.00000,0.00000,0.00000,0.00000
19.70486,140.72015,145.03241,154.71982,178.04839,0.22157,257.71924,0.82745,0.13924,0.01866,0.00000,0.00000,0.00000,0.64502,-14.79189,66.42256,67.02136,0.88931,30.29253,-87.49714,2190.07910,2181.33472,0.00000,2186.55054,275.14923,584.39117,-32567.61133,73.55679,-0.57258,-30.40387,0.62353,0.62353,526.93994,526.85999,974.50903,972.42883,1381.45996,1381.12000,2005.00281,2005.19397,2005.00281,2005.19397,14.53952,14.56407,86.14328,86.14328,100.25304,100.26252,366.21921,366.16763,472.68848,472.68848,473.41882,473.41882,177.78789,177.78816,14.78739,14.78739,0.00000,0.00000,0.00000,0.00000,0.00000,0.00000
19.70489,140.94110,145.26141,154.94193,178.30399,0.22192,226.29158,0.83006,0.13860,0.01880,0.00000,0.00000,0.00000,0.50528,-15.50095,66.28946,66.88831,0.87745,30.29255,-87.49707,2189.91870,2182.01123,0.00000,2186.40747,281.94757,584.32751,-32570.43359,73.59350,-0.74695,-30.60990,0.62353,0.62353,527.24036,527.15826,973.09399,970.92657,1382.38220,1382.03284,2004.80139,2004.99780,2004.80139,2004.99780,14.58350,14.60933,86.14776,86.14776,100.24329,100.25302,367.29279,367.23932,473.59802,473.59802,475.19064,475.19064,177.80815,177.80844,14.81197,14.81197,0.00000,0.00000,0.00000,0.00000,0.00000,0.00000
19.70492,141.16997,145.50291,155.17566,178.57298,0.22229,193.36815,0.83237,0.13798,0.01875,0.00000,0.00000,0.00000,0.35951,-16.19464,66.14307,66.74199,0.86496,30.29258,-87.49699,2189.69556,2182.64771,0.00000,2186.20850,289.01788,584.24414,-32573.38672,73.62831,-0.92870,-30.83374,0.62353,0.62353,527.46863,527.38477,971.78601,969.53381,1383.13281,1382.77502,2004.56519,2004.76660,2004.56519,2004.76660,14.62691,14.65406,86.15047,86.15047,100.23228,100.24226,368.04132,367.98602,474.52133,474.52133,476.94724,476.94724,177.82916,177.82947,14.83523,14.83523,0.00000,0.00000,0.00000,0.00000,0.00000,0.00000
19.70493,141.32875,145.66553,155.33281,178.75381,0.22254,171.31210,0.83373,0.13750,0.01867,0.00000,0.00000,0.00000,0.26223,-16.63264,66.04111,66.64006,0.85679,30.29260,-87.49695,2189.51538,2183.19727,0.00000,2186.04028,293.72656,584.17896,-32575.36523,73.64960,-1.05016,-30.98801,0.62353,0.62353,527.59308,527.50769,970.60657,968.29730,1383.56580,1383.20166,2004.41150,2004.61597,2004.41150,2004.61597,14.65458,14.68263,86.15160,86.15160,100.22454,100.23470,368.39777,368.34140,475.12372,475.12372,478.07022,478.07022,177.84311,177.84341,14.84951,14.84951,0.00000,0.00000,0.00000,0.00000,0.00000,0.00000
19.70495,141.50111,145.86003,155.52052,178.96982,0.22284,145.08296,0.83539,0.13707,0.01853,0.00000,0.00000,0.00000,0.14661,-17.12653,65.91573,66.51472,0.84703,30.29262,-87.49689,2189.26831,2183.64990,0.00000,2185.83032,299.29977,584.09131,-32577.72070,73.67308,-1.19419,-31.17560,0.62353,0.62353,527.72375,527.63733,969.82495,967.46222,1384.04065,1383.67200,2004.18909,2004.39636,2004.18909,2004.39636,14.68602,14.71505,86.15250,86.15250,100.21497,100.22526,368.72015,368.66254,475.82458,475.82458,479.35489,479.35489,177.85957,177.85989,14.86530,14.86530,0.00000,0.00000,0.00000,0.00000,0.00000,0.00000
19.70498,141.78760,146.14401,155.79404,179.28458,0.22327,107.01183,0.83724,0.13611,0.01751,0.00000,0.00000,0.00000,-0.01924,-17.79706,65.72875,66.32781,0.83421,30.29265,-87.49680,2188.84961,2184.30640,0.00000,2185.42041,307.33691,583.94586,-32581.14062,73.70304,-1.40344,-31.45622,0.62353,0.62353,527.89374,527.80627,966.93195,964.56097,1384.68579,1384.31226,2003.93616,2004.14453,2003.93616,2004.14453,14.72903,14.75943,86.15327,86.15327,100.20055,100.21098,369.05231,368.99323,476.81158,476.81158,481.12192,481.12192,177.88324,177.88358,14.88601,14.88601,0.00000,0.00000,0.00000,0.00000,0.00000,0.00000
19.70501,142.04523,146.40373,156.04333,179.57147,0.22367,72.49606,0.84113,0.13552,0.01759,0.00000,0.00000,0.00000,-0.16576,-18.36013,65.55423,66.15335,0.83176,30.29268,-87.49673,2188.41064,2183.85742,0.00000,2184.99292,314.57004,583.79584,-32584.24414,73.72665,-1.59216,-31.71786,0.62353,0.62353,528.01758,527.93073,965.41766,963.00275,1385.16528,1384.79395,2003.70911,2003.91602,2003.70911,2003.91602,14.76925,14.80056,86.15364,86.15364,100.18936,100.19974,369.26224,369.20230,477.67633,477.67633,482.62921,482.62921,177.90445,177.90479,14.90276,14.90276,0.00000,0.00000,0.00000,0.00000,0.00000,0.00000
19.70503,142.22035,146.60233,156.23315,179.78992,0.22397,46.38203,0.84642,0.13527,0.01781,0.00000,0.00000,0.00000,-0.27532,-18.75890,65.41868,66.01783,0.83800,30.29270,-87.49667,2188.03979,2183.44873,0.00000,2184.66748,320.01541,583.67047,-32586.59766,73.74235,-1.73176,-31.92071,0.62353,0.62353,528.10931,528.02301,964.82123,962.37445,1385.52881,1385.15979,2003.49866,2003.70410,2003.49866,2003.70410,14.79805,14.83003,86.15381,86.15381,100.18047,100.19078,369.38513,369.32495,478.31363,478.31363,483.71667,483.71667,177.92036,177.92070,14.91433,14.91433,0.00000,0.00000,0.00000,0.00000,0.00000,0.00000
19.70506,142.42896,146.82166,156.44235,180.03065,0.22430,17.77893,0.85087,0.13472,0.01800,0.00000,0.00000,0.00000,-0.39539,-19.17109,65.26654,65.86574,0.84157,30.29272,-87.49661,2187.59595,2182.44580,0.00000,2184.25171,325.96344,583.52173,-32589.18555,73.75744,-1.88229,-32.14768,0.62353,0.62353,528.22040,528.13477,962.91486,960.39722,1385.97595,1385.60962,2003.28735,2003.49219,2003.28735,2003.49219,14.82631,14.85903,86.15393,86.15393,100.16922,100.17946,369.49850,369.43823,478.99652,478.99652,484.85989,484.85989,177.93768,177.93802,14.92603,14.92603,0.00000,0.00000,0.00000,0.00000,0.00000,0.00000
19.70509,142.75627,147.15659,156.76114,180.39751,0.22481,-25.37941,0.85623,0.13397,0.01818,0.00000,0.00000,0.00000,-0.57521,-19.74923,65.02841,65.62769,0.84418,30.29276,-87.49651,2186.85400,2181.08057,0.00000,2183.53345,334.91968,583.27502,-32593.11719,73.77637,-2.10674,-32.49937,0.62353,0.62353,528.36786,528.28223,960.57861,957.97125,1386.56836,1386.20154,2003.00134,2003.20703,2003.00134,2003.20703,14.87047,14.90446,86.15403,86.15403,100.15437,100.16464,369.64407,369.58398,479.99890,479.99890,486.49557,486.49557,177.96365,177.96399,14.94193,14.94193,0.00000,0.00000,0.00000,0.00000,0.00000,0.00000
19.70511,142.96320,147.37537,156.96901,180.63672,0.22515,-53.21692,0.85973,0.13365,0.01817,0.00000,0.00000,0.00000,-0.68879,-20.09658,64.86842,65.46774,0.84639,30.29278,-87.49645,2186.32959,2180.09961,0.00000,2183.04053,340.69028,583.10181,-32595.67383,73.78623,-2.25020,-32.73206,0.62353,0.62353,528.45050,528.36432,959.86615,957.21667,1386.89868,1386.52966,2002.81409,2003.02039,2002.81409,2003.02039,14.90008,14.93495,86.15407,86.15407,100.14617,100.15649,369.72562,369.66556,480.62854,480.62854,487.49713,487.49713,177.98030,177.98064,14.95116,14.95116,0.00000,0.00000,0.00000,0.00000,0.00000,0.00000
19.70514,143.30287,147.72278,157.29839,181.01575,0.22568,-96.83776,0.86542,0.13286,0.01797,0.00000,0.00000,0.00000,-0.86137,-20.60364,64.60663,65.20602,0.85261,30.29282,-87.49636,2185.43457,2179.02148,0.00000,2182.16821,349.73233,582.80792,-32599.71484,73.79794,-2.47273,-33.10595,0.62353,0.62353,528.59790,528.51147,957.23700,954.50220,1387.49255,1387.12195,2002.53796,2002.74573,2002.53796,2002.74573,14.94184,14.97805,86.15410,86.15410,100.13124,100.14161,369.84036,369.78018,481.59073,481.59073,488.98959,488.98959,178.00627,178.00661,14.96425,14.96425,0.00000,0.00000,0.00000,0.00000,0.00000,0.00000
19.70517,143.62549,148.05170,157.61028,181.37468,0.22618,-137.59038,0.87023,0.13227,0.01749,0.00000,0.00000,0.00000,-1.01417,-21.04060,64.34919,64.94865,0.85719,30.29285,-87.49628,2184.51904,2177.72046,0.00000,2181.27051,358.18890,582.50879,-32603.53516,73.80463,-2.67886,-33.46560,0.62353,0.62353,528.71973,528.63306,955.50378,952.72107,1387.97766,1387.60596,2002.29663,2002.50452,2002.29663,2002.50452,14.98246,15.01993,86.15412,86.15412,100.11931,100.12971,369.94009,369.87973,482.46390,482.46390,490.30341,490.30341,178.03041,178.03076,14.97507,14.97507,0.00000,0.00000,0.00000,0.00000,0.00000,0.00000
19.70521,143.96089,148.38963,157.93004,181.74265,0.22670,-178.82199,0.87722,0.13159,0.01688,0.00000,0.00000,0.00000,-1.15874,-21.44946,64.07589,64.67542,0.86993,30.29289,-87.49619,2183.51294,2176.95312,0.00000,2180.26880,366.76309,582.18164,-32607.45117,73.80701,-2.88441,-33.84016,0.62353,0.62353,528.85089,528.76483,953.00427,950.17242,1388.50208,1388.13269,2002.06091,2002.26733,2002.06091,2002.26733,15.02088,15.05946,86.15412,86.15412,100.10632,100.11667,370.03467,369.97424,483.32404,483.32404,491.56042,491.56042,178.05478,178.05513,14.98483,14.98483,0.00000,0.00000,0.00000,0.00000,0.00000,0.00000
19.70524,144.27306,148.70950,158.23212,182.09027,0.22718,-217.24426,0.88544,0.13119,0.01628,0.00000,0.00000,0.00000,-1.28424,-21.80358,63.81005,64.40965,0.88780,30.29292,-87.49610,2182.50317,2175.90625,0.00000,2179.28149,374.78494,581.85449,-32611.15625,73.80480,-3.07168,-34.20002,0.62353,0.62353,528.95923,528.87427,951.50287,948.65942,1388.92957,1388.56458,2001.84741,2002.05066,2001.84741,2002.05066,15.05838,15.09790,86.15413,86.15413,100.09601,100.10624,370.11984,370.05960,484.10623,484.10623,492.67108,492.67108,178.07745,178.07780,14.99296,14.99296,0.00000,0.00000,0.00000,0.00000,0.00000,0.00000
19.70527,144.60068,149.04823,158.55136,182.45766,0.22770,-257.24341,0.89509,0.13070,0.01565,0.00000,0.00000,0.00000,-1.40664,-22.14674,63.52234,64.12199,0.91029,30.29296,-87.49602,2181.37573,2174.82886,0.00000,2178.18018,383.19055,581.49017,-32615.08008,73.79772,-3.26120,-34.58688,0.62353,0.62353,529.08038,528.99768,949.33789,946.47858,1389.40942,1389.05359,2001.62488,2001.82288,2001.62488,2001.82288,15.09513,15.13544,86.15413,86.15413,100.08437,100.09435,370.20517,370.14554,484.90356,484.90356,493.77206,493.77206,178.10107,178.10143,15.00057,15.00057,0.00000,0.00000,0.00000,0.00000,0.00000,0.00000
19.70531,144.92488,149.37730,158.86081,182.81375,0.22820,-295.35422,0.90463,0.13030,0.01507,0.00000,0.00000,0.00000,-1.51675,-22.45215,63.23827,63.83800,0.93350,30.29299,-87.49593,2180.22656,2173.53882,0.00000,2177.03711,391.27710,581.11993,-32618.89844,73.78606,-3.43642,-34.96846,0.62353,0.62353,529.18732,529.10699,947.51672,944.65686,1389.82629,1389.48071,2001.43298,2001.62488,2001.43298,2001.62488,15.13147,15.17241,86.15414,86.15414,100.07456,100.08426,370.28610,370.22754,485.64944,485.64944,494.77316,494.77316,178.12367,178.12402,15.00710,15.00710,0.00000,0.00000,0.00000,0.00000,0.00000,0.00000
19.70533,145.13675,149.60603,159.07561,183.06094,0.22855,-321.38565,0.91078,0.13015,0.01473,0.00000,0.00000,0.00000,-1.58874,-22.64941,63.03872,63.63848,0.95012,30.29301,-87.49587,2179.39795,2172.84839,0.00000,2176.26196,396.85660,580.85339,-32621.55859,73.77533,-3.55339,-35.23683,0.62353,0.62353,529.25543,529.17694,946.81293,943.96954,1390.09106,1389.75330,2001.28931,2001.47583,2001.28931,2001.47583,15.15682,15.19815,86.15414,86.15414,100.06837,100.07786,370.34021,370.28253,486.15250,486.15250,495.43277,495.43277,178.13919,178.13954,15.01121,15.01121,0.00000,0.00000,0.00000,0.00000,0.00000,0.00000
19.70536,145.48738,149.96188,159.40907,183.44469,0.22909,-361.08475,0.92084,0.12967,0.01423,0.00000,0.00000,0.00000,-1.69400,-22.93373,62.72567,63.32550,0.97576,30.29305,-87.49578,2178.06250,2171.45898,0.00000,2174.93384,405.47342,580.42468,-32625.70703,73.75430,-3.72755,-35.65916,0.62353,0.62353,529.37183,529.29700,944.41968,941.57190,1390.54407,1390.22156,2001.09705,2001.27551,2001.09705,2001.27551,15.19335,15.23513,86.15414,86.15414,100.05779,100.06684,370.42197,370.36606,486.91125,486.91125,496.40387,496.40387,178.16304,178.16339,15.01696,15.01696,0.00000,0.00000,0.00000,0.00000,0.00000,0.00000
19.70539,145.81761,150.29042,159.71623,183.79817,0.22959,-396.82779,0.93029,0.12928,0.01385,0.00000,0.00000,0.00000,-1.78438,-23.17433,62.43435,63.03425,0.99869,30.29309,-87.49570,2176.78369,2170.23169,0.00000,2173.62988,413.36804,580.01465,-32629.55273,73.73017,-3.87994,-36.05436,0.62353,0.62353,529.46790,529.39630,942.46936,939.62939,1390.91113,1390.60278,2000.94299,2001.11365,2000.94299,2001.11365,15.22806,15.27019,86.15414,86.15414,100.04953,100.05819,370.49506,370.44107,487.58722,487.58722,497.24454,497.24454,178.18477,178.18512,15.02166,15.02166,0.00000,0.00000,0.00000,0.00000,0.00000,0.00000
19.70542,146.11783,150.58871,159.99460,184.11850,0.23005,-428.48715,0.93869,0.12895,0.01359,0.00000,0.00000,0.00000,-1.86113,-23.37612,62.16818,62.76814,1.01871,30.29312,-87.49563,2175.58643,2169.09888,0.00000,2172.40991,420.49008,579.63129,-32633.06055,73.70444,-4.01148,-36.41738,0.62353,0.62353,529.55035,529.48187,940.86194,938.02777,1391.22327,1390.92810,2000.81055,2000.97400,2000.81055,2000.97400,15.25957,15.30196,86.15414,86.15414,100.04266,100.05095,370.55811,370.50601,488.18167,488.18167,497.96475,497.96475,178.20427,178.20462,15.02547,15.02547,0.00000,0.00000,0.00000,0.00000,0.00000,0.00000
19.70544,146.40767,150.88744,160.27293,184.43881,0.23050,-459.42224,0.94668,0.12865,0.01340,0.00000,0.00000,0.00000,-1.93311,-23.56325,61.90007,62.50010,1.03816,30.29315,-87.49555,2174.35352,2167.64526,0.00000,2171.19897,427.58322,579.23700,-32636.58984,73.67513,-4.13695,-36.78471,0.62353,0.62353,529.63245,529.56702,939.44031,936.62085,1391.53418,1391.25195,2000.67041,2000.82642,2000.67041,2000.82642,15.29030,15.33291,86.15415,86.15415,100.03581,100.04374,370.61853,370.56845,488.75986,488.75986,498.64847,498.64847,178.22360,178.22395,15.02891,15.02891,0.00000,0.00000,0.00000,0.00000,0.00000,0.00000
19.70547,146.69254,151.17703,160.54224,184.74872,0.23095,-488.64832,0.95444,0.12833,0.01326,0.00000,0.00000,0.00000,-1.99832,-23.73141,61.63868,62.23875,1.05643,30.29318,-87.49548,2173.12842,2166.55664,0.00000,2169.97314,434.42422,578.84558,-32640.02734,73.64331,-4.25271,-37.14426,0.62353,0.62353,529.71045,529.64795,937.90295,935.09021,1391.82776,1391.55835,2000.54590,2000.69495,2000.54590,2000.69495,15.31967,15.36246,86.15415,86.15415,100.02944,100.03702,370.67599,370.62793,489.30466,489.30466,499.27747,499.27747,178.24216,178.24251,15.03193,15.03193,0.00000,0.00000,0.00000,0.00000,0.00000,0.00000
19.70549,146.89038,151.39717,160.74683,184.98415,0.23128,-510.37103,0.95983,0.12817,0.01319,0.00000,0.00000,0.00000,-2.04485,-23.85081,61.43881,62.03893,1.07035,30.29321,-87.49543,2172.17749,2165.63379,0.00000,2169.10352,439.60416,578.54193,-32642.65625,73.61703,-4.33700,-37.41976,0.62353,0.62353,529.76874,529.70837,937.17249,934.37054,1392.04834,1391.78784,2000.43311,2000.57666,2000.43311,2000.57666,15.34151,15.38444,86.15416,86.15416,100.02459,100.03191,370.71829,370.67172,489.70926,489.70926,499.73532,499.73532,178.25615,178.25650,15.03403,15.03403,0.00000,0.00000,0.00000,0.00000,0.00000,0.00000
19.70552,147.23508,151.74721,161.07135,185.35762,0.23181,-543.98279,0.96736,0.12771,0.01352,0.00000,0.00000,0.00000,-2.11334,-24.00864,61.11889,61.71907,1.09320,30.29324,-87.49534,2170.63354,2164.00024,0.00000,2167.56665,447.80145,578.04919,-32646.85742,73.57167,-4.46518,-37.86062,0.62353,0.62353,529.86877,529.81177,934.86963,932.06390,1392.42688,1392.18079,2000.28491,2000.42090,2000.28491,2000.42090,15.37435,15.41746,86.15416,86.15416,100.01628,100.02320,370.78558,370.74139,490.33566,490.33566,500.42838,500.42838,178.27818,178.27853,15.03708,15.03708,0.00000,0.00000,0.00000,0.00000,0.00000,0.00000
19.70555,147.56140,152.07674,161.37624,185.70847,0.23232,-574.59235,0.97558,0.12739,0.01311,0.00000,0.00000,0.00000,-2.17177,-24.08685,60.81456,61.41481,1.11598,30.29328,-87.49526,2169.14551,2162.66260,0.00000,2166.06738,455.48468,577.57471,-32650.84180,73.52493,-4.57916,-38.27909,0.62353,0.62353,529.95227,529.89819,933.35944,930.55725,1392.73486,1392.50122,2000.15601,2000.28540,2000.15601,2000.28540,15.40659,15.44988,86.15417,86.15417,100.00993,100.01649,370.84851,370.80655,490.90741,490.90741,501.04382,501.04382,178.29871,178.29907,15.03964,15.03964,0.00000,0.00000,0.00000,0.00000,0.00000,0.00000
19.70558,147.87912,152.40663,161.68102,186.05920,0.23282,-604.23773,0.98393,0.12709,0.01251,0.00000,0.00000,0.00000,-2.22488,-24.09402,60.50648,61.10678,1.13932,30.29331,-87.49518,2167.62329,2161.22559,0.00000,2164.57861,463.15024,577.08960,-32654.86328,73.47436,-4.68588,-38.70131,0.62353,0.62353,530.03607,529.98438,931.91998,929.11780,1393.04541,1392.82239,2000.02014,2000.14331,2000.02014,2000.14331,15.43788,15.48138,86.15417,86.15417,100.00343,100.00970,370.90970,370.86981,491.46359,491.46359,501.62704,501.62704,178.31911,178.31947,15.04193,15.04193,0.00000,0.00000,0.00000,0.00000,0.00000,0.00000
19.70561,148.20926,152.74754,161.99539,186.42097,0.23334,-633.79095,0.99283,0.12674,0.01169,0.00000,0.00000,0.00000,-2.27437,-24.03017,60.18473,60.78510,1.16347,30.29335,-87.49510,2166.01831,2159.61523,0.00000,2162.99902,471.04651,576.57837,-32659.05664,73.41846,-4.78785,-39.14033,0.62353,0.62353,530.12421,530.07501,930.15558,927.35516,1393.37207,1393.15967,1999.88684,2000.00415,1999.88684,2000.00415,15.46922,15.51293,86.15417,86.15417,99.99663,100.00260,370.97198,370.93408,492.02209,492.02209,502.19742,502.19742,178.34000,178.34036,15.04405,15.04405,0.00000,0.00000,0.00000,0.00000,0.00000,0.00000
19.70564,148.55264,153.09419,162.31448,186.78818,0.23387,-662.67651,1.00220,0.12636,0.01064,0.00000,0.00000,0.00000,-2.31909,-23.89677,59.85442,60.45485,1.18771,30.29339,-87.49502,2164.35522,2157.82324,0.00000,2161.32959,479.05569,576.04883,-32663.36133,73.35818,-4.88237,-39.58899,0.62353,0.62353,530.21222,530.16571,928.13245,925.34180,1393.69580,1393.49487,1999.76562,1999.87683,1999.76562,1999.87683,15.50075,15.54461,86.15417,86.15417,99.99000,99.99565,371.03445,370.99838,492.57401,492.57401,502.74597,502.74597,178.36105,178.36142,15.04599,15.04599,0.00000,0.00000,0.00000,0.00000,0.00000,0.00000
19.70565,148.78935,162.44766,162.44768,186.94145,0.24813,-676.20856,1.27407,0.07154,-0.05957,0.00000,0.00000,0.00000,-2.33935,-23.81522,59.69622,60.29670,1.64937,30.29341,-87.49498,2163.54224,2157.11328,0.00000,2160.23950,482.92838,575.78986,-32665.46094,73.30638,-4.88759,-39.82816,0.62353,0.62353,530.14325,530.09845,650.21313,647.46991,1393.56384,1393.37036,2003.08972,2003.20862,2003.08972,2003.20862,15.51525,15.55909,86.15418,86.15418,99.98645,99.99190,371.06439,371.02924,492.83554,492.83554,503.00043,503.00043,178.37119,178.37155,15.04685,15.04685,0.00000,0.00000,0.00000,0.00000,0.00000,0.00000
19.70567,157.80025,162.61005,162.61006,187.12833,0.24837,-693.29285,1.24107,0.10481,-0.07868,0.00000,0.00000,0.00000,-2.38299,-23.75470,59.55434,60.15485,1.49439,30.29344,-87.49492,2162.42944,2156.16040,0.00000,2159.25806,488.30389,575.43530,-32668.40625,73.18285,-4.80515,-40.23862,0.62353,0.62353,527.22284,527.19531,834.61798,835.85211,1380.63684,1380.52026,2008.09265,2008.08997,2008.09265,2008.08997,16.13433,16.17520,86.15419,86.15419,100.36668,100.36992,370.78094,370.74646,493.19537,493.19537,503.34711,503.34711,178.38312,178.38347,15.04796,15.04796,0.00000,0.00000,0.00000,0.00000,0.00000,0.00000
19.70570,158.02525,162.83607,162.83611,187.38846,0.24872,-711.19623,1.17996,0.10939,-0.06303,0.00000,0.00000,0.00000,-2.42059,-23.67189,59.49183,60.09239,1.31200,30.29347,-87.49485,2161.09448,2154.66333,0.00000,2157.99951,494.84000,575.00928,-32672.03125,73.05652,-4.74823,-40.71405,0.62353,0.62353,526.79022,526.85803,868.47070,870.86279,1378.76941,1379.05554,2008.29700,2008.06079,2008.29700,2008.06079,16.28629,16.31008,86.15420,86.15420,100.42015,100.41224,370.04315,370.02390,493.62515,493.62515,503.75311,503.75311,178.39742,178.39777,15.04922,15.04922,0.00000,0.00000,0.00000,0.00000,0.00000,0.00000
19.70572,158.29091,163.08958,163.08960,187.68018,0.24910,-728.02686,1.13344,0.10832,-0.04254,0.00000,0.00000,0.00000,-2.39911,-23.51093,59.49938,60.10000,1.17527,30.29350,-87.49478,2159.65674,2153.29297,0.00000,2156.57959,501.92410,574.55011,-32676.01562,72.93728,-4.72396,-41.19634,0.62353,0.62353,527.00104,527.15662,870.18475,872.66907,1379.61499,1380.27246,2007.78479,2007.37000,2007.78479,2007.37000,16.33135,16.33824,86.15421,86.15421,100.39877,100.38056,369.53284,369.55139,494.08121,494.08121,504.17413,504.17413,178.41284,178.41319,15.05046,15.05046,0.00000,0.00000,0.00000,0.00000,0.00000,0.00000
19.70575,158.57248,163.36826,163.36826,188.00084,0.24953,-744.08478,1.11225,0.10766,-0.01924,0.00000,0.00000,0.00000,-2.29882,-23.24091,59.53878,60.13946,1.10813,30.29354,-87.49470,2158.10620,2151.48779,0.00000,2155.06567,509.57916,574.05450,-32680.37891,72.82501,-4.71426,-41.68536,0.62353,0.62353,527.28436,527.49158,869.86774,871.86725,1380.76477,1381.64246,2007.16492,2006.65930,2007.16492,2006.65930,16.36738,16.36269,86.15421,86.15421,100.36909,100.34476,369.28833,369.35358,494.56268,494.56268,504.60773,504.60773,178.42943,178.42981,15.05167,15.05167,0.00000,0.00000,0.00000,0.00000,0.00000,0.00000
19.70578,158.85927,163.65306,163.65308,188.32860,0.24996,-758.50616,1.11233,0.10722,0.00330,0.00000,0.00000,0.00000,-2.14692,-22.87033,59.56543,60.16617,1.09932,30.29358,-87.49462,2156.53198,2149.88867,0.00000,2153.47583,517.36505,573.55109,-32684.87305,72.72430,-4.69806,-42.15602,0.62353,0.62353,527.58997,527.80621,869.06897,870.09045,1382.00928,1382.92627,2006.53711,2006.04187,2006.53711,2006.04187,16.39771,16.38863,86.15421,86.15421,100.33684,100.31139,369.23950,369.34244,495.04041,495.04041,505.02673,505.02673,178.44624,178.44664,15.05278,15.05278,0.00000,0.00000,0.00000,0.00000,0.00000,0.00000
19.70582,159.13657,163.93869,163.93871,188.65730,0.25040,-771.05786,1.12197,0.10689,0.02141,0.00000,0.00000,0.00000,-1.98346,-22.41134,59.54439,60.14520,1.11837,30.29362,-87.49454,2154.95288,2148.55933,0.00000,2151.90601,525.21924,573.04559,-32689.46289,72.63250,-4.66288,-42.60948,0.62353,0.62353,527.89136,528.07800,869.17206,868.98999,1383.23706,1384.03003,2005.88660,2005.48389,2005.88660,2005.48389,16.42607,16.41957,86.15422,86.15422,100.30503,100.28300,369.30737,369.42944,495.51025,495.51025,505.42792,505.42792,178.46313,178.46356,15.05379,15.05379,0.00000,0.00000,0.00000,0.00000,0.00000,0.00000
19.70585,159.41339,164.22432,164.22432,188.98598,0.25083,-781.51270,1.13395,0.10647,0.03334,0.00000,0.00000,0.00000,-1.83641,-21.87527,59.45062,60.05149,1.14502,30.29367,-87.49445,2153.37109,2147.08887,0.00000,2150.31299,533.17188,572.53864,-32694.16406,72.54617,-4.60591,-43.05153,0.62353,0.62353,528.20325,528.33344,868.81152,867.42151,1384.51208,1385.06628,2005.23621,2004.97827,2005.23621,2004.97827,16.44984,16.45132,86.15422,86.15422,100.27187,100.25645,369.44229,369.56213,495.97391,495.97391,505.81326,505.81326,178.48018,178.48062,15.05470,15.05470,0.00000,0.00000,0.00000,0.00000,0.00000,0.00000
19.70588,159.68159,164.50066,164.50066,189.30399,0.25125,-789.36786,1.14430,0.10620,0.03840,0.00000,0.00000,0.00000,-1.72221,-21.29729,59.27703,59.87797,1.16951,30.29371,-87.49437,2151.84131,2145.40161,0.00000,2148.77271,540.97839,572.04785,-32698.83008,72.46529,-4.53179,-43.47276,0.62353,0.62353,528.49506,528.55823,868.52142,866.10889,1385.70459,1385.97424,2004.62732,2004.52979,2004.62732,2004.52979,16.47226,16.48447,86.15423,86.15423,100.24092,100.23341,369.61035,369.70969,496.41745,496.41745,506.17200,506.17200,178.49684,178.49728,15.05550,15.05550,0.00000,0.00000,0.00000,0.00000,0.00000,0.00000
19.70591,159.95020,164.77733,164.77733,189.62238,0.25167,-794.81500,1.15310,0.10611,0.03730,0.00000,0.00000,0.00000,-1.63658,-20.67323,59.01834,59.61935,1.19145,30.29375,-87.49429,2150.31860,2143.84717,0.00000,2147.25073,548.90039,571.55847,-32703.61719,72.38474,-4.44234,-43.89148,0.62353,0.62353,528.77173,528.76855,868.09857,864.94147,1386.83594,1386.82214,2004.04736,2004.10339,2004.04736,2004.10339,16.49491,16.51873,86.15423,86.15423,100.21159,100.21198,369.79581,369.86212,496.85608,496.85608,506.51736,506.51736,178.51367,178.51411,15.05623,15.05623,0.00000,0.00000,0.00000,0.00000,0.00000,0.00000
19.70595,160.22397,165.05550,165.05550,189.94249,0.25210,-797.73926,1.16114,0.10613,0.03108,0.00000,0.00000,0.00000,-1.57271,-20.01241,58.68184,59.28291,1.21174,30.29380,-87.49421,2148.80371,2142.53418,0.00000,2145.73267,556.96344,571.07080,-32708.54102,72.30216,-4.33976,-44.31245,0.62353,0.62353,529.03369,528.97308,867.29181,863.73462,1387.90491,1387.64636,2003.51123,2003.69202,2003.51123,2003.69202,16.51827,16.55289,86.15424,86.15424,100.18400,100.19121,369.98654,370.01401,497.29102,497.29102,506.85056,506.85056,178.53073,178.53116,15.05690,15.05690,0.00000,0.00000,0.00000,0.00000,0.00000,0.00000
19.70598,160.49649,165.33069,165.33070,190.25919,0.25252,-798.06000,1.16869,0.10623,0.02153,0.00000,0.00000,0.00000,-1.52119,-19.33504,58.29257,58.89370,1.23072,30.29384,-87.49413,2147.32617,2141.14697,0.00000,2144.25269,565.03625,570.59418,-32713.52539,72.21712,-4.22729,-44.73154,0.62353,0.62353,529.26923,529.16943,866.42786,862.81396,1388.86353,1388.43652,2003.03101,2003.29065,2003.03101,2003.29065,16.54345,16.58631,86.15424,86.15424,100.15943,100.17135,370.17117,370.16113,497.71506,497.71506,507.16656,507.16656,178.54773,178.54814,15.05749,15.05749,0.00000,0.00000,0.00000,0.00000,0.00000,0.00000
19.70601,160.77098,165.60406,165.60406,190.57376,0.25293,-795.82886,1.17634,0.10623,0.01020,0.00000,0.00000,0.00000,-1.47070,-18.64282,57.87420,58.47541,1.24874,30.29389,-87.49403,2145.88232,2139.66919,0.00000,2142.78320,573.15869,570.12738,-32718.59180,72.12808,-4.10511,-45.15220,0.62353,0.62353,529.48676,529.36786,865.10779,861.73993,1389.74707,1389.23755,2002.60767,2002.89648,2002.60767,2002.89648,16.56955,16.61741,86.15424,86.15424,100.13690,100.15113,370.34552,370.30484,498.13049,498.13049,507.46768,507.46768,178.56477,178.56516,15.05803,15.05803,0.00000,0.00000,0.00000,0.00000,0.00000,0.00000
19.70605,161.03371,165.86729,165.86729,190.87669,0.25333,-791.23761,1.18344,0.10618,-0.00028,0.00000,0.00000,0.00000,-1.41378,-17.95820,57.46472,58.06599,1.26495,30.29393,-87.49396,2144.51636,2138.33594,0.00000,2141.39893,581.09637,569.68463,-32723.59375,72.03763,-3.97690,-45.56194,0.62353,0.62353,529.67389,529.55627,864.06085,861.14972,1390.50330,1389.99829,2002.23645,2002.50891,2002.23645,2002.50891,16.59729,16.64656,86.15425,86.15425,100.11781,100.13193,370.50275,370.44238,498.52591,498.52591,507.74643,507.74643,178.58136,178.58170,15.05849,15.05849,0.00000,0.00000,0.00000,0.00000,0.00000,0.00000
19.70607,161.20595,166.04614,166.04616,191.08250,0.25361,-786.73926,1.18800,0.10612,-0.00645,0.00000,0.00000,0.00000,-1.36670,-17.48072,57.19366,57.79498,1.27539,30.29396,-87.49390,2143.60327,2137.34033,0.00000,2140.49634,586.56165,569.38800,-32727.06836,71.97372,-3.88349,-45.84254,0.62353,0.62353,529.79150,529.68408,863.48566,860.94971,1390.97803,1390.51648,2001.99207,2002.23193,2001.99207,2002.23193,16.61706,16.66554,86.15425,86.15425,100.10587,100.11878,370.60312,370.53580,498.79227,498.79227,507.92993,507.92993,178.59273,178.59305,15.05878,15.05878,0.00000,0.00000,0.00000,0.00000,0.00000,0.00000
19.70609,161.38524,166.22969,166.22969,191.29373,0.25388,-780.93347,1.19286,0.10596,-0.01194,0.00000,0.00000,0.00000,-1.30916,-16.97762,56.92812,57.52948,1.28562,30.29399,-87.49384,2142.67993,2136.30664,0.00000,2139.57202,592.24054,569.08734,-32730.70703,71.90636,-3.78165,-46.13189,0.62353,0.62353,529.91217,529.82153,862.54163,860.41858,1391.46509,1391.07568,2001.75500,2001.94800,2001.75500,2001.94800,16.63692,16.68328,86.15425,86.15425,100.09361,100.10451,370.70096,370.63190,499.06406,499.06406,508.11368,508.11368,178.60451,178.60481,15.05907,15.05907,0.00000,0.00000,0.00000,0.00000,0.00000,0.00000
19.70612,161.65421,166.50055,166.50055,191.60542,0.25430,-770.05371,1.20011,0.10570,-0.01772,0.00000,0.00000,0.00000,-1.20496,-16.20700,56.56876,57.17019,1.29944,30.29404,-87.49375,2141.34448,2135.21533,0.00000,2138.21216,600.76770,568.65125,-32736.21680,71.80473,-3.61876,-46.55980,0.62353,0.62353,530.07910,530.02228,861.25385,859.72821,1392.13647,1391.89172,2001.43091,2001.53870,2001.43091,2001.53870,16.66758,16.70886,86.15426,86.15426,100.07687,100.08372,370.83820,370.77603,499.46280,499.46280,508.37671,508.37671,178.62213,178.62241,15.05945,15.05945,0.00000,0.00000,0.00000,0.00000,0.00000,0.00000
19.70615,161.90909,166.75723,166.75723,191.90080,0.25469,-757.04028,1.20677,0.10546,-0.02035,0.00000,0.00000,0.00000,-1.08391,-15.44008,56.27070,56.87220,1.31108,30.29409,-87.49367,2140.11353,2134.08984,0.00000,2136.94775,609.02692,568.24762,-32741.60742,71.70775,-3.44881,-46.96350,0.62353,0.62353,530.22900,530.20837,860.11926,859.09235,1392.73816,1392.64929,2001.13928,2001.16064,2001.13928,2001.16064,16.69748,16.73265,86.15426,86.15426,100.06192,100.06441,370.96033,370.91327,499.83844,499.83844,508.61740,508.61740,178.63910,178.63937,15.05978,15.05978,0.00000,0.00000,0.00000,0.00000,0.00000,0.00000
19.70619,162.15718,167.00481,167.00479,192.18568,0.25507,-741.82458,1.21323,0.10521,-0.02040,0.00000,0.00000,0.00000,-0.94676,-14.65940,56.02406,56.62563,1.32150,30.29414,-87.49358,2138.96436,2133.41235,0.00000,2135.76074,617.17389,567.86896,-32746.97656,71.61570,-3.26886,-47.34808,0.62353,0.62353,530.37341,530.38684,858.86731,858.21289,1393.31836,1393.37610,2000.86353,2000.80750,2000.86353,2000.80750,16.72588,16.75486,86.15427,86.15427,100.04749,100.04587,371.07196,371.04446,500.19901,500.19901,508.84201,508.84201,178.65576,178.65604,15.06007,15.06007,0.00000,0.00000,0.00000,0.00000,0.00000,0.00000
19.70622,162.38814,167.23712,167.23714,192.45306,0.25542,-724.96313,1.21914,0.10505,-0.01867,0.00000,0.00000,0.00000,-0.80150,-13.88527,55.82568,56.42731,1.33051,30.29419,-87.49350,2137.92554,2132.89453,0.00000,2134.69312,624.99908,567.52490,-32752.17969,71.53241,-3.08401,-47.70210,0.62353,0.62353,530.50311,530.54346,858.00867,857.57184,1393.83960,1394.01392,2000.60400,2000.48840,2000.60400,2000.48840,16.75307,16.77671,86.15427,86.15427,100.03452,100.02963,371.17340,371.16605,500.53625,500.53625,509.04636,509.04636,178.67171,178.67197,15.06032,15.06032,0.00000,0.00000,0.00000,0.00000,0.00000,0.00000
19.70625,162.61238,167.46371,167.46371,192.71381,0.25576,-705.92596,1.22488,0.10486,-0.01598,0.00000,0.00000,0.00000,-0.64691,-13.08649,55.65748,56.25917,1.33819,30.29424,-87.49342,2136.95703,2132.34839,0.00000,2133.69775,632.81409,567.20190,-32757.41992,71.45551,-2.88768,-48.03881,0.62353,0.62353,530.63275,530.69287,857.04987,856.71338,1394.36340,1394.62305,2000.34558,2000.18823,2000.34558,2000.18823,16.77857,16.79791,86.15427,86.15427,100.02139,100.01410,371.26978,371.28110,500.86438,500.86438,509.23987,509.23987,178.68756,178.68781,15.06054,15.06054,0.00000,0.00000,0.00000,0.00000,0.00000,0.00000
19.70628,162.82677,167.67802,167.67802,192.96043,0.25609,-685.33746,1.22986,0.10468,-0.01306,0.00000,0.00000,0.00000,-0.49178,-12.28818,55.51458,56.11634,1.34346,30.29428,-87.49334,2136.08643,2131.92383,0.00000,2132.79492,640.39594,566.90948,-32762.54297,71.38778,-2.68634,-48.34805,0.62353,0.62353,530.75464,530.82660,856.23218,855.90088,1394.85669,1395.16760,2000.10095,1999.92078,2000.10095,1999.92078,16.80253,16.81883,86.15427,86.15427,100.00898,100.00025,371.36047,371.38696,501.17456,501.17456,509.41797,509.41797,178.70288,178.70309,15.06073,15.06073,0.00000,0.00000,0.00000,0.00000,0.00000,0.00000
19.70631,163.02971,167.88382,167.88382,193.19725,0.25640,-663.01428,1.23374,0.10449,-0.01046,0.00000,0.00000,0.00000,-0.33689,-11.48025,55.38598,55.98780,1.34624,30.29433,-87.49326,2135.29883,2131.10718,0.00000,2131.98853,647.86804,566.64264,-32767.62695,71.32816,-2.47850,-48.63530,0.62353,0.62353,530.87079,530.94769,855.67188,855.28351,1395.32776,1395.65991,1999.85718,1999.66956,1999.85718,1999.66956,16.82543,16.83987,86.15427,86.15427,99.99710,99.98778,371.44739,371.48508,501.47263,501.47263,509.58469,509.58469,178.71790,178.71811,15.06090,15.06090,0.00000,0.00000,0.00000,0.00000,0.00000,0.00000
19.70634,163.23004,168.08527,168.08527,193.42908,0.25671,-638.55035,1.23705,0.10423,-0.00848,0.00000,0.00000,0.00000,-0.18087,-10.64771,55.26294,55.86482,1.34668,30.29437,-87.49318,2134.58057,2130.19409,0.00000,2131.24170,655.38666,566.39648,-32772.77344,71.27547,-2.26111,-48.90652,0.62353,0.62353,530.98816,531.06470,854.87616,854.41217,1395.80688,1396.13782,1999.61792,1999.43433,1999.61792,1999.43433,16.84682,16.86032,86.15427,86.15427,99.98489,99.97559,371.53268,371.57755,501.76505,501.76505,509.74405,509.74405,178.73294,178.73315,15.06106,15.06106,0.00000,0.00000,0.00000,0.00000,0.00000,0.00000
19.70637,163.42218,168.27850,168.27852,193.65147,0.25701,-612.46967,1.23946,0.10393,-0.00737,0.00000,0.00000,0.00000,-0.02799,-9.80967,55.14384,55.74578,1.34462,30.29442,-87.49310,2133.94678,2129.72290,0.00000,2130.57788,662.80890,566.17621,-32777.88672,71.23071,-2.03953,-49.15672,0.62353,0.62353,531.10034,531.17303,854.13147,853.58911,1396.26599,1396.58057,1999.38782,1999.21509,1999.38782,1999.21509,16.86717,16.88040,86.15427,86.15427,99.97312,99.96427,371.61490,371.66318,502.04645,502.04645,509.89349,509.89349,178.74774,178.74794,15.06119,15.06119,0.00000,0.00000,0.00000,0.00000,0.00000,0.00000
19.70640,163.61014,168.46941,168.46941,193.87114,0.25730,-584.03430,1.24096,0.10362,-0.00715,0.00000,0.00000,0.00000,0.12593,-8.94248,55.02314,55.62515,1.34016,30.29447,-87.49303,2133.38110,2129.48096,0.00000,2129.99023,670.36346,565.97614,-32783.12109,71.19239,-1.80829,-49.39375,0.62353,0.62353,531.21057,531.27753,853.45557,852.85907,1396.71863,1397.00879,1999.15515,1998.99658,1999.15515,1998.99658,16.88714,16.90051,86.15428,86.15428,99.96146,99.95329,371.69623,371.74500,502.32562,502.32562,510.03796,510.03796,178.76274,178.76294,15.06132,15.06132,0.00000,0.00000,0.00000,0.00000,0.00000,0.00000
19.70643,163.80026,168.66519,168.66521,194.09647,0.25760,-551.95166,1.24168,0.10326,-0.00782,0.00000,0.00000,0.00000,0.28710,-8.01021,54.89598,55.49805,1.33306,30.29452,-87.49294,2132.87207,2128.78296,0.00000,2129.46313,678.36450,565.79156,-32788.69141,71.15960,-1.55851,-49.62581,0.62353,0.62353,531.32214,531.38306,852.78223,852.16803,1397.17969,1397.44348,1998.91223,1998.76807,1998.91223,1998.76807,16.90754,16.92115,86.15428,86.15428,99.94947,99.94205,371.77966,371.82678,502.61356,502.61356,510.18304,510.18304,178.77856,178.77873,15.06144,15.06144,0.00000,0.00000,0.00000,0.00000,0.00000,0.00000
19.70645,163.92845,168.79848,168.79848,194.24983,0.25780,-528.32916,1.24165,0.10300,-0.00870,0.00000,0.00000,0.00000,0.39891,-7.34979,54.80838,55.41050,1.32654,30.29455,-87.49288,2132.57178,2128.45093,0.00000,2129.14917,683.97107,565.67920,-32792.60938,71.14133,-1.38119,-49.77695,0.62353,0.62353,531.39581,531.45331,852.38898,851.78540,1397.48474,1397.73364,1998.74731,1998.61084,1998.74731,1998.61084,16.92170,16.93538,86.15428,86.15428,99.94151,99.93450,371.83646,371.88174,502.81070,502.81070,510.28003,510.28003,178.78960,178.78976,15.06151,15.06151,0.00000,0.00000,0.00000,0.00000,0.00000,0.00000
19.70648,164.12373,168.99303,168.99303,194.47371,0.25810,-491.06174,1.24105,0.10251,-0.01062,0.00000,0.00000,0.00000,0.56546,-6.34641,54.68165,55.28384,1.31403,30.29461,-87.49280,2132.20654,2127.97388,0.00000,2128.74512,692.41888,565.53650,-32798.53906,71.12111,-1.11145,-49.98685,0.62353,0.62353,531.50598,531.55975,851.36993,850.84558,1397.94214,1398.17517,1998.52258,1998.39233,1998.52258,1998.39233,16.94187,16.95543,86.15429,86.15429,99.92952,99.92296,371.91879,371.96106,503.10059,503.10059,510.41919,510.41919,178.80615,178.80630,15.06162,15.06162,0.00000,0.00000,0.00000,0.00000,0.00000,0.00000
19.70651,164.30850,169.17737,169.17735,194.68582,0.25838,-452.53287,1.23925,0.10202,-0.01273,0.00000,0.00000,0.00000,0.72716,-5.35058,54.56700,55.16926,1.29862,30.29466,-87.49271,2131.94995,2127.61279,0.00000,2128.45264,700.74023,565.42731,-32804.40234,71.10999,-0.84429,-50.17256,0.62353,0.62353,531.60394,531.65710,850.58130,850.17212,1398.35059,1398.58154,1998.31335,1998.18188,1998.31335,1998.18188,16.96200,16.97488,86.15429,86.15429,99.91873,99.91223,371.99561,372.03552,503.37784,503.37784,510.54846,510.54846,178.82239,178.82253,15.06171,15.06171,0.00000,0.00000,0.00000,0.00000,0.00000,0.00000
19.70655,164.47575,169.34288,169.34288,194.87631,0.25863,-415.09183,1.23661,0.10154,-0.01466,0.00000,0.00000,0.00000,0.87583,-4.41629,54.47289,55.07522,1.28165,30.29471,-87.49263,2131.80273,2127.71680,0.00000,2128.27197,708.50867,565.35321,-32809.89453,71.10780,-0.59489,-50.32681,0.62353,0.62353,531.68781,531.74323,849.93890,849.66779,1398.70178,1398.94250,1998.13062,1997.99194,1998.13062,1997.99194,16.98081,16.99255,86.15429,86.15429,99.90941,99.90263,372.06296,372.10190,503.62943,503.62943,510.66238,510.66238,178.83746,178.83759,15.06178,15.06178,0.00000,0.00000,0.00000,0.00000,0.00000,0.00000
19.70657,164.62627,169.49062,169.49062,195.04634,0.25885,-379.29553,1.23346,0.10108,-0.01624,0.00000,0.00000,0.00000,1.01140,-3.54732,54.39946,55.00185,1.26404,30.29475,-87.49255,2131.74487,2127.75146,0.00000,2128.18652,715.70349,565.30853,-32814.99609,71.11310,-0.36498,-50.45298,0.62353,0.62353,531.76031,531.81982,849.39142,849.26154,1399.00720,1399.26587,1997.96948,1997.81995,1997.96948,1997.81995,16.99804,17.00830,86.15429,86.15429,99.90121,99.89393,372.12164,372.16095,503.85626,503.85626,510.76239,510.76239,178.85136,178.85147,15.06185,15.06185,0.00000,0.00000,0.00000,0.00000,0.00000,0.00000
19.70660,164.77036,169.63748,169.63750,195.21536,0.25908,-341.46426,1.22980,0.10058,-0.01753,0.00000,0.00000,0.00000,1.14869,-2.64663,54.33959,54.94204,1.24440,30.29480,-87.49248,2131.76514,2127.49023,0.00000,2128.18042,723.11450,565.28687,-32820.26172,71.12617,-0.13021,-50.56622,0.62353,0.62353,531.83502,531.89960,848.74573,848.76727,1399.32434,1399.60535,1997.79883,1997.63562,1997.79883,1997.63562,17.01464,17.02314,86.15429,86.15429,99.89260,99.88468,372.17822,372.21909,504.08398,504.08398,510.86026,510.86026,178.86563,178.86572,15.06190,15.06190,0.00000,0.00000,0.00000,0.00000,0.00000,0.00000
19.70663,164.91431,169.78473,169.78473,195.38478,0.25930,-301.21231,1.22548,0.10008,-0.01847,0.00000,0.00000,0.00000,1.28832,-1.70231,54.29531,54.89783,1.22225,30.29485,-87.49240,2131.87183,2127.70020,0.00000,2128.25757,730.82867,565.29022,-32825.75000,71.14831,0.11120,-50.66579,0.62353,0.62353,531.90796,531.97858,848.17535,848.33557,1399.63635,1399.94373,1997.62488,1997.44641,1997.62488,1997.44641,17.03157,17.03804,86.15429,86.15429,99.88403,99.87537,372.23453,372.27805,504.31473,504.31473,510.95679,510.95679,178.88040,178.88049,15.06196,15.06196,0.00000,0.00000,0.00000,0.00000,0.00000,0.00000
19.70667,165.05894,169.93158,169.93158,195.55377,0.25953,-258.67563,1.22036,0.09952,-0.01908,0.00000,0.00000,0.00000,1.42866,-0.71487,54.26893,54.87151,1.19728,30.29490,-87.49232,2132.07300,2127.85425,0.00000,2128.42749,738.83374,565.32123,-32831.45703,71.18092,0.35753,-50.74907,0.62353,0.62353,531.98108,532.05792,847.48920,847.78906,1399.95129,1400.28601,1997.45251,1997.25867,1997.45251,1997.25867,17.04837,17.05265,86.15429,86.15429,99.87528,99.86584,372.29016,372.33722,504.54758,504.54758,511.05151,511.05151,178.89568,178.89575,15.06201,15.06201,0.00000,0.00000,0.00000,0.00000,0.00000,0.00000
19.70670,165.19794,170.07373,170.07373,195.71736,0.25975,-215.18846,1.21441,0.09899,-0.01934,0.00000,0.00000,0.00000,1.56484,0.28739,54.26165,54.86430,1.17051,30.29495,-87.49223,2132.36646,2128.19849,0.00000,2128.68774,746.90466,565.38013,-32837.21484,71.22419,0.60032,-50.81205,0.62353,0.62353,532.04822,532.13086,846.99884,847.41138,1400.24341,1400.60339,1997.28369,1997.07642,1997.28369,1997.07642,17.06522,17.06730,86.15429,86.15429,99.86707,99.85691,372.34348,372.39444,504.77560,504.77560,511.14163,511.14163,178.91100,178.91104,15.06206,15.06206,0.00000,0.00000,0.00000,0.00000,0.00000,0.00000
19.70673,165.33133,170.20415,170.20413,195.86742,0.25995,-173.23854,1.20829,0.09842,-0.01944,0.00000,0.00000,0.00000,1.69010,1.25054,54.27143,54.87414,1.14428,30.29500,-87.49215,2132.72949,2128.46533,0.00000,2129.03564,754.61957,565.46149,-32842.71875,71.27563,0.82628,-50.85230,0.62353,0.62353,532.11145,532.19885,846.26056,846.77948,1400.52087,1400.90149,1997.13757,1996.91943,1997.13757,1996.91943,17.08036,17.08042,86.15429,86.15429,99.85915,99.84840,372.39182,372.44647,504.98740,504.98740,511.22296,511.22296,178.92557,178.92561,15.06209,15.06209,0.00000,0.00000,0.00000,0.00000,0.00000,0.00000
19.70675,165.44894,170.32098,170.32098,196.00191,0.26012,-133.99432,1.20241,0.09794,-0.01941,0.00000,0.00000,0.00000,1.80258,2.15050,54.29393,54.89671,1.11989,30.29505,-87.49207,2133.13696,2128.94116,0.00000,2129.42627,761.80420,565.55853,-32847.84375,71.33258,1.03068,-50.87225,0.62353,0.62353,532.16492,532.25568,845.84155,846.43506,1400.75769,1401.15308,1997.00073,1996.77527,1997.00073,1996.77527,17.09450,17.09281,86.15429,86.15429,99.85229,99.84113,372.43423,372.49207,505.17926,505.17926,511.29465,511.29465,178.93906,178.93910,15.06213,15.06213,0.00000,0.00000,0.00000,0.00000,0.00000,0.00000
19.70678,165.56178,170.43781,170.43781,196.13634,0.26030,-93.24583,1.19653,0.09747,-0.01937,0.00000,0.00000,0.00000,1.91518,3.08892,54.32986,54.93269,1.09494,30.29510,-87.49200,2133.63013,2129.44751,0.00000,2129.88696,769.25922,565.68054,-32853.15625,71.40077,1.23631,-50.87556,0.62353,0.62353,532.21973,532.31268,845.46014,846.11334,1401.00232,1401.40784,1996.85278,1996.62231,1996.85278,1996.62231,17.10833,17.10502,86.15429,86.15429,99.84513,99.83368,372.47598,372.53659,505.37311,505.37311,511.36517,511.36517,178.95300,178.95303,15.06216,15.06216,0.00000,0.00000,0.00000,0.00000,0.00000,0.00000
19.70681,165.67375,170.55005,170.55005,196.26549,0.26047,-52.67106,1.19065,0.09698,-0.01942,0.00000,0.00000,0.00000,2.02313,4.02967,54.37732,54.98022,1.07016,30.29514,-87.49192,2134.19067,2130.15869,0.00000,2130.42993,776.70288,565.82318,-32858.45703,71.47810,1.43485,-50.86129,0.62353,0.62353,532.27356,532.36792,844.89673,845.61688,1401.24536,1401.65723,1996.71387,1996.48035,1996.71387,1996.48035,17.12126,17.11648,86.15429,86.15429,99.83791,99.82628,372.51614,372.57889,505.56143,505.56143,511.43179,511.43179,178.96687,178.96687,15.06218,15.06218,0.00000,0.00000,0.00000,0.00000,0.00000,0.00000
19.70684,165.78407,170.66525,170.66524,196.39806,0.26065,-9.63737,1.18440,0.09650,-0.01955,0.00000,0.00000,0.00000,2.13308,5.03797,54.43977,55.04273,1.04372,30.29519,-87.49184,2134.86157,2130.74805,0.00000,2131.05933,784.64685,565.99768,-32864.10156,71.57067,1.63880,-50.82720,0.62353,0.62353,532.32782,532.42279,844.47784,845.25995,1401.49219,1401.90686,1996.56128,1996.32654,1996.56128,1996.32654,17.13466,17.12846,86.15429,86.15429,99.83051,99.81879,372.55707,372.62143,505.75681,505.75681,511.49899,511.49899,178.98160,178.98158,15.06221,15.06221,0.00000,0.00000,0.00000,0.00000,0.00000,0.00000
